id,name,street,zip_code,lat,lon,geojson_feature_id
65763474,ADFC Geschäftsstelle,Koppel 34-36,20099,53.5573864,10.0098445,01105114
68413607,Kundenzentrum Walddörfer,,,53.6499918,10.1618732,05517525
156865589,Baubüro HN,,,53.5538014,10.084909,01111129
201812125,Hamburgische Bürgerschaft,Rathausmarkt 1,20095,53.5502503,9.992872,01101102
257693056,Studierendenzentrum HAW,,,53.5549683,10.0217565,01105113
259980329,AOK,,,53.5801498,9.9756454,04401401
264503029,Turnerschaft Harburg,,,53.4556927,9.9364976,07709710
277790183,Die Continentale,Fuhlsbüttler Straße 263,22307,53.5973501,10.042436,04410428
277790190,"Ulf Meins,Klaus Riez,Sebastian Grimme",Fuhlsbüttler Straße 257,22307,53.5966036,10.0429085,04410428
277790191,Jucknat & Partner,Fuhlsbüttler Straße 257,22307,53.5965033,10.0429619,04410428
290633652,Wrenkh KochEvents,Max-Brauer-Allee 251,22769,53.562657,9.9572332,02203208
291151840,Finanzamt Hamburg-Altona,Holstenplatz 18,22765,53.561719,9.9476999,02201206
293521635,,,,53.5617057,9.9615391,02202207
294012235,Deichwacht Hamburg-Mitte,,,53.5356556,10.0426606,01114132
298575950,Weiss,Hummelsbüttler Hauptstraße 59,22339,53.6418023,10.0378221,05512520
303234623,Neues Amt Altona,Große Bergstraße 264,22767,53.552148,9.9378286,02201203
309795404,Lebenswerk Coaching + Beratung Christine Porschke,,,53.5631484,9.9175287,02205216
315111051,Schwedisches Honorarkonsulat Hamburg,,,53.5457451,9.9732893,01103105
319503542,Finanzamt Hamburg Am Tierpark,Hugh-Greene-Weg 6,22529,53.5948177,9.9449426,03305317
339978685,Institut für Pharmazie,,,53.5674512,9.9759099,03302311
344618609,Rickmers Reederei/Group,Neumühlen 19,22763,53.5439643,9.9199149,02204214
344870985,FuH,,,53.5818681,9.7569382,02214227
345583282,Bezirksamt Hamburg-Mitte Bauamt Verwaltung Planten un Blomen,,,53.5614367,9.9788955,01104109
355598971,Medienagentur teege.me,Planckstraße 7a,22765,53.5564346,9.9242333,02204211
360838959,Fast Lane Institute for Knowledge Transfer GmbH,Gasstraße 4a,22761,53.5616559,9.9165025,02205216
360841307,ROCCAT GmbH,Gasstraße 4,22761,53.5612205,9.9164077,02205216
360842390,CDK Hanseatic Medical Trade GmbH & Co. KG,Paul-Dessau-Straße 3f,22761,53.5629035,9.9165168,02205216
360871652,Basko Healthcare,,,53.5618605,9.9140254,02205216
375527999,KFZ Sachverständiger Elmers,,,53.4720158,9.891034,07713714
375677300,Mohr Rechtsanwälte,,,53.5546932,9.9406016,02203210
383677297,oose eG,Schomburgstraße 50,22767,53.55248,9.9478284,02201205
391530717,Geschäftsstelle TuS Holstein Quickborn,,,53.7356178,9.9011824,0
393174964,Vattenfall Kundencenter,Osterstraße 103,,53.5756363,9.9533527,03301306
393186219,SUNS CARE,Heußweg 22,,53.5750138,9.9514333,03301306
410821998,Taxi-Ruf Schenefeld Gbr,,,53.5984057,9.8500478,0
411017022,Canel e.V.,Hamburger Straße 169,,53.5776821,10.0383649,04408421
411017023,Thomas Bockwoldt,,,53.5768535,10.0377785,04408421
422571628,City BKK,,,53.5441014,10.0249173,01106116
422571629,Barmer GEK,,,53.5443927,10.0246877,01106116
427948530,Institut für die Geschichte der deutschen Juden,,,53.5697931,9.9758332,03302311
427948539,Forschungsstelle für Zeitgeschichte Hamburg,,,53.569677,9.9755631,03302311
427948721,Institut für Friedensforschung und Sicherheitspolitik an der Universität Hamburg,,,53.5696644,9.9760938,03302311
432425871,DRK OV Großhansdorf,Papenwisch 30,22927,53.6482271,10.2810432,0
450394233,Silver Monkey GmbH,Nobistor 10,,53.5500569,9.9566927,01104112
462758519,Schiffszimmerergenossenschaft,Heegbarg 89,22395,53.6595035,10.0955671,05510518
477335595,Pütz Security AG,,,53.5460612,9.9616125,01104112
497034463,Christoph Nies Cycles,,,53.561524,9.953253,02203208
521465219,Arbeitsgemeinschaft freier Jugendverbände,,,53.5468696,9.9723755,01103105
530693339,Consulado General de Guatemala,,,53.5576076,9.9915696,01103108
541393168,Honorarkonsulat von Kenia,,,53.5515848,10.0027598,01101101
556010401,Finanzamt Pinneberg,Friedrich-Ebert-Straße 29,25421,53.6624666,9.7991457,0
567926925,Gorillas,Hoheluftchaussee 76,20253,53.5828351,9.9712812,03304316
570516890,HafenCity-Media,Bramfelder Chaussee 181,22177,53.6077937,10.07153,05507515
583203491,Mobil BKK,Hühnerposten 2,20097,53.5492566,10.008679,01106115
588475216,Handelskammer Hamburg,Adolphsplatz 1,20457,53.5498259,9.9912661,01101102
588652039,Nordlicht e.V. Geschäftsstelle Standort Nord,,,53.5747314,10.0423069,04408422
608092050,Hamburger Microcomputer Hochschulgruppe e.V.,,,53.5699506,9.9783829,03302311
610428541,Suddenbrock Immobilien,,,53.653307,10.1029428,05510518
610428542,Dr. Andre Bohnes,,,53.6533447,10.1029243,05510518
615155955,"Bibliothek, Statistisches Amt für Hamburg und Schleswig-Holstein",Steckelhörn 12,20457,53.5456244,9.9929453,01101102
615364790,Jobcenter,,,53.5399557,10.0422135,01114132
653913206,Barmer,Bahrenfelder Straße 138,22765,53.5532984,9.9295124,02204213
663678589,Treuhansa Doctores Völschau,,,53.5604487,9.8889341,02206218
675768834,miet-fix Maschinen- & Gerätevermietung,Holstenhofkamp 6,22041,53.579551,10.1035975,05505513
675768844,miet fix - Anhänger,Holstenhofkamp 2,22041,53.5790953,10.1031798,05505513
710355003,Honorarkonsulat der Republik Guatemala,Esplanade 6,20354,53.557499,9.9918672,01103108
748827204,Honorargeneralkonsul von Sri Lanka,,,53.5440433,9.9933578,01102103
766762630,EHB Rechtsanwälte,Bramfelder Chaussee 226,22177,53.6116077,10.0745907,05507515
800936800,Der Neue Ruf,Cuxhavener Straße 265b,21149,53.47152,9.8700666,07714715
842591456,Zyto Service,Albert-Schweitzer-Ring 18,,53.5798136,10.1202704,05505513
863595734,,Ahrensfelder Weg 11,22927,53.6523533,10.2610302,0
900583010,Rainer Müller,Hummelsbütteler Markt 1,22339,53.6425507,10.0462757,05512520
915434253,Neusoft Technology Solutions GmbH,Hugh-Greene-Weg 2-4,22529,53.5952807,9.9467564,03305317
955722481,TUV Rheinland Group,,,53.5946462,9.9442718,03305317
956012339,ASB Hamburg-Eimsbüttel Hauptgeschäftsstelle,,,53.6187464,9.9513065,03306318
978789520,Müller & Förstermann,,,53.6098771,10.0585753,05508516
983452180,LBS Immobilien,Ohechaussee 19A,22848,53.6812913,9.9965812,0
983505128,Stadtmarketing Pinneberg,Dingstätte 28a,25421,53.6615498,9.7956608,0
1017868272,Handwerkskammer Hamburg,Holstenwall 12,20355,53.5530432,9.9769408,01103106
1029373356,Zollamt Pinneberg,Am Drosteipark 1,25421,53.6607134,9.7973015,0
1039082036,Jungheinrich AG - Informationstechnologie,,,53.6762079,9.9978952,04413432
1072849245,Generalagentur Giebler und Bredehöft Provinzial Versicherung,Osdorfer Landstraße 251,22549,53.5729975,9.8413673,02209221
1112854742,Opternus GmbH,Bahnhofstraße 5,22941,53.7291687,10.2693151,0
1115417448,MAYA Kaffee 1991,,,53.5483932,10.0144453,01106115
1282079757,Kfz-Sachverständigenbüro Wolfgang Fährmann,Dehnhaide 58,,53.578839,10.0457355,04408423
1302567766,ASS Aufzugservice Stöckling,,,53.5429013,10.2480894,0
1303517455,Rief Schornsteintechnik,,,53.5703999,10.2396195,0
1312352056,Daniel Denzau Malereibetrieb,Möllner Landstraße 13,21465,53.5515189,10.2486391,0
1312352059,Ingenieurbüro Zimmermann & Partner,Möllner Landstraße 11a,21465,53.5516217,10.2489788,0
1314554046,Lau Verlag,Kirschenweg 10b,21465,53.5510293,10.2502942,0
1340397731,a cute color,Hufnerstraße 20,22083,53.5838294,10.0427538,04408421
1346840733,telent,,,53.5508011,10.0390766,01106118
1375168994,Finanzamt Hamburg für Prüfungsdienste und Strafsachen,Hugh-Greene-Weg 6,22529,53.5947914,9.9448522,03305317
1375170086,Finanzamt Hamburg-Eimsbüttel,Hugh-Greene-Weg 6,22529,53.5948303,9.9450392,03305317
1383010988,Grossmann & Berger,Tibarg 37,22459,53.6221092,9.9519955,03306318
1415886403,Turnverein Meckelfeld von 1920 e. V.,,,53.4224783,10.0152929,0
1418901073,Wentzel Dr.,,,53.6742646,10.2377502,0
1423405007,Wohnungsgenossenschaft Hamburg-Wandsbek von1897 eG,Gladowstraße 20,22041,53.5791896,10.0736337,05502507
1426560261,Adventure Tours,Fuhlsbüttler Straße 119,22305,53.5898846,10.044901,04410427
1426561353,Rechtsanwaltskanzlei Janko,Hellbrookstraße 47,22305,53.5915783,10.0431808,04410427
1427320278,Institut für Lufttransportsysteme,,,53.4645725,9.984568,07701702
1427320280,Institute of Control Systems,,,53.4645292,9.984708,07701702
1452699119,A&L Personallogistiker,,,53.462837,9.9733943,07701701
1472936558,msg nexinsure ag,Steindamm 94,20099,53.5557138,10.01796,01105113
1486350120,SAGA-Geschäftsstelle Mitte,Hammer Landstraße 120,20537,53.554958,10.0548689,01108124
1491994761,i.do - Berufsprofiling für Mütter,,,53.5962105,9.9835824,04402405
1502211905,Lemke Personalservice,,,53.5616216,9.9470609,02201206
1502662523,Generalkonsulat - Uruguay,Hochallee 76,20149,53.5792093,9.9866084,03303314
1513517759,Future Payments,Eiffestraße 598,20537,53.5509745,10.0541733,01108125
1524859705,Grüne Jugend Hamburg (GJHH),,,53.5492448,10.0001671,01101101
1561370931,Hamburger Abendblatt Digital,,,53.54862,9.98975,01101102
1589625410,Musicworks,Heckscherstraße 3,20253,53.580306,9.961733,03304316
1590992483,Rock Lobster Webdesign,,,53.5876009,9.9491406,03305317
1613188095,Engel & Völkers,,,53.5595065,9.8855463,02206218
1613188291,Mollwitz - Architektur und Grundstücke,,,53.559581,9.8824033,02206218
1673123969,ROSE & PARTNER – Rechtsanwälte Steuerberater,Jungfernstieg 40,20354,53.5544546,9.9901045,01103108
1673178703,Rechtsanwälte Puskas & Kollegen,Tibarg 38,22459,53.6197919,9.9518145,03306318
1673428667,Rechtsanwältin Ina Marie Koplin,Bei Schuldts Stift 3,20355,53.5534653,9.9775943,01103106
1692991555,Landesgeschäftsstelle Piratenpartei Hamburg,Elsässer Platz 1,22049,53.579152,10.0645439,04409424
1752252644,Baukeramik Pegel,,,53.5796025,10.1190264,05505513
1752262462,Metallbau Senkpiel,Albert-Schweitzer-Ring 12,22045,53.579375,10.1187657,05505513
1752263921,Tischlerinnung,Albert-Schweitzer-Ring 10,22045,53.5793702,10.1185008,05505513
1752266357,Draeger Safety,Albert-Schweitzer-Ring 22,22045,53.5801675,10.1206043,05505513
1752281597,Hilti,Kuehnstraße 73,22045,53.5789996,10.1217362,05505513
1752281606,OKI,Kuehnstraße 71,22045,53.5788503,10.1211594,05505513
1783580668,Generalkonsulat der Republik Indien,Graumannsweg 57,22087,53.5641851,10.0225531,04407416
1783580675,Honorarkonsulat der Republik Albanien,,,53.6464997,10.1839796,05517525
1783580679,Honorarkonsulat der Republik Mosambik,,,53.5446991,9.9447167,02201202
1783664528,Donner & Reuschel AG,,,53.5526617,9.9965328,01101101
1786248261,Rechtsanwalt Lampe,Ratsmühlendamm 19,22335,53.6259903,10.0261189,04411430
1787908170,Honorarkonsulat des Vereinigten Königreichs Großbritannien und Nordirland,,,53.5570668,9.9916616,01103108
1790471119,Logos Verkehrsplanung und Verkehrstechnik,Winsbergring 42,22525,53.5764498,9.9181593,02205215
1809979620,HUK Kundendienstbüro Christiane Bals,Holsteinischer Kamp 1,22081,53.5749301,10.0373855,04408422
1813589721,Waku Waku,,,53.5494183,9.9928391,01101102
1817095676,Die Linke Harburg,Wallgraben 24,21073,53.4625979,9.9782074,07701701
1842970345,AMS-Event Mobility,,,53.614612,10.008554,04404407
1854143192,Bürgerbüro,,,53.6004707,9.8362843,0
1859055064,Rauhes Haus - Ambulante Hilfe,,,53.5850192,9.950662,03305317
1867097594,alfatraining Bildungszentrum,Frankenstraße 12,20097,53.5483349,10.0249613,01106117
1900211313,Generalkonsulat der Republik Ecuador,,,53.5798934,9.9882749,03303314
1900211314,Honorarkonsulat der Republik Kenia,,,53.5732293,9.9882063,03303313
1900211327,Honorarkonsulat der Republik Moldau,Haldesdorfer Straße 46,22179,53.5974428,10.0742184,05507515
1900211328,Honorarkonsulat der Vereinigten Mexikanischen Staaten,Großer Burstah 42,20457,53.5485491,9.9883903,01101102
1900211329,Honorarkonsulat des Haschemitischen Königreichs Jordanien,,,53.5708293,9.9879651,03302312
1912735060,Kulturbehörde,,,53.5539195,9.987538,01103108
1912743390,Öffentliche Rechtsauskunft- und Vergleichsstelle Hamburg,,,53.5572263,9.9882829,01103108
1918693923,Gemeindebüro,,,53.4144028,10.2650606,0
1927281455,Provinzial,,,53.598276,9.8581079,02208220
1927285253,Bärbel Petrikowski-Cieslak,,,53.597907,9.856295,02208220
1927496535,Abgeordnetenbüro Frank Schmitt,,,53.5986404,9.8588128,02208220
1927558454,West Umzüge,Altonaer Chaussee 36,22869,53.598962,9.8494577,0
1934912947,Vattenfall Service Point,Erik-Blumenfeld-Platz 27a,,53.5637808,9.8134705,02211223
1946607824,DEVK Lars Ziegler,Lornsenstraße 3,22869,53.5992767,9.8485717,0
1948006870,Marquardt&Noack Immobilien,,,53.5632912,9.8099502,02211223
1960874663,Honorarkonsulat Norwegen,,,53.5548126,9.9840088,01103108
1961353150,Olli-G Design,Zaunkönigweg 16,22846,53.7213061,9.9877067,0
1962443448,IconScreen,Kronprinzenstraße 26,22587,53.5653139,9.8339953,02209221
1964221091,SILPION IT-Solutions GmbH,Brandshofer Deich 48,20539,53.5381434,10.0277521,01114133
1972807649,Honorarkonsulat Belarus (Weissrussland),,,53.5520079,9.9917201,01103108
1972807655,Honorarkonsulat Lettland,,,53.5523768,9.9927006,01103108
1974102878,Honorarkonsulat Kolumbien,,,53.5505151,9.9873229,01103108
1983595836,Breeze Industrial Packing,,,53.5458993,9.9816694,01103105
1983595859,COSCO,Herrengraben 74,20459,53.5482982,9.9830885,01103107
1991934244,Pflegedienst Reimers & Muroni,Erdkampsweg 7,22335,53.6269765,10.0248992,04412431
1992428951,,Bahrenfelder Steindamm 41,22761,53.5602038,9.9268448,02205215
1999607090,Bigpoint GmbH,,,53.556799,9.9860053,01103108
2012099289,Akademie für Publizistik,Warburgstraße 8-10,,53.5601602,9.9948036,03302312
2016698984,Generalkonsulat Republik Korea,,,53.5526291,9.9842084,01103107
2024632665,Allianz Günther Derjung,,,53.6676863,10.2288537,0
2025507694,Netto Büro Hamburg / Schleswig-Holstein,,,53.70903,10.2117743,0
2026745382,Alianz,,,53.4706804,9.8539366,07714715
2094827162,Ammersbeker Sport- und Landschaftsbau,Timmerhorner Straße 2,22949,53.7087983,10.2310235,0
2094827163,Autoankauf,Timmerhorner Straße 2,22949,53.7088299,10.2307633,0
2112104444,Erzbistum Hamburg Referat Kinder und Jugend,,,53.5551614,10.0087014,01105114
2117576798,Elbe Erlebnistörns,,,53.5450745,9.9705198,01104112
2117790923,SWYM - Die Schwimmschule,Winterhuder Weg 90,22085,53.5751535,10.0216732,04408418
2125070706,Naturschutzjugend Hamburg,Klaus-Groth-Straße 21,20535,53.5555266,10.0298286,01107120
2125700209,Buchhaltung Röhm,Michaelispassage 7,,53.5502454,9.9823995,01103107
2125772815,Offen Group,Bleichenbrücke 10,20354,53.5520497,9.9883241,01103108
2132542707,Bundesnetzagentur Außenstelle Hamburg,,,53.5457603,10.027582,01106117
2138018965,BBS Rechtsanwälte,,,53.5509151,9.9810349,01103107
2143501624,Reisebüro Stinnes,Schaapkamp 1b,22927,53.6629049,10.2859439,0
2151596402,Andreas Bunk Landschaftsarchitekt,,,53.5515428,9.9807074,01103107
2154742116,Haiilo,Gasstraße 6a,,53.5614467,9.9148753,02205216
2188338859,Generalkonsulat von Chile,Hirschgraben 30,22089,53.5651266,10.0421997,05501501
2199252341,Ortsverband ASB Hamburg-Bergedorf / Rothenburgsort e. V.,,,53.4811625,10.2186585,06602603
2200731785,Dole,Stadtdeich 7,20097,53.5451215,10.0091869,01106115
2229407933,Phoenix Security,Kieler Straße 407,22525,53.5917025,9.9291267,03309321
2246200685,Katrin Gläsner,,,53.6505514,10.1622277,05517525
2262370937,RMT GMBH,,,53.5903758,10.0902962,05502509
2270039479,Gibbesch Immobilien,,,53.7293021,10.2602548,0
2270436709,Heuer & Sachse Werbeagentur GmbH,Paul-Dessau-Straße 3c,22761,53.5629153,9.9167349,02205216
2270862604,Jugendberufsagentur,,,53.4906525,10.2065766,06601601
2270862605,Agentur für Arbeit,,,53.4905778,10.2063575,06601601
2306837951,Klub.k,,,53.5457127,9.9930225,01101102
2306851006,Hanjin Shipping,,,53.5423941,9.9952648,01102103
2306883443,Grossmann&Berger,,,53.5423622,9.9976815,01102103
2311078757,"Bündnis90/DIE GRÜNEN, Kreisverband Hamburg-Nord",Bussestraße 1,22299,53.5985103,9.9973184,04405408
2311086457,"Bündnis90/DIE GRÜNEN, Fraktion Hamburg-Nord",Bussestraße 1,22299,53.5985121,9.9973961,04405408
2318514744,HUK-Coburg,,,53.6038465,9.8952092,03308320
2318849927,e3light,,,53.5414921,9.986596,01102103
2318849928,Meissler & Co,,,53.5412338,9.9861534,01102103
2318864606,Engel & Völkers,,,53.5416801,9.9897099,01102103
2321859551,Ban Canteen,,,53.556567,9.9627439,01104110
2322343498,BÜNDNIS 90 / DIE GRÜNEN - Kreisverband Bergedorf,Töpfertwiete 28,21029,53.4850761,10.2141333,06602602
2341188460,BÜNDNIS 90/DIE GRÜNEN Landesverband Hamburg,,,53.5492417,10.0001844,01101101
2341650882,Bendfeldt Immobilien,,,53.5906348,10.0027401,04405409
2345406400,Norddeutscher Rundfunk,Hugh-Greene-Weg 1,22529,53.5979485,9.9470898,03305317
2347260859,Books on Demand GmbH,In de Tarpen 42,22848,53.6656648,9.9795969,0
2352607648,PPI AG Informationstechnologie,Moorfuhrtweg 13,22301,53.5852756,10.0086381,04405410
2353621836,freenet.de AG,,,53.6012129,9.9902527,04404407
2384054369,Loch & Braunsdorf Immobilien,,,53.4725843,9.8396627,07714715
2387339823,Weiterbildung Hamburg,Steindamm 91,20099,53.5566032,10.0183379,01105113
2388714840,Betonfirma KBK,Neuhäuser Damm 27,20539,53.5253349,10.0235382,01115134
2402556885,GTÜ-Prüfstelle,,,53.4722569,9.848009,07714715
2404550433,luenzmann architektur,,,53.4602843,9.9785659,07701701
2406660759,Altländer Honig-Manufaktur & Imkerei,Groß Hove 82,21635,53.52704,9.7411075,0
2425850512,ATG Alster-Touristik GmbH,,,53.5531712,9.9937274,01103108
2430615985,milch & zucker AG,Eimsbütteler Chaussee 23,20259,53.5666,9.9571642,03301310
2434964337,Fis Organisation GmbH,,,53.5912371,10.0992556,05505513
2442651784,WKC Hamburg GmbH Planungen im Bauwesen,Veritaskai 8,21079,53.4655937,9.9892138,07701702
2447846950,Salewsky Anwaltskanzlei,Ahrensburger Straße 105,22045,53.5799578,10.1031845,05505513
2463751413,SKILL Networks,,,53.5811516,9.931279,03309321
2463752848,PROMO Datentechnik & Systemberatung,,,53.5812352,9.9314381,03309321
2465057373,Bezirksamt Wandsbek,Schloßstraße 60,22041,53.5716732,10.0707898,05503510
2469770496,MAKRO Immobilien,Damm 6,25421,53.6609554,9.8015621,0
2471286299,Bezirksamt Wandsbek - Standesamt,Am Alten Posthaus 1,22041,53.5714601,10.0706896,05503510
2476389652,NEW WORK Pier,,,53.5393885,9.9932576,01102103
2482438998,screenmakers,Abendrothsweg 65,20251,53.5836929,9.9734065,04401401
2495986413,Das Aufklebeamt - Werbegrafik,,,53.5599008,9.9283898,02205215
2505862942,SENDESIGNAL Dialog & Design OHG,Planckstraße 13,22765,53.5566081,9.9233894,02204211
2506544248,Die Grünen,,,53.7283406,10.2688167,0
2507158825,Jutta Werner,,,53.7292696,10.260213,0
2507158903,Sven-Arne Werner,,,53.7292787,10.2602274,0
2509550846,CKP Bausanierung,,,53.5857207,9.875152,02208220
2509550848,YourNetwork Hamburg,,,53.5861313,9.8751573,02208220
2510308527,first dot pictures GmbH,Stresemannstraße 60,22769,53.5600777,9.9594828,02201206
2515960441,M&P Gebäudeservice,Tangstedter Landstraße 500,22851,53.6819967,10.0319614,0
2516016899,Alphabeta GmbH,,,53.545324,10.0259324,01106117
2516080609,Greenpeace e.V. Deutschland,Hongkongstraße 10,20457,53.541795,10.0014999,01102104
2517719355,Hansestadt Immobilien,Am Kaiserkai 65,20457,53.5412506,9.9864432,01102103
2523326816,Haus der Kirchlichen Dienste,,,53.5575741,10.012632,01105113
2525381148,Caritasverband für Hamburg,,,53.5575771,10.012428,01105113
2534045746,Jobcenter,,,53.4862517,10.2050567,06602602
2543226195,Beratungsstelle Weiterbildung Hamburg,,,53.5565508,10.0183294,01105113
2546182346,coininaction d.sign,,22765,53.5560041,9.9302665,02204211
2546606764,Monkeys Music Club,Barnerstraße 16,,53.5576381,9.9309291,02204211
2550426041,Baby Natur Versand,Gustav-Kunst-Straße 2,20539,53.5364116,10.0583176,01114132
2562184314,Hanseatic Capital,,,53.6404625,9.9467804,03306318
2569639194,armada consulting,Jungfernstieg 38,20354,53.5542304,9.990516,01103108
2569654013,LOOK OUT! Modelmanagement Hamburg,Jungfernstieg 38,20354,53.5541954,9.9905428,01103108
2584251281,KFZ Gutachter,Stadtbahnstraße 39a,22393,53.6530712,10.1036995,05510518
2584251287,Itzehoer Versicherungen,,,53.6533093,10.1059777,05510518
2584281274,CDU Bürgerbüro,,,53.6535325,10.1036053,05510518
2584281284,Allianz,,,53.6535325,10.103513,05510518
2584281288,Pflegedienst im Alstertal,,,53.6535302,10.1037015,05510518
2590874314,Greenpeace Hamburg,Hongkongstraße 10,20457,53.5416155,10.0013117,01102104
2595613964,Dipl.-Psych. Carola Lutz,Bremers Weg 2,22587,53.5582915,9.8090979,02211223
2620060844,Concept2 Deutschland GmbH,Kuehnstraße 71,22045,53.5791254,10.1209329,05505513
2621922627,Willy Schmidt Büroservice,Bramfelder Chaussee 48,22177,53.5959893,10.0628991,05507515
2645523327,Allianz Martin Naumann,,,53.459932,9.9850054,07701702
2659441103,Gesundheitsamt Hamburg-Harburg - Außenstelle Familie,,,53.4577495,9.9796697,07701701
2661599175,württembergische,,,53.4571012,9.9788195,07701701
2661599300,Jungenarbeit Hamburg e.V.,,,53.4575156,9.9791535,07701701
2668424419,Internetq,Christoph-Probst-Weg 3,20251,53.5970178,9.9764764,04402405
2673439836,OBERMEYER,Michaelisstraße 24,20459,53.5496516,9.9812654,01103107
2680689954,Maklerbüro R. Boisen,Eppendorfer Landstraße 132,20251,53.593659,9.9883968,04402403
2680854328,Evert & Pausch Rechtsanwälte-Partnerschaft,Eilbeker Weg 197,22089,53.5743864,10.0584799,05502505
2712295288,DMSG - Deutsche Multiple Sklerose Gesellschaft Landesverband Hamburg e.V.,Eppendorfer Weg 154-156,20253,53.5791239,9.9659005,03304315
2721263206,RICHTERRECHTSANWÄLTE,Mönckebergstraße 17,20095,53.5504991,9.9985633,01101101
2723591502,magenta studio Druckvorlagen GmbH,Eimsbütteler Chaussee 21,20259,53.5663359,9.9569557,03301310
2732766963,Gravning,,,53.5814188,9.9510853,03301302
2747662699,HypoKontor,Vogteistraße 41a,21079,53.4358928,10.0086199,07705706
2763497266,Cadlife GbR,Klaus-Groth-Straße 25b,20535,53.5558811,10.0301273,01107120
2763682220,mach 51,,,53.5470411,9.9849685,01101102
2774648194,Reisering Hamburg,,,53.5521699,10.0122545,01105114
2779017131,von der Heide,,,53.4870686,10.2119094,06602602
2779041979,HSV Abteilungsbüro Rollstuhlsport,,,53.4866235,10.2121805,06602602
2781513066,Sieger Vermögensberatung,,,53.4595194,9.976989,07701701
2789061870,GALAB Laboratories GmbH,Am Schleusengraben 7,21029,53.475915,10.2023293,06603604
2826086644,Barner 16,,,53.5575931,9.9311392,02204211
2826101717,17digital,,,53.5577381,9.9310802,02204211
2830896950,Team Centric Software,,,53.5711319,10.024838,04406415
2832964416,HMV Hanseatische Materialverwaltung gGmbH,Stockmeyerstraße 41-43,,53.5426166,10.0089966,01102104
2841872229,Hempel & Knappert Tankservice,,,53.6645022,10.2264608,0
2851286640,Revierförsterei Hausbruch,,,53.4679761,9.8924315,07710711
2860454920,Hanselaw Hammerstein und Partner,Caffamacherreihe 5,20355,53.5549539,9.9839563,01103108
2867199072,Barmbek Working Class,Münstermannsweg 2,22309,53.604443,10.0429112,04410429
2876397676,Agentur für Arbeit,,,53.6671257,10.2328104,0
2900683952,Stadtteilladen Veddel aktiv e.V.,Immanuelstieg 5,20539,53.5242249,10.0179102,01115134
2914099093,Fugen Roesner,,,53.5852292,10.0257613,04405411
2918616135,Europa-Union Hamburg e.V.,Adolphsplatz 1,20457,53.5495682,9.9915066,01101102
2919467718,Sabine Gruber Immobilien,,,53.5672891,9.9645864,03301310
2923381211,Praxisklinik,Alte Holstenstraße 16,21031,53.4934837,10.2069132,06601601
2928914507,Grossmann & Berger,Mühlenkamp 34,22303,53.5817468,10.0116624,04405413
2932887287,Assystem GmbH,,,53.465735,9.9805299,07701702
2933004657,Kanzlei Roß & Partner,,,53.6739895,10.2417983,0
2965999767,uhrzeit.org GmbH,Holzbrücke 7,20459,53.5462607,9.9894153,01101102
2984604358,Max-Planck-Institut für Meteorologie,Bundesstraße 53,20146,53.567555,9.9749697,03302311
2985008033,SHBB Steuerberatung,,,53.6740468,10.2416947,0
2987777859,Dr. Schaper,An der Buschkoppel 3,22955,53.6599851,10.3122509,0
2997264037,FLSmidth Hamburg,Haderslebener Straße 7,25421,53.675943,9.8029696,0
2999311267,KWB Koordinierungsstelle Weiterbildung und Beschäftigung e. V.,Kapstadtring 10,22297,53.6041509,10.0277215,04405408
3014387069,Hauptzollamt Hamburg-Stadt,,,53.5272629,10.0122003,01117138
3021262340,Bauer Media Group,Burchardstraße 11,20095,53.5481928,10.0039632,01101101
3021293382,NORD EVENT GmbH,,,53.5462723,10.0002816,01102103
3046245532,BeOne Hamburg GmbH,Harburger Schloßstraße 30,,53.4655345,9.9837929,07701702
3057065758,PTS Logistics,Am Vulkanhafen 6,20457,53.5264649,9.9462641,01118139
3057452738,altonavi,,,53.5517917,9.9450746,02201204
3074107018,SeaTerra,Lotsestieg 6,21079,53.4674699,9.9859797,07701702
3093774019,Frimo,,,53.596057,9.9050625,03308320
3095941839,"Dr. med. Christian Grau
Alexander Zorn",Neugrabener Bahnhofstraße 33,21149,53.4691624,9.8547034,07714715
3100190955,Mieterverein zu Hamburg,,,53.5805318,9.9465314,03301301
3106969381,BDB Landesgeschäftsstelle Hamburg,,,53.46589,9.98721,07701702
3121832765,Creativ Bau Los,,,53.4269684,10.307681,0
3121870760,katrin hojer - grafik design,,,53.4277725,10.3098945,0
3121873741,Andreas Prahl - Sicherheitstechnik,,,53.4267323,10.3127661,0
3121875182,Brüggemann Energiekonzepte,,,53.4206765,10.315109,0
3121901242,Sternenpyramide,,,53.4241014,10.3213622,0
3123653234,Pastorat,Eichenkamp 14,22417,53.6796026,10.0163962,04413432
3123758772,Stattreisen Hamburg e.V.,Kuhberg 2,20459,53.5464141,9.9733504,01103105
3124412925,date up,Frankenstraße 7,20097,53.5487028,10.024966,01106117
3128994039,Allianz Versicherung Tchanra & Tchanra,,,53.4609358,9.9796616,07701702
3129268992,eBusiness-Lotse Hamburg,Adolphsplatz 1,20457,53.5497851,9.9913613,01101102
3131056109,elbdudler GmbH,Lutterothstraße 100,20255,53.5818337,9.9436585,03301301
3131896036,KiteWorldWide,Neustädter Neuer Weg 6,20459,53.5454555,9.9779517,01103105
3139335715,hej Team,,,53.5810458,9.9378351,03309321
3146065166,ABOUT YOU,Domstraße 10,20095,53.5493246,9.9958468,01101102
3148212017,DEVK,,,53.5885538,9.8756328,02208220
3149812042,Generali,,,53.551255,10.0138997,01105114
3150273377,Beehive Coworking,,,53.5499553,10.0040554,01101101
3170152694,Franziskanerkonvent Hamburg,,,53.5696873,9.9776052,03302311
3183008173,Steuerring,,,53.5799422,9.9418064,03301301
3193108060,Carl Blunk Grundstücksverwaltung,,,53.5492413,9.9228809,02204214
3214908173,Norbert Prehn,,,53.7270835,10.2522381,0
3216000683,Provinzial Versicherungen,,,53.6758791,10.2383798,0
3216000684,Techniker Krankenkasse,,,53.675855,10.2378986,0
3219911924,Raffay & Fleck Patentanwälte,Stephansplatz 2 - 6,20354,53.5578067,9.9892063,01103108
3221627290,Engel & Völkers,Wellingsbüttler Weg 117,22391,53.6413505,10.0802092,05509517
3221693751,Nähschule Hamburg,Paul-Sorge-Straße 51a,22459,53.6272571,9.9505443,03306318
3227877029,KPMG,Fuhlentwiete 5,20355,53.5533233,9.9848636,01103108
3236944291,Honorarkonsulat Island,Gertrudenstraße 3,20095,53.5528947,9.9997654,01101101
3240230668,Hamburg Wasser Kundencenter,,,53.5552626,10.0007056,01101101
3240230674,Warburg-HIH Invest,,,53.5531346,9.9993012,01101101
3241108813,Markt - Stormarner Tageblatt,,,53.6749162,10.2402615,0
3249907780,ClassiX,Oehleckerring 11,22419,53.6612935,10.0065874,04413432
3253184454,HSP STEUER Hamburg West GmbH & Co. KG,Luruper Chaussee 125,22761,53.5723618,9.8932665,02205217
3265069371,große freiheit – Gründeretagen,Simon-von-Utrecht-Straße 1,20359,53.5517713,9.9573238,01104110
3266787519,Repack Industrie-Verpackung,Glinder Weg 1a,21509,53.5242018,10.2172274,0
3281180290,Barkassen-Meyer,,,53.5450924,9.9704473,01104112
3283958867,MT Werbetechnik,,,53.5532247,9.9128823,02204212
3287274961,Jimdo GmbH,Stresemannstraße 375,22761,53.5650155,9.9208367,02205215
3301475400,PixelKiosk,Simon-von-Utrecht-Straße 1,20359,53.5517961,9.957242,01104110
3314622896,BUND-Landesverband Hamburg e. V.,Lange Reihe 29,20099,53.5568753,10.0098157,01105114
3326676793,Deutsche Telekom,Buxtehuder Straße 25,,53.4655815,9.9740744,07701701
3336730329,Katja Lichtenstein Rechtsanwältin,,,53.5742294,9.8437943,02209221
3336730331,Henningsmeier Rechtsanwälte,,,53.5732228,9.8451462,02209221
3343742294,mindmatters,Eifflerstraße 43,22769,53.5623857,9.959547,02202207
3358599859,Grundeigentümerverband Hamburg,,,53.5545556,10.0021633,01101101
3359834748,,Kiebitzhörn 28,22885,53.5743173,10.1889668,0
3373750397,Reisen und Bücher am Michel,Wincklerstraße 6,,53.5478294,9.97998,01103107
3385732048,Saga-GWG Geschäftsstelle Osdorf,Bornheide 10,22549,53.5839887,9.855146,02209221
3397354111,Honorarkonsulat der Republik Kolumbien,,,53.548932,9.9918865,01101102
3404343919,Grosse Freiheit,,,53.5524159,9.9639461,01104111
3409667604,Cäsar&Co Immobilien,,,53.5956939,10.0013576,04405409
3410346604,luenzmann architektur,,,53.4675063,9.9707144,07710711
3411362425,Barmer,Europaallee 1,22850,53.681981,9.9872845,0
3412583386,Stahlmann Immobilien KG,Friedrichsgaber Weg 353,22846,53.7066677,9.9833166,0
3417602101,Hauptverwaltung Hamburger Hafen und Logistik,Bei St. Annen 1,20457,53.5450233,9.9976646,01102103
3431408689,Jobcenter Mümmelmannsberg,Feiningerstraße 14,22115,53.5286571,10.1485052,01112130
3443344574,Sascha von der Born Immobilien,Hauptstraße 38i,22885,53.5690452,10.1642451,0
3443344575,Kanzlei Petrausch & Partner,Hauptstraße 38h,22885,53.5690041,10.1639177,0
3446613367,OFB-Objektfunkbau GmbH,Gärtnerstraße 81F,25469,53.633659,9.8558086,0
3447352518,The Passionist,Poelchaukamp 1,22301,53.5816499,10.0108141,04405413
3448986382,"Gössler Kinz Kerber Schippmann
Architekten",,,53.5455759,9.9762445,01103105
3451016366,Naturheilpraxis Ina Kollmorgen,,,53.6036428,10.154302,05518526
3452067720,,,,53.5538201,10.0029166,01101101
3456200911,Hamburger Sparkasse,Bahrenfelder Straße 83,22765,53.5517717,9.9301043,02204213
3458070039,"Marcard, Stein & Co",,,53.5523396,9.9959641,01101101
3460178867,WK it consultants,,,53.5545607,9.9812273,01103107
3462103465,LuzLicht,,,53.5449171,9.9773625,01103105
3479913211,H-SEC,,,53.5836129,9.8807923,02208220
3484162184,Volt Fraktion Eimsbüttel,Fröbelstraße 2,,53.5652634,9.9836159,03302312
3487468370,Tegtmeier Internet Solutions GmbH,Burchardstraße 14,20095,53.5488012,10.0025623,01101101
3503894268,Generalkonsulat der Republik Kroatien,,,53.5520051,9.9962173,01101101
3507175018,Allianz,Martinistraße 52,20251,53.5907682,9.9740346,04402403
3507175027,carepoint movement,Martinistraße 52,20251,53.5906411,9.9741928,04402403
3508166904,Hermann Reemtsma Stiftung,,,53.5500607,9.8551511,02210222
3526593914,"Costard, Tögel & Kollegen",Kajen 6-8,20459,53.5452529,9.9859554,01101102
3534074563,Jungheinrich Vertrieb Deutschland Niederlassung Hamburg,Schnackenburgallee 22,22525,53.5765653,9.9193314,02205215
3553897101,Hanns R. Neumann Stiftung,,,53.5424602,9.9948371,01102103
3560701385,Ingeborg List Immobilien,,,53.6535629,9.829162,0
3564324155,Bündnis 90/Die Grünen Harburg,,,53.4620588,9.9756332,07701701
3578188433,Sprachfuchs Übersetzungsservice GmbH,Wiesenstraße 34,22850,53.6881704,9.9967423,0
3578983553,Suomen kunniakonsulaatti,Ditmar-Koel-Straße 6,20459,53.5463063,9.9764826,01103105
3581236729,Bluhm & Perner,,,53.6506707,10.0978648,05511519
3590774517,Zoll,,,53.5292008,9.9613815,01118139
3592564640,Deutsches Zentrum für Luft- und Raumfahrt,Sportallee 54 a,22335,53.6166006,10.001331,04403406
3600793212,Rechtsanwälte Kienast & Gareis,,,53.5665839,9.9968942,03302312
3603412568,Engel & Völkers,,,53.5682317,10.0920401,05503511
3603536765,Salo und Partner,,,53.5487587,10.0139139,01106115
3603697373,"Landesbetrieb Straßen, Brücken und Gewässer",,,53.5453137,10.0222131,01106116
3603697375,HUK-Coburg,,,53.5460221,10.0208,01106116
3603697379,Bundesbauabteilung,Nagelsweg 47,20097,53.545173,10.0214056,01106116
3603697384,DFN CERT,Nagelsweg 41,20097,53.545989,10.0207979,01106116
3603697392,VTG GmbH,Nagelsweg 34,20097,53.5440784,10.0213817,01106115
3603753023,Evergreen Shipping Agency (Deutschland) GmbH,,,53.5448944,10.0189033,01106115
3610548893,Hauswartbüro Thor,Halbenkamp 1,22305,53.5856381,10.0536334,04410426
3613471993,Sindbad Reisen,,,53.5520109,10.0113925,01105114
3613471994,EST Lorek - Ekspresowo Solidnie Tanio,,,53.5520654,10.011388,01105114
3613471995,Becker Reisen Hamburg,,,53.5520384,10.0113903,01105114
3613471996,Polenreisen,,,53.5520905,10.0113859,01105114
3613640479,Honorarkonsulat Irland,,,53.5475894,9.9675715,01104112
3614500129,Sprinkenhof GmbH,,,53.5486761,10.003485,01101101
3617285496,Netthelp - Schülerfirma in Hamburg-Bergedorf,Richard-Linde-Weg 49,21033,53.5008064,10.1888882,06601601
3618277573,SPD Carola Veit,,,53.534201,10.0397189,01114133
3618318683,KALO Gruppe Kalorimeta,,,53.5503753,10.0263284,01106117
3620670234,Veolia,,,53.5467349,10.0240658,01106117
3646616036,Deutsche Bahn,,,53.5978287,9.9003064,03308320
3646616038,Linde AG Linde Gas,,,53.5980055,9.8988472,02208220
3649408882,DEVK Geschäftsstelle Mark Dettmann,Ellerneck 61,22149,53.5907483,10.1409278,05518526
3655270097,Poicon GmbH & Co. KG,Lilienstraße 11,20095,53.5524085,10.0019458,01101101
3655277115,Tikal Communication GmbH & Co. KG,Lilienstraße 11,20095,53.5523957,10.0020049,01101101
3655902547,pixactly media GmbH,,,53.546346,9.9737477,01103105
3658890747,Lilienhof coworking office Hamburg,Lilienstraße 11,20095,53.5523936,10.0019689,01101101
3659316308,Rochus Mummert,,,53.5542506,9.9872346,01103108
3659316309,E.R. Schiffahrt Gmbh & Cie KG,,,53.5533233,9.9875672,01103108
3659316310,Honorarkonsulat des Vereinigten Königreichs Großbritannien und Nordirland,,,53.5532611,9.9875297,01103108
3659316311,Nordcapital GmbH,,,53.553301,9.9875833,01103108
3659358929,honert+partner,,,53.5529328,9.9874009,01103108
3663771372,Homaris,,,53.5799738,9.9485159,03301302
3664851718,Ubomi,,,53.5795973,9.9442166,03301301
3669185999,Roever Broenner Susat Mazars,,,53.5486453,9.9954674,01101102
3670795962,Emporio Quartiersmanagement,Valentinskamp 61,,53.5557797,9.9820221,01103108
3670803066,Geometry Global,,,53.5544014,9.9814749,01103107
3670861243,Jobcenter,,,53.5484973,9.9985565,01101101
3670882487,Helvetia,,,53.5484606,9.9983204,01101101
3671923086,Engel & Völkers,Osterstraße 167,,53.5780345,9.9470057,03301303
3672023957,Remax,,,53.5774071,9.9482376,03301303
3672073236,Steingrube,Osterstraße 141,,53.5762579,9.9493775,03301303
3672330495,Pixelgalaxie,,,53.5574524,9.9702407,01104109
3672330499,MRG Dienstleistungen,,,53.5574858,9.969774,01104109
3675434803,planet home,,,53.5555164,9.9852032,01103108
3675434804,Funk Gruppe,,,53.5554885,9.9855064,01103108
3676664926,Rechtsanwaltskanzlei Raczek,,,53.5491556,9.9445262,02201203
3696097575,DKV,,,53.5794517,9.9493982,03301302
3696097617,Mairisch Verlag,,,53.5787301,9.9507263,03301302
3710411781,Deutsche Tibethilfe e.V.,,,53.5774832,9.9526425,03301305
3710494784,SOS Kinderdorf,,,53.5800315,9.9551795,03301302
3714834651,IT-Management & -Consulting (ITMC),Vogt-Kölln-Straße 30,22527,53.5998564,9.9316718,03309321
3715249563,Japanisches Generalkonsulat,Domstraße 19,20095,53.5477663,9.9951588,01101102
3719069076,Stark Immobilien,,,53.5920859,10.002267,04405409
3721860271,Frappant e. V.,Zeiseweg 9,22765,53.5582462,9.9440952,02203210
3734215420,BOS-it GmbH u. Co.KG,Frankenstraße 5,20097,53.5486249,10.024115,01106117
3745545632,ThoughtWorks Deutschland GmbH,Großer Burstah 46-48,20457,53.5486589,9.9880349,01101102
3748284439,Heilpraxis Mende,Große Straße 12,22926,53.6754943,10.2390219,0
3749720530,Creditreform,,,53.5495814,10.0228506,01106117
3749754578,Neue leben,,,53.5460039,10.0263746,01106117
3750448951,OPTIX DigitalPictures,,,53.581752,10.0098775,04405413
3761061326,Kompetenzzentrum für Sport- und Bewegungsmedizin,,,53.5921228,9.9793442,04402403
3761062401,Medical Expert Training Center,,,53.5900957,9.9769361,04402403
3761062402,Betriebsrat NPR,,,53.5897367,9.9759019,04402403
3761062403,Personalabteilung,,,53.5903376,9.9785019,04402403
3761062407,Verwaltung,,,53.5902784,9.9783435,04402403
3761077095,Lob- und Beschwerdemanagement,,,53.5894262,9.9760473,04402403
3761077096,Projektmanagement,,,53.5894662,9.9759986,04402403
3761634793,DAEDELIC Entertainment GmbH,,,53.6132828,9.9715921,04403406
3763096350,Serhat Kilinc,,,53.5705087,9.9759176,03301309
3763110494,Pe Schmidt Coaching,Gorch-Fock-Straße 1,20357,53.5711106,9.9683599,03301309
3763231757,Kinderlotse e.V.,,,53.5930828,9.9748716,04402403
3763231759,Psychosoziale Beratung und Suchtprävention,,,53.5930233,9.9749496,04402403
3763243725,Institut für Biochemie und Molekulare Zellbiologie,,,53.5937122,9.9764721,04402403
3763243726,Institut für Experimentelle Pharmakologie und Toxikologie,,,53.5938007,9.9766584,04402403
3763243727,Institut für Geschichte und Ethik der Medizin,,,53.593732,9.9769548,04402403
3763243728,Institut für Klinische Pharmakologie und Toxikologie,,,53.5937122,9.97666,04402403
3763246531,GB-IT,,,53.5915573,9.9727205,04402403
3763249363,Betriebsrat KSE / KLE / KGE,,,53.5933443,9.9755569,04402403
3763249367,Nierenregister,,,53.593452,9.9777416,04402403
3764392592,Lunge der Laufladen,,,53.5855992,10.046321,04410427
3771238747,Institut für Sexualforschung,,,53.5883707,9.9718738,04402403
3771250966,Institut für Versorgungsforschung in der Dermatologie und bei Pflegeberufen,,,53.5881524,9.9721531,04402403
3771252535,Altonaer Spar- und Bauverein eG,,,53.5574126,9.9323076,02204211
3771857701,Einkauf,,,53.5900576,9.9711883,04402403
3771857706,Hörsaal Augenklinik,Martinistraße 52,20251,53.5881827,9.9706288,04402403
3771857709,Krankenpflegeschule,,,53.5899987,9.9710543,04402403
3771872349,Callcenter,,,53.5905528,9.9715297,04402403
3771872351,Emeritierte Professoren,,,53.5904101,9.971166,04402403
3771872352,Forschungssektion Kinder- und Jugendgesundheit,,,53.5904598,9.971299,04402403
3771872354,KEE Energie,,,53.5907099,9.9713129,04402403
3771872355,KFE Klinik Facility Management,,,53.5907252,9.971443,04402403
3771872356,KME Klinik Medizintechnik,,,53.5906954,9.9711724,04402403
3771898758,Krankenhaushygiene,,,53.5899669,9.9709975,04402403
3771898760,Ombudsmann,,,53.589894,9.9718167,04402403
3771898762,Schwerbehindertenvertretung,,,53.5899676,9.9718167,04402403
3771898763,Servicecenter,,,53.5905058,9.9714259,04402403
3771898764,WPR,,,53.5899373,9.9717492,04402403
3771948710,Institut für Versorgungsforschung in der Dermatologie und bei Pflegeberufen,,,53.5896815,9.9766567,04402403
3771948715,CVcare,,,53.5896117,9.976869,04402403
3771948722,Transplantationskoordinatoren,,,53.5894933,9.9767652,04402403
3771984000,IT,,,53.5901876,9.9782553,04402403
3771984001,Sicherheitsdienst,,,53.5892069,9.9753418,04402403
3771984003,Unternehmenskommunikation,,,53.5901363,9.97814,04402403
3772008790,Klinik Gastronomie Eppendorf GmbH,,,53.5916385,9.9732893,04402403
3772008791,Klinik Logistik Eppendorf KLE,,,53.5899407,9.970933,04402403
3793439820,Honorarkonsul der Republik Finnland,,,53.5432528,9.9904259,01102103
3799389450,Honorarkonsulat von Montenegro,,,53.5658177,9.9894275,03302312
3799455485,pleach GmbH,Eiffestraße 464,20537,53.5516636,10.0481842,01108124
3809164054,Uniwearsal,,,53.57314,9.9498882,03301306
3809164056,Mago,,,53.5731806,9.9498293,03301306
3818679438,Württembergische,,,53.5989168,10.0662127,05507515
3820613161,AquaFree,Winsbergring 31,22525,53.5767925,9.9169114,02205215
3821615423,Hamburg Süd Reiseagentur,Burchardplatz 5,20095,53.5491293,10.0022734,01101101
3828560614,Standesamt Norderstedt,Rathausallee 50,22846,53.7077716,9.9942369,0
3857131217,k3 Personaldienstleistungen,,,53.5842055,10.0469116,04410427
3858892237,Philipp und Keuntje,,,53.5667868,9.952464,02203209
3860995457,Hamburgische Architektenkammer,,,53.5688879,9.983996,03302312
3877019090,Hamburger Kochsalon,Max-Brauer-Allee 251,22769,53.562587,9.9571595,02203208
3893432534,Das Kill-Team GmbH,Kollaustraße 116,22453,53.6100156,9.9588562,03306318
3896957807,"Swiridoff, Röhrs, Malligsen",,,53.5871306,10.0477457,04410427
3899739131,Standort Barmbek-Uhlenhorst Einwohnerangelegenheiten,Poppenhusenstraße 6,22305,53.5859072,10.0440128,04410427
3910199739,Gerhardt Immobilien,Elbchaussee 322a,22605,53.5480479,9.8644783,02207219
3920546920,Kreisvolkshochschule Geschäftsstelle Seevetal / Maschen,Schulkamp 11a,21220,53.3981111,10.042095,0
3925496294,FuT Metallbau,Ernst-Mittelbach-Ring 57,22455,53.6409079,9.9485924,03306318
3926983178,Viva con Agua,,,53.5483992,10.0099161,01106115
3936403657,Plan,,,53.5867295,10.0518708,04410426
3942110720,Hausmann Immobilien,Schmuggelstieg 4,22848,53.6821106,9.9985651,0
3942165447,Wüstenrot,,,53.6821712,9.9968455,0
3954261598,André Riedel,Ulzburger Straße 1,22850,53.6827135,9.9981177,0
3957302069,THB Grund-Schule,Winterhuder Weg 29,22085,53.5743393,10.0213519,04406414
3962616472,Saga GWG - Bergedorf,,,53.4853652,10.199567,06602602
3980209715,,,,53.548188,9.9895254,01101102
3982935715,SPD Kreisbüro Hamburg - Nord,,,53.6316909,10.0265889,04412431
3992061070,Honorarkonsulat der Republik Nordmazedonien,,,53.5528305,10.0139341,01105114
3998302066,WSH Wohnservice Hamburg,,,53.5855271,10.066801,04409425
3999624427,Reisebüro Koch,,,53.5535993,10.0034074,01101101
4007684116,einfach machen unternehmenskommunikation,,,53.5612903,9.9663394,02202207
4009736166,A+S Alarm- und Sicherheitstechnik,,,53.5506264,10.1562638,0
4009736167,Alsco,,,53.5508969,10.156598,0
4009736168,CoDesCo IT Consulting,,,53.5506765,10.1549034,0
4009736171,Hamburger Druckluft-Dienst,Im Hegen 10,22113,53.5500308,10.1554035,0
4009736174,Jürgen Bade Bestattungsbedarf,,,53.5498967,10.1551474,0
4009738722,Reißwolf Archivservice,,,53.5513402,10.1553741,0
4009738723,Rovocad,,,53.5501465,10.1544468,0
4009738724,Schneider Automaten,,,53.5490759,10.1539199,0
4009738725,Spedition Reimler,,,53.5500568,10.1543063,0
4009738726,Yücel Trading,,,53.5497479,10.1527432,0
4009771305,Cramer Sarggroßhandel,,,53.5504299,10.1585133,0
4009771306,Egon Harig Brandmeldeanlagen,,,53.5495891,10.1589166,0
4009771307,Emstec,,,53.5501786,10.1587365,0
4009771310,Jan Bouman Sarggroßhandlung,,,53.5498176,10.1582633,0
4009771314,Kompack,,,53.5504947,10.1579764,0
4009771316,Ladebordwandservice,,,53.5504018,10.1580148,0
4009771317,Masuch + Olbrisch,,,53.5492781,10.1590708,0
4009771342,Suris HDVI,,,53.5499428,10.157958,0
4009771343,Suris HDVI,,,53.5504807,10.1578172,0
4009771344,Vopatec,,,53.5504526,10.1575517,0
4009888867,Döbler Werbeartikel,,,53.548611,10.1601748,0
4009888871,Fuchs Fördertechnik,,,53.551568,10.1599177,0
4009888877,Jäckstein Ladenbau,,,53.5495306,10.1602257,0
4009888879,Nurgida,,,53.5492369,10.1621256,0
4009890943,Reiflexa,,,53.5521302,10.1588951,0
4009890944,Roxall Medizin GmbH,,,53.5493561,10.1632346,0
4009890945,Siebrecht Fassadentechnik,,,53.5521111,10.1617263,0
4009890948,Uromed,,,53.5497287,10.1608384,0
4010036099,Siebert + Knipschild,,,53.5514958,10.163288,0
4016859938,Behörde für Stadtentwicklung und Wohnen,Neuenfelder Straße 19,21109,53.4979146,10.0034758,01116137
4016859939,Behörde für Umwelt und Energie,Neuenfelder Straße 19,21109,53.4977289,10.0040808,01116137
4016859940,Landesbetrieb Geoinformation und Vermessung,Neuenfelder Straße 19,21109,53.4982988,10.0025146,01116137
4019775251,Studio Una Hager König GbR.,Stresemannstraße 375,22761,53.56477,9.9208129,02205215
4019998671,Informationstechnikzentrum Bund,Süderstraße 63,20097,53.5450435,10.0266915,01106117
4020407280,,Heinrich-Boschen-Straße 7,,53.6542732,9.7910899,0
4023722993,Diana Scharf,,,53.6758224,10.2371499,0
4027627720,Anwaltskanzlei Mierau / Stefan Halfpape,,,53.6758421,10.2371307,0
4031226512,Hamburg Energie Kundencenter,,,53.5552742,10.0007944,01101101
4034396458,Fielmann Ventures GmbH,Weidestraße 118a,22083,53.5803065,10.0303819,04408419
4038521084,Baugenossenschaft FLUWOG-NORDMARK eG,,,53.5866567,10.0441984,04410427
4043915241,Mo Architekten,Henriettenweg 1,20259,53.5727189,9.9594598,03301306
4046627613,Dahler&Company,,,53.5418434,9.9937389,01102103
4060617877,Hanseatische Baugenossenschaft Hamburg eG,,,53.5838853,10.0476482,04410426
4063808883,ROBIN WOOD Bundesgeschäftsstelle,Bremer Straße 3,21073,53.4585306,9.9822135,07701702
4065570889,Arbeitsraum,Bismarckstraße 80,,53.5763792,9.9688693,03304315
4069757474,Kannegieter Steuerberatung,Körnerstraße 18,22301,53.5791605,10.0109628,04405413
4073600504,DERMALOG Identification Systems GmbH,,,53.5722523,9.9947987,03302312
4074878541,Baugenossenschaft Dennerstraße-Selbsthilfe eG,,,53.5848077,10.0422367,04408421
4077141171,Jungheinrich Vertrieb Deutschland AG & Co. KG,Friedrich-Ebert-Damm 145,22047,53.5893114,10.0980179,05502509
4083030724,Dahler & Company,,,53.5811695,10.0088824,04405413
4086584786,EDEKA DIGITAL GmbH,New-York-Ring 6,22297,53.6032936,10.0188068,04405408
4087724280,Hamburger Hochbahn AG,,,53.550177,9.9998704,01101101
4090482071,Institut für Verkehrsplanung und Logistik,Am Schwarzenberg-Campus 3,21073,53.4631925,9.9683429,07701701
4108544215,Jadis Pflegedienst,,,53.5675078,10.0471545,05501503
4117241830,Kanzlei Giese & Baric,,,53.6485616,10.0165325,04413432
4123978578,Praxis für Allgemein- & Familienmedizin,Seestraße 250,25469,53.6167917,9.8669283,0
4136474853,Barmenia Versicherungen,Siebentunnelweg 6,25469,53.6153434,9.8652128,0
4144383879,Huk-Coburg,Moorstraße 15,21073,53.457194,9.986666,07701702
4144447596,Wilhelm Tel,Wilstorfer Straße 50,21073,53.4565367,9.9851172,07701702
4144996591,Behinderten Arbeitsgemeinschaft Harburg,Seeveplatz 1,21073,53.4582885,9.987241,07701702
4146767685,Schomerus & Partner,,,53.5467731,9.9884573,01101102
4149391738,Viva con Agua Arts gUG,,,53.5483347,10.00992,01106115
4168183874,Rechtsanwälte BEM,Moorstraße 4,21073,53.4567195,9.9861527,07701702
4168200195,Persona Service,Moorstraße 6,21073,53.4568091,9.9866123,07701702
4170564142,Landesbereitschaftspolizei Hamburg,,,53.6039323,10.0118499,04405408
4197341396,Toptranslation GmbH,Ferdinandstraße 29-33,20095,53.5537481,9.9998859,01101101
4204260389,Wingmen Online Marketing GmbH,Anckelmannsplatz 1,20537,53.5504901,10.0280211,01106117
4210661806,büro janhaarmann,Hallerstraße 5a (EG),20146,53.572806,9.9806319,03303313
4211159375,red6 enterprise software GmbH,Siegfried-Wedells-Platz 1,20354,53.5591189,9.993711,03302312
4228171215,Pöppel von Bergner Özkan,,,53.5776684,10.0346056,04408420
4229730033,eyefactive,Mendelssohnstraße 15,22761,53.5623748,9.9143113,02205216
4230585706,Hansen & Hansen,Alsterdorfer Markt 10,22297,53.6125452,10.0245962,04404407
4230585708,Grieger,,,53.6121045,10.0243536,04404407
4241058083,Naturheilpraxis für Kinder und Jugendliche,Peterskampweg 19,22089,53.5672406,10.0513192,05501503
4242004442,Stadtpark-Verein Hamburg e. V.,,,53.5981954,10.0138356,04405409
4246525835,Generation Digitale,Spielbudenplatz 24-25,20359,53.548955,9.9639012,01104112
4246697760,Sprick & Wachsmuth Vermessung,Große Straße 27-29,22926,53.6739322,10.2400346,0
4246853334,Vasgard GmbH,Straßenbahnring 15,20251,53.5804628,9.9759115,04401401
4258953060,Copterproject,Grindelberg 33,,53.5747622,9.9771287,03303313
4258953061,G-G Immobilien,Grindelberg 33,,53.5747251,9.9771257,03303313
4262130074,DAL JTE Group,,,53.5457951,9.9394811,02201202
4281430693,Familienkasse Nord,,,53.5508686,10.0167347,01105114
4281444892,Jugendberufsagentur U25,,,53.4632546,9.9803767,07701702
4290947393,Agentur für Arbeit,,,53.551449,10.0166509,01105114
4293545603,Allianz,Schlankreye 28,,53.5759268,9.9758651,03303313
4300923313,MS/PROMOTION/GBR,Grindelberg 9,,53.5734805,9.9773265,03303313
4308442091,ENITAS Deutschland GmbH,Caffamacherreihe 5,20355,53.5549443,9.9840099,01103108
4332332536,BDS Systemberatung GmbH,Bahnhofstraße 40,21629,53.4677066,9.7927734,0
4348819281,Scientology,,,53.5490968,9.9963668,01101102
4360036218,Hansaton,,,53.5460346,10.0227068,01106116
4365393588,The Marmalade,,,53.5622908,9.9579135,02203208
4365424268,Hamburger Mieterverein,Bartelsstraße 30,20357,53.5624871,9.9644157,02202207
4365448905,Deutsch-Tansanische Partnerschaft e.V.,Jessenstraße 4-6,22767,53.5512402,9.945316,02201203
4368662671,PCP Capitalia UG,,,53.7316056,10.2620921,0
4377983784,Palliativ-Care-Team Hamburger Norden,,,53.6479526,10.0138673,04413432
4377984452,SPD Bürgerbüro,,,53.6480587,10.0152195,04413432
4388760578,froglogic GmbH,Gasstraße 18,22761,53.5630874,9.9134191,02205216
4401035473,Harburger Tennis- und Hockey-Club,Vahrenwinkelweg 21,21075,53.4577333,9.9363682,07709710
4402553463,Widemann Systeme,,,53.5582433,10.0071648,01105114
4405435790,Hon. Konsulat Malta,Große Elbstraße 277,22767,53.544315,9.927555,02204214
4415567437,oose Innovative Informatik eG,Schulterblatt 36,20357,53.5608401,9.9632141,02202207
4424764007,Hillmann & Partner,,,53.5944601,9.9969865,04405409
4427753594,LVM Versicherung,Lohbrügger Landstraße 89,21031,53.5010795,10.1974181,06601601
4434232678,Futura Retail Solutions,Harburger Schloßstraße 28,21079,53.4653716,9.9848556,07701702
4449705224,wilhelm.tel ServiceCenter Hamburg-Altona,,,53.5528827,9.9308365,02204213
4449723018,Polycarbonara,,,53.5505084,9.9406669,02201203
4453294949,PricewaterhouseCoopers AG,Alsterufer 1,20354,53.559196,9.994773,03302312
4453945768,Adlershorst Baugenossenschaft e.G.,,,53.6809674,9.987842,0
4453952034,LOHI Lohnsteuerhilfe Bayern e.V.,,,53.6815219,9.987741,0
4453954011,Verwaltung Plambeck,,,53.6816486,9.9876382,0
4455612142,HUK Coburg Kundendienstbüro Oliver Tenbergen,Ulzburger Straße 377,22846,53.7131766,9.9996566,0
4461826960,Louis Zentrale Hamburg,Rungedamm 33-37,21035,53.4957963,10.1139791,06609610
4462437136,Strategus Steuerberatungs- und Wirtschaftsprüfungsgesellschaft,,,53.6821691,9.9871885,0
4465966292,Ferd.Wiesehahn GmbH,Dorfstraße 26,,53.5253322,10.1681616,0
4470471028,B.A.S Verkehrstechnik AG,Altes Feld 12,22885,53.5661019,10.1848304,0
4475310988,BPV Consult GmbH - Hamburg,Deichstraße 48-50,20459,53.5455065,9.9867012,01101102
4487355328,Gebr. Heinemann,,,53.5434737,10.0008885,01102104
4491057995,,,,53.5466109,9.9933408,01101102
4508504014,Competenzzentrum Epidemiologie und Versorgungsforschung bei Pflegeberufen,,,53.5916246,9.9826284,04402403
4517242086,DAS WERK Hamburg,Große Elbstraße 145a,22767,53.5445275,9.9351284,02201202
4517851991,Zahnärztekammer Hamburg,Weidestraße 122b,,53.5826547,10.0280715,04408419
4534983362,Green Treppenlifte,,,53.555399,9.9809194,01103108
4534983369,Stiftung Denkmalpflege,,,53.5554351,9.9813951,01103108
4556960545,HDI,,,53.5863256,10.0064427,04405410
4557460186,Tierheilpraktikerin,,,53.5883026,10.0097559,04405410
4607055872,Engel & Völkers,Hellbrookstraße 61,22305,53.5916005,10.0458304,04410427
4610679153,SIX FOR SALE,,,53.562792,9.9173579,02205216
4610679154,Lieblings Rindermarkt GmbH,,,53.5628007,9.9172809,02205216
4610764360,Landeszentrale für politische Bildung,,,53.5575317,9.9877002,01103108
4617015261,Dürkop Möller und Partner,Am Kaiserkai 62,,53.5415409,9.985636,01102103
4617026602,RTL Deutschland,,,53.5439434,10.0026814,01102104
4622532911,Finanzamt Bad Segeberg - Außenstelle Norderstedt,Europaallee 22,22850,53.6847755,9.9874549,0
4623992076,Lernanker - Praxis für integrative Lerntherapie,Dorotheenstraße 53,22301,53.5824045,10.0075815,04405413
4633114990,Kreisverband Wandsbek von BÜNDNIS 90 / DIE GRÜNEN.,Wandsbeker Königstraße 66,22041,53.5757273,10.0624634,05502505
4643932916,Karoradio,,,53.4818545,9.8837472,07713714
4670781443,Berufsgenossenschaft Energie Textil Elektro Medienerzeugnisse (BG ETEM),,,53.5475958,10.0199798,01106116
4682247721,Finanzamt Hamburg-Ost,,,53.5484437,10.0164453,01106115
4691102150,GoMokry* e.V.,,,53.5182243,9.9837131,01116137
4692272653,Pinneberger Tennis-Club,Voßbarg 12,25421,53.6380363,9.7870875,0
4696369786,Generalzolldirektion Hamburg,,,53.5454506,9.9811809,01103105
4696370783,Ingenieurbüro Grassl,,,53.5475651,9.9778804,01103105
4696380729,Universitätskolleg der Universität Hamburg,,,53.568104,9.9879385,03302312
4706986333,Regus,Valentinskamp 24,20354,53.5554409,9.9846951,01103108
4716540769,aplanat Mietstudios Hamburg,,,53.5616184,9.9590676,02202207
4733233950,KRT Medical Solutions GmbH & Co. KG,,,53.5777408,9.9465422,03301303
4734741316,Implico GmbH,Weidestraße 120b,22083,53.5812461,10.0270107,04408419
4763466922,microoffice,,,53.5691361,10.0558376,05501504
4764708164,,,,53.5871691,10.0575982,04410426
4766768365,Drogen- und Suchtberatungsstelle,,,53.6586464,9.8000587,0
4771171094,Immobilien Center,,,53.6064644,9.9024388,03308320
4771171095,Abnehmen im Liegen,,,53.6062866,9.9017508,03308320
4771171096,Hamburger Feuerkasse,,,53.6064336,9.9022834,03308320
4791934753,West End Dogs Hundebetreuung,,,53.5693614,9.8997647,02205216
4793881297,Honorarkonsularische Vertretung des Königreichs Thailand in Hamburg,,,53.5566941,10.0032412,01105114
4812126912,west immobilien,,,53.6054019,9.8432003,0
4817995398,Jobcenter,,,53.6121662,10.1198527,05506514
4831129601,Wentzel Dr. Homes,Bahnhofstraße 59,25451,53.7314442,9.9032967,0
4831129603,Kanzlei am Forum,Bahnhofstraße 63,25451,53.7316536,9.9032926,0
4831187355,FENSTER-AS Nord GmbH,Alsterkrugchaussee 549,22335,53.6290298,10.0134556,04412431
4831594240,Gefühl für Räume,Etzestraße 34,22335,53.6292736,10.0179941,04412431
4835441202,Politikwerft Designbüro,Koppel 106,20099,53.5602408,10.0139664,01105113
4845141482,SogeclAir,,,53.4821259,9.9085712,07713714
4845142508,Mercedes-Benz BKK Kundencenter Hamburg,,,53.476338,9.9225513,07710711
4888269645,Finanzamt Hamburg-Oberalster,,,53.5482625,10.0165817,01106115
4912961211,BUCHEN & KOOB GmbH,Nienstedtener Marktplatz 31,22609,53.5539847,9.8445444,02210222
4924077075,AON Holding,,,53.5564212,9.984581,01103108
4932476414,DIE LINKE. Bezirksfraktion Altona,,,53.5484993,9.9334505,02204214
4934970021,Ambulante Pflege Zuhause,,,53.6704437,10.23446,0
4939202791,Honorarkonsularische Vertretung der Republik Uganda in Hamburg,,,53.5868147,9.7432166,02214227
4945351340,Monday Consulting GmbH,Breite Straße 61,22767,53.5460263,9.9499082,02201202
4967796932,Insta Steuerberatungsgesellschaft mbH,,,53.6137014,9.9709336,04403406
4995016023,Finanzbehörde Hamburg,Große Bleichen 23-27,20354,53.5523636,9.9893504,01103108
4998331984,InvaCon,Bei der Alten Kate 2,,53.6767243,10.2392578,0
5026783122,Querbild e.V.,,,53.5608674,9.965062,02202207
5032946197,Deutsche Rentenversicherung Knappschaft-Bahn-See,,,53.5503368,9.968403,01104111
5039073625,J-Store online,,,53.5674528,10.0436653,05501501
5056400018,Hamburger Feuerkasse,,,53.4432916,10.1294813,06606607
5062907249,CCV Deutschland GmbH,Weidestraße 122b,,53.5826502,10.028032,04408419
5075078812,Friends Factory,,,53.5430409,9.9862333,01102103
5077736922,city-wohnen,,,53.5519857,9.9226113,02204213
5098336887,Jobcenter,Ludwig-Rosenberg-Ring 41,21031,53.4918771,10.2083785,06601601
5107747621,Ulrich Quadt GmbH,,,53.6460856,10.0220842,04413432
5109002228,Gemeindebüro Sankt Annen,,,53.6803709,9.9997198,04413432
5109002229,Gemeindebüro Sankt Hedwig,,,53.7134852,9.9903599,0
5117275185,NORD.NORD BMG Gmbh,Bernstorffstraße 95,22767,53.5574033,9.9583772,02201206
5126809338,Itzehoer Versicherungen,,,53.6299461,9.8365255,0
5158319221,Immobilienverwaltung Kruse / New Horizons Computer Learning Centers,,,53.5727832,10.063544,05502505
5180662096,ATS Alpha Tech Systems,Hammer Deich 126,20537,53.5454996,10.047922,01108127
5190485168,Elbwind Media GmbH & Co. KG,Poolstraße 7,20355,53.5538129,9.9800518,01103107
5200189418,Serben Konsulate,,,53.5801324,9.9916821,03303314
5208409792,bonprix Handelsgesellschaft mbH,Haldesdorfer Straße 61,22179,53.5987443,10.0734577,05507515
5208797739,Otto (GmbH & Co KG),Werner-Otto-Straße 1-7,22179,53.6011382,10.0707503,05507515
5219386855,ThermoExpert Deutschland GmbH,Brookstieg 1,22145,53.6201108,10.2310222,0
5241245322,Fard e.V.,Adenauerallee 10,20097,53.5528312,10.01291,01105114
5242817711,Naturstrom,Oberhafenstraße 1,20097,53.5458534,10.0079471,01106115
5243803008,"Bundesanstalt für Wasserbau, Referat Schiffstechnik",Brooktorkai 20,20457,53.5446894,10.0019763,01102103
5245788698,Gemeindebüro der Kirche,,,53.4892118,10.2114249,06602602
5245811663,Laser Plus,,,53.4864454,10.1973807,06602602
5247159604,Green Planet Energy eG,Hongkongstraße 10,20457,53.54191,10.0014628,01102104
5247494309,ver.di,,,53.4895859,10.2089854,06602602
5247494314,Heinke Rechtsanwälte,,,53.490785,10.2098582,06602602
5264782331,Knackscharf Rent,Grindelhof 48-50,20146,53.5692232,9.9842903,03302312
5266897038,Rüdiger Krafftzig,Pfingstholzallee 5A,21521,53.5284947,10.3191841,0
5299918421,Friedrich Karl Schroeder GmbH und Co. KG,Schwarzer Weg 8,22309,53.6072782,10.0541885,05508516
5305811125,Teleperformance,Wendenstraße 375-377,20537,53.5510656,10.0458223,01108126
5310539397,PROSTEP Hamburg,,,53.5458604,10.0278346,01106117
5318431351,Njiuko GmbH,,,53.5549807,10.0003481,01101101
5322014746,telos Systementwicklung GmbH,Kaiser-Wilhelm-Straße 93,20355,53.5547049,9.9807444,01103107
5327346045,M+F Technologies,,,53.5871102,10.0957407,05502508
5330857199,Leibniz-Institut für Globale und Regionale Studien,Neuer Jungfernstieg 21,20354,53.557249,9.9926521,01103108
5340411621,Notariat Hamburg-Rahlstedt,Rahlstedter Bahnhofstraße 17,22143,53.6043095,10.1555145,05518526
5341006405,DIBeratung,Eimsbütteler Straße 13,22769,53.564355,9.9582188,02203208
5346969455,Junge Europäische Föderalisten Hamburg e.V.,Adolphsplatz 1,20457,53.5494266,9.9916418,01101102
5346969456,infopoint Europa,Adolphsplatz 1,20457,53.5494303,9.9916166,01101102
5349409411,Schülerforschungszentrum Hamburg,Grindelallee 117,20146,53.5688814,9.9791543,03302311
5350597021,FAW,Waldstraße 5,25421,53.6579964,9.8077288,0
5360491572,Hinsch & Völckers,Ballindamm 13,20095,53.5543429,9.9991776,01101101
5361457121,Kanzlei Wasserstraß Kanzlei Napp,Kirchdorfer Straße 84,21109,53.4955079,10.0217582,01116136
5387484174,von Poll,,,53.6580459,10.0848576,05511519
5395721324,KAEFER Construction GmbH,,,53.5224873,10.086812,01113131
5401734921,Körber-Stiftung,,,53.5434302,9.9838986,01102103
5407688435,Zeitverlag Gerd Bucerius,,,53.5496254,9.9985894,01101101
5407707942,German Homes,,,53.5419282,10.2134509,0
5434905302,SPD-Büro Ahrensburg,,22926,53.6717236,10.2405673,0
5443617657,"Antje Müller-Mantwill, Steuerberaterin",Speckmannstraße 1,22391,53.6446254,10.0892992,05509517
5445601263,Citinaut,Stresemannstraße 9,22769,53.5590232,9.9629609,02202207
5448997025,HUK-Coburg,Mörkenstraße 8,,53.5493684,9.947781,02201203
5464517822,JULIUS LANGHAGEL,Fährhausstraße 24,22085,53.575508,10.012472,04406414
5465586292,Ingenics AG Office Hamburg,Zirkusweg 1,,53.547544,9.9669988,01104112
5468940740,Karl Körner Haustechnik,,,53.6024029,9.9086685,03308320
5471018433,Sonja Behn,,,53.4858964,10.2104594,06602602
5471018434,Anwaltliche Schuldnerberatung,,,53.4858783,10.2103787,06602602
5471018435,Sönke Hölter,,,53.485906,10.2103913,06602602
5480007569,Honorary Consulate of the Czech Republic,Werftstraße 5,20457,53.5349565,9.9811139,01118139
5486495196,AM Stapler,,,53.5455868,10.0493959,01108127
5486495198,Nordland,,,53.5448184,10.0496105,01108127
5488378078,Reisering Hamburg,,,53.4892594,10.2061597,06602602
5496859744,Gesundheitsamt Bergedorf,,,53.4907796,10.2069472,06601601
5496859746,AOK Rheinland/Hamburg Geschäftsstelle Bergedorf,,,53.4908118,10.207043,06601601
5524199587,Stiftung Grone-Schule,,,53.5465779,10.022303,01106116
5526347432,Honorarkonsularische Vertretung der Republik Kap Verde in Hamburg,,,53.5463248,9.9878883,01101102
5532008058,Abschleppdienst Bucholz,,,53.514147,10.0262783,01116136
5538284503,Wohnwerte Hamburg e. K. Immobilien,Dorotheenstraße 107,22301,53.5869853,10.004859,04405410
5538658576,Zollamt Hamburg-Flughafen,Flughafenstraße 1-3,22335,53.6285953,10.0063304,04412431
5572258549,Landesgeschäftsstelle Malteser Hamburg,,,53.6093629,10.0446068,05508516
5572258550,Stadtgeschäftsstelle Malteser Hamburg,,,53.6093913,10.0446042,05508516
5572258551,Diözesangeschäftsstelle Malteser Diözese Hamburg,,,53.609419,10.0446017,05508516
5573829322,Hexagon Manufacturing Intelligence GmbH,Tempowerkring 19,21079,53.473343,9.9334066,07710711
5573855216,Treo Labor für Umweltsimulation GmbH,Tempowerkring 19,,53.4736162,9.9335504,07710711
5574338809,Astorius Capital,Alsterarkaden 12,20354,53.5519639,9.9923612,01103108
5592057624,Lotto24,,,53.5807506,9.9766941,04401401
5594630334,Sewe & Timmke Immobilien,,,53.572434,10.0793699,05502507
5595008417,Detlef Deicke,,,53.5723996,10.0793605,05502507
5595008418,Stefanie Wohlers Immobilien,,,53.5723996,10.0794079,05502507
5595008419,SWiM Bildung,,,53.5723956,10.0794493,05502507
5595008420,Uwe Dresp,,,53.5723934,10.0794974,05502507
5595008521,Bovantis-Institut GmbH,,,53.5723943,10.0795448,05502507
5595008522,Drebingship GmbH,,,53.5724251,10.0795463,05502507
5595008523,Pamela-Lorenz-Coaching,,,53.5724269,10.0795004,05502507
5595008524,Jema Immobilien,,,53.5724291,10.0794538,05502507
5595008525,Bernd Lietzke,,,53.5724318,10.0794094,05502507
5603672750,Meissler & Co,,,53.5537564,9.8445126,02210222
5608867793,,,,53.6912236,9.9154772,0
5612883528,wilhelm.tel / Stadtwerke Norderstedt Kundenservice,,,53.7067271,9.9930196,0
5615217925,Lohnsteuerhilfe Hamburg,,,53.5789555,10.0479224,04408423
5627076528,Praxis Verena von Harrach Psychotherapie und Coaching,Dorotheenstraße 53a,22301,53.5824823,10.0077992,04405413
5628688533,Elb Sec,,,53.5114141,10.1802009,06601601
5628688538,HDGG Gebäudereinigung,,,53.5104603,10.1830736,06601601
5628688546,Warschow Technischer Großhandel,,,53.5091236,10.182749,06601601
5628688560,Peter Polinski Transporte,,,53.5102178,10.1840767,06601601
5628688571,Fil-Tec Rixen,,,53.5094857,10.1841626,06601601
5628688572,Saunavertrieb Carsten Schubert,,,53.5092002,10.1836637,06601601
5628688574,Stiftung Alevitische Gemeinde,,,53.5084329,10.1838917,06601601
5628688576,Schornsteinfegerinnung Hamburg,,,53.5087471,10.1821858,06601601
5634366539,Tourbook Software GmbH,Altonaer Poststraße 9a,22767,53.5507477,9.9396981,02201203
5640685673,von Poll Immobilien,Lehmweg 36,20251,53.5834423,9.9801199,04401401
5641864395,DMK IT Solutions GmbH,Hopfenweg 150,22851,53.6846516,10.0540905,0
5659540392,Rezeption,,,53.5644946,9.7675359,02211223
5663438118,Außenwirtschaftsbüro Rosinski,Grömitzer Weg 32a,22147,53.6071008,10.1382811,05518526
5669456532,Riwal Arbeitsbühnenvermietung GmbH,Heidenkampsweg 45,20097,53.5489775,10.028283,01106117
5671673142,Reisezentrum Deutsche Bahn,,21079,53.4561811,9.9906404,07701702
5671945681,moovel Group GmbH,Kurze Mühren 1,20095,53.552649,10.0033894,01101101
5673649622,Absolut Personaldienst,Weidestraße 24,22083,53.5804504,10.0377529,04408421
5674460391,Hanse Windkraft GmbH,Am Kaiserkai 1,20457,53.5414993,9.9930396,01102103
5674850222,Paints Multimedia GmbH,,,53.5832243,10.0092835,04405413
5687036890,H. S. I. Schuldenberatung Hakiju,,,53.4638125,9.9782738,07701701
5695222024,Heilpartikerin Nuray Karaks,,,53.4652158,9.9619993,07710711
5701917103,Seminarloft-Hamburg,Geibelstraße 46 B,22303,53.5846666,10.0166778,04405412
5706196921,MRLV Architekten,,,53.5498894,9.9953758,01101102
5709704336,Arkads Kultur e.V.,,,53.4642823,9.9639336,07710711
5711166108,Qualitätsmanagement und klinisches Prozessmanagement,,,53.5894889,9.9759072,04402403
5726057343,Rechtsanwalt Kay Wolkau,,,53.4635468,9.9619759,07710711
5731370981,EEC Events GmbH,,,53.4894716,10.1131981,06609610
5747802468,E&M Projektbau und Technik GmbH,,,53.6176938,9.9509388,03306318
5750708113,Netzplan GmbH,Am Diebsteich 31,22761,53.5691716,9.927889,02205215
5756750125,Grossman und Berger,Lüneburger Straße 1,21073,53.4574247,9.9838038,07701702
5757090519,Verwaltung der Geselschaft für Bioanalytik,Harburger Ring 17,21073,53.4600158,9.9830821,07701702
5757125858,Mieterverein zu Hamburg von 1890 r.V.,,,53.4610297,9.9816486,07701702
5757184019,Clasen & Clasen Nachlassverwaltungs,Schloßmühlendamm 7,21073,53.4611735,9.9817739,07701702
5759381369,Würth Hamburg-Hausbruch,,,53.4708577,9.9160252,07713714
5759385123,ZAG,Harburger Rathausstraße 40,21073,53.4587806,9.9802731,07701701
5759385125,Hamburger Abendblatt,,,53.4589478,9.980929,07701701
5759410308,green lovers,,,53.5682347,10.0483333,05501502
5759424543,Sabori Immobilien,Wandsbeker Chaussee 164,22089,53.5681886,10.0505652,05501503
5759433722,HBH,,,53.5678047,10.0483736,05501503
5762361777,Impact,,,53.4631799,9.9815878,07701702
5762361781,Randstad,,,53.4627068,9.9821443,07701702
5762361782,AOK Rheinland/Hamburg,,,53.4627842,9.9820609,07701702
5762361788,TC Tele Communication e.K.,,,53.4630923,9.9826067,07701702
5762361793,Von Poll Immobilien,,,53.4632797,9.9822355,07701702
5764424556,Flughafen Hamburg GmbH,,,53.6282391,10.0077104,04412431
5768606225,Kundenzentrum Hamburg-Mitte,,,53.553924,9.9834729,01103108
5768612768,Kundenzentrum Finkenwerder,,,53.5360617,9.8774423,01120141
5768614932,Kundenzentrum Billstedt,,,53.5402752,10.1062719,01112130
5772798940,jobcenter team.arbeit.hamburg St. Pauli,Simon-von-Utrecht-Straße 4a,20359,53.5515416,9.9616284,01104111
5774762638,Contipark Büro,,,53.4620506,9.9842474,07701702
5774762644,STB Ammon,,,53.4622099,9.9824109,07701702
5774762649,Rechtsanwälte Rochow und Kollegen,,,53.4626052,9.9821519,07701702
5774762650,Brasil Sport Marketing,,,53.462606,9.9821113,07701702
5775537453,Haustechnik Heinemann,,,53.4672112,9.7932454,0
5777829553,,,,53.584864,9.822911,0
5785663750,Förderzentrum Rellingen,Heidestraße 94-96,25462,53.6310014,9.8720849,0
5794161839,Gemeindebüro der Tabita Kirchengemeinde Ottensen-Othmarschen,Hohenzollernring 78a,22763,53.5543226,9.9185799,02204212
5794368853,Tui,,,53.4641181,9.794453,0
5794368854,Allianz,Bahnhofstraße 9,21629,53.4639383,9.794541,0
5794503027,Sportive,,,53.4656432,9.7940203,0
5799592053,DEVK-Reinbek,Schönningstedter Straße 69,21465,53.5224935,10.2579334,0
5808442385,Notare am Rathausmarkt,,,53.5506708,9.994851,01101102
5810022583,Amnesty International Bezirksbüro Hamburg,,,53.5506642,9.9673686,01104111
5812902565,Allgemeine Soziale Dienste Fuhlsbüttel und Ohlsdorf,,,53.6309236,10.0275764,04412431
5821406738,Buy & Fly Ticketservice,,,53.5520098,10.0113692,01105114
5821406739,Peters-Reisen,,,53.5520365,10.0113665,01105114
5821406740,Roaltassib,,,53.5520648,10.0113637,01105114
5821406741,Eurolines Intertours,,,53.5520258,10.0116853,01105114
5821406742,Easyflug24,,,53.5520528,10.0116813,01105114
5830749359,Barmer,,,53.5734878,10.0631011,05502505
5830749360,avanti,,,53.5730861,10.0613817,05502505
5833046600,Syswe GmbH,Überseeallee 1,20457,53.5417147,9.9967262,01102103
5842357434,Lerdon & Partner,,,53.4725547,9.8489174,07714715
5848159713,Amt für Ausbildungsförderung,,,53.5649471,9.983062,03302311
5856380813,Büro wir,,,53.5745438,9.9476847,03301303
5859151400,Finanzamt Hamburg-Mitte,Steinstraße 10,20095,53.5502496,10.0033385,01101101
5859151401,Finanzamt Hamburg-Hansa,Steinstraße 10,20095,53.5502488,10.0032496,01101101
5861004055,SPD Abgeordnetenbüro,Fuhlsbüttler Straße 458,22309,53.604662,10.0404276,04410429
5863463838,Brähler ICS,Hammer Deich 70,20537,53.5458772,10.0457867,01108127
5886303902,Güse,Borsigstraße 21,21465,53.5268669,10.2394375,0
5891008885,CP Corporate Planning AG,Große Elbstraße 27,22767,53.5442333,9.9498482,02201201
5891754855,Matthias Wagner,,,53.4630828,9.7958172,0
5891776039,Lohnsteuerberatungsverbund,Hauptstraße 44,21629,53.463518,9.797138,0
5892771285,Freenow HQ,Neumühlen 19,22763,53.544024,9.9199021,02204214
5893520956,ACTO Orthopädietechnik,,,53.4657776,9.7940878,0
5893616195,Lancker,,,53.4638868,9.794449,0
5893616197,Hans-Peter Rampold,Bahnhofstraße 11b,21629,53.4643079,9.7942918,0
5893616199,Signum,Bahnhofstraße 11b,21629,53.4642445,9.7943039,0
5895964911,Die Linke,Hartzlohplatz 1,,53.6027964,10.0437209,04410429
5896840103,Geospin GmbH,,,53.5565809,9.9907457,01103108
5901507991,Bürogemeinschaft Rechtsanwälte City Nord Rechtsanwälte Bartels und Dickow,Mexikoring 9c,22297,53.6021721,10.0228508,04405408
5901520707,Republik Peru (Generalkonsulat),Blumenstraße 28,22301,53.5831569,10.0001517,04405413
5902700781,Rehbein Personaldienst,Langenhorner Chaussee 139,22415,53.6441852,10.0128503,04413432
5902788766,HSR,,,53.4744369,9.8989665,07713714
5902788767,Liermann Transporte,,,53.4749447,9.899165,07713714
5902788768,Kessler - Gerüstbau GmbH,,,53.4755374,9.8986352,07713714
5902788770,Lippmann - German Ropes,,,53.4740143,9.8993281,07713714
5907219002,Jo-Ras Bad- & Wohnungssanierung GmbH,Neuwiedenthaler Straße 145,21147,53.4780709,9.8902153,07713714
5907655387,dock europe e.V. Internationales Bildungszentrum,,,53.5584767,9.9435487,02203210
5908518647,Busche,,,53.4743348,9.8995503,07713714
5914861521,Carl Timmermann Wohnungsgesellschaft,Bramfelder Chaussee 239,22177,53.6130026,10.0749028,05507515
5914861527,Itzehoer Jelena Nohren,Bramfelder Chaussee 239,22177,53.6133368,10.0751039,05507515
5917738908,Resko Consulting,,,53.4631327,9.9798442,07701701
5937797806,DEVK J. Nienstedt,,,53.4638473,9.7997122,0
5939502134,CET CHINT,,,53.463858,9.7999985,0
5939731706,Struwe Möbelspedition,Wilhelm-Raabe-Straße 3,21629,53.4614944,9.7823961,0
5952314791,Renner Hainke Wirth Zirn Architekten GmbH,,,53.5562412,9.9578144,02201205
5957294348,Grundstücksverwaltung Borgfelde Hausmeisterbüro,Akeleiweg 22,,53.5800897,9.8690022,02205217
5957299166,Ergoteam Flottbek,Akeleiweg 20,,53.5799688,9.8689271,02205217
5957304300,Ballett Studio Beate Schüßler Preuß,Akeleiweg 16,,53.5796504,9.8689271,02205217
5961530482,Hörsäle und Seminarräume des Philosophenturm,Überseering 35,22297,53.6049776,10.0195417,04405408
5992573619,CreateWeb,,,53.5960471,10.130323,05506514
5993519417,Duden Institut Hamburg-Harburg,,,53.464896,9.9616189,07710711
6000894003,Nussbaumschule Klocks,Stutsmoor 42,22607,53.5723747,9.8875172,02205217
6003270380,Bibows Objektservice,Müggenkampstraße 80,,53.5805248,9.9397281,03301301
6003276215,Engel & Völkers,,,53.5396473,9.9944136,01102103
6013066636,Ambulanz Schrörs Hamburg-Harburg GmbH & Co KG,,,53.4617503,9.9755074,07701701
6014797530,Miamedes Hausarztpraxis Harburg,,,53.4615237,9.9822113,07701702
6023287932,Stüwe Design UG,Reinskamp 18,22117,53.5455784,10.1300284,01112130
6029083211,Dataport,Billstraße 82,,53.5403462,10.0415649,01114132
6037792377,Ing. Grimm Schweißtechnik,,,53.4788749,9.9958567,01116137
6037854639,Informationstechnlogie UKE,,,53.5904845,9.9716351,04402403
6042307987,Grollmus,,,53.4390234,9.9991143,07704705
6046917363,ZOB-Verwaltung Hamburg,,,53.5520725,10.0109395,01105114
6047148644,Itemis AG,Speersort 10,,53.5500675,9.9980333,01101101
6052945655,Audio Reference,,,53.621794,10.0102065,04403406
6054472526,SAGA-Geschäftsstelle Barmbek,Hellbrookstraße 18,22307,53.5954041,10.0470236,04410428
6055665031,Netlight Consulting,Große Bleichen 23-27,20354,53.5524206,9.9889256,01103108
6066219271,AMA Freight Agency GmbH,,,53.5190539,10.0503614,01115134
6071211967,Lioko e.K.,,,53.5387644,10.0316119,01114133
6074469785,Clubkombinat Hamburg e.V.,,,53.5486052,9.9660122,01104112
6075792760,HIRSCHTEC GmbH & Co. KG,Burchardstraße 17,20095,53.5489598,10.0010376,01101101
6102886586,G-O-H.net • Webdesign Hamburg,Hauffstraße 2,22085,53.5804807,10.0184185,04406414
6106317183,Das Meer ist blau.,,,53.561153,9.9598582,02202207
6126322350,Olympiastützpunkt Hamburg/Schleswig-Holstein e.V.,,,53.5869422,10.0726148,04409425
6128126674,Standort Langenhorn Einwohnerangelegenheiten,Langenhorner Markt 7,22415,53.6496939,10.0135758,04413432
6134797724,ORVITAS UG,,,53.5891823,9.7655636,02214227
6135001673,Günther Glunz Spedition,Großmannstraße 247-249,20539,53.5344457,10.0710365,01114132
6139654057,Gemeindebüro,,,53.7052373,10.0085355,0
6142245653,binaroo technologies GmbH,,,53.5498802,9.9227147,02204214
6145148684,SPD Bürgerbüro,,,53.5521201,10.0182385,01105114
6145150385,Kanzlei HoHaus,,,53.5520951,10.0181458,01105114
6145680683,Stadtwerke Ahrensburg,Lohe 1,,53.673418,10.2398828,0
6166955672,Vermietungsbüro,,,53.6693725,10.0858055,05511519
6167118733,Gemeinnützige Treuhandstelle Hamburg e.V.,Mittelweg 147,20148,53.5694568,9.9958193,03302312
6167118734,Hinweis Hamburg,Mittelweg 147,20148,53.5694775,9.9960258,03302312
6168738206,Stadtwerke Quickborn,,,53.7311494,9.8946127,0
6175011602,Weko Sicherheitsdienste,,,53.5803322,9.7951238,02213226
6176618032,Boston Consulting Group,Fischertwiete 2,20095,53.5483197,10.0015392,01101101
6177273164,Jobcenter,,,53.5538694,10.0009113,01101101
6179632368,Soth,,,53.6817986,9.9920024,0
6180686375,Dr. v. Blittersdorff & Kollegen,,,53.6253848,10.13944,05518526
6180719436,EURO Möbeltransport,,,53.6448517,10.0333647,05512520
6180719437,Hermes Shipping & Airfreight GmbH,,,53.6449145,10.0332628,05512520
6202302870,Croatia Hamburg - Kroatische Kulturgemeinschaft e.V. Hamburg,,,53.5662764,10.0633043,05503510
6202305527,Wandsbeker Schützengilde e.V. von 1637,,,53.565601,10.0635215,05503510
6216373330,Bürgerschaftskanzlei,Schmiedestraße 2,20095,53.5495602,9.9960634,01101102
6239606411,Der Hamburgische Beauftragte für Datenschutz und Informationsfreiheit,Ludwig-Erhard-Straße 22,20459,53.5498693,9.9781154,01103106
6241438855,Kfz Gutachter und Sachverständigenbüro Raiolo,Stresemannstraße 268,22769,53.5634432,9.9362981,02203209
6241474034,CDU-Kreisverband Wandsbek,Wandsbeker Königstraße 66,22041,53.5756874,10.0623183,05502505
6243649091,BIT-SERV GmbH,Kurze Mühren 1-3,20095,53.5526226,10.0034546,01101101
6246481790,Attingo Datenrettung GmbH,Warnstedtstraße 12 B,22525,53.5831129,9.9308817,03309321
6255813047,FMP Mundt & Born mbB Rechtsanwälte,Mittelweg 161,20148,53.5670654,9.9963242,03302312
6255817653,Rechtsanwälte Günther,Mittelweg 150,20148,53.5690581,9.9957904,03302312
6255845785,Brandslisten GmbH,Winterstraße 2,22765,53.5511717,9.933515,02204213
6257883411,ensibo GmbH,Friesenweg 5,22763,53.5583764,9.9103982,02204212
6258047938,Igor Schmeer Dachtechnik,,,53.4756493,10.2477899,06602603
6259600578,UNIBERG,Simon-von-Utrecht-Straße 85a,20359,53.5508575,9.9629885,01104111
6264770054,Generalkonsulat der Portugiesischen Republik,Amelungstraße 4,20354,53.5529285,9.9859532,01103108
6277009136,MOIA,,,53.5509567,9.986217,01103108
6278275605,Industrial Workers of the World Hamburg,,,53.5677426,9.9622225,03301310
6278275606,Freie Arbeiter Union Hamburg,,,53.5677637,9.962193,03301310
6279368755,CM Reisen Hamburg,Heimfelder Straße 1,,53.4651828,9.9630897,07710711
6280685751,MLPD,,,53.5631644,9.9433136,02203209
6284357139,Wunder Mobility,,,53.5428068,10.0005785,01102104
6284365836,S-KAI,,,53.5429933,9.9941045,01102103
6294740394,,,,53.5955993,9.9572619,03305317
6298992086,Rehfeld & Kollegen,Ulzburger Straße 356d,22846,53.7188535,9.9989938,0
6301673429,Ge & Ko,,,53.4643462,9.9624408,07710711
6302225175,Seven Seas Shipping & Logistics GmbH,,,53.5190005,10.0503136,01115134
6302225177,LZH,,,53.5192344,10.0497204,01115134
6302225192,Fercam AG,,,53.5198066,10.0481399,01115134
6307831482,Sharp Devices Europe GmbH,Nagelsweg 33-35,20097,53.5476661,10.0198558,01106116
6311703905,Barrierefreies Hamburg e.V.,,,53.6107606,10.1194704,05506514
6312285173,Zell & Mohr GmbH,,,53.5217082,10.0441303,01115134
6312285174,Zemo Tools,,,53.5215009,10.0445031,01115134
6313159627,"R. M. Brodda, M. Schulz",Bahnhofstraße 29,21629,53.4661965,9.7927168,0
6323035715,Debeka,,,53.5656372,9.9829996,03302312
6323165191,Kanzlei Bergmann,,,53.574453,10.02047,04406414
6328910275,PPS Familienrecht,,,53.5764408,9.9505659,03301303
6329324890,Verkehrsclub Deutschland Landesverband Nord e. V.,Nernstweg 32-34,22765,53.5562767,9.9325652,02204211
6330999211,VBG,Massaquoipassage 1,22305,53.58813,10.0444286,04410427
6331278945,Katholisches Pfarramt,,,53.5730944,10.0738862,05502507
6341759147,Rudolf Neber Tiefbau,Müggenburger Straße 12,20539,53.5148269,10.0422676,01115134
6341759148,OAM Baustoff-Terminal,,,53.514909,10.0419967,01115134
6348030397,Breuell & Hilgenfeldt,,,53.7335802,10.0238764,0
6348030398,Druckluft-Service Karl Kummerfeldt,,,53.7335961,10.0230154,0
6348030399,Klaus Groß,,,53.7339007,10.0229859,0
6348030400,Paul Filter,,,53.7338372,10.0239488,0
6348030402,WIP Mess- und Regelarmaturen,,,53.7326679,10.022251,0
6348030409,Albert Rauch,,,53.732268,10.0223342,0
6348030410,Carstens Shop-Einrichtungen,,,53.732157,10.0215429,0
6348030411,Eckenhoff,,,53.7321823,10.0210521,0
6348030412,Edelstahlservice Sulz,,,53.7326425,10.0215644,0
6348030413,MTM Medizintechnik Mauk,,,53.7326012,10.020411,0
6348400728,Stollwerck,,,53.7355761,10.0174498,0
6348417386,Parkhalle Norderstedt,Oststraße 145,22844,53.7272427,10.0215375,0
6348417387,eviateg GmbH,,,53.7272776,10.0211272,0
6349452615,ARINET GmbH,Schauenburgerstraße 6,20095,53.549575,9.9954978,01101102
6351138267,Nordfoto,,,53.7297356,10.0178093,0
6351138268,Babyton,,,53.7300149,10.0177449,0
6352352653,Holistic Care GmbH,,,53.5803628,9.9793853,03303314
6356306222,DGB Hamburg,Besenbinderhof 60,20097,53.5505178,10.0119207,01105114
6368758994,C&K - Ingenieur- und Gutachterbüro,,,53.5826518,9.9342806,03309321
6373225011,Profizelt24,,,53.6638612,9.9772623,0
6373892446,Dr. Burschberg & Partner PartG mbB,,,53.582374,9.9746659,04401401
6376556965,Gemeindebüro Christuskirche Wandsbek,,,53.5719855,10.0723781,05503510
6376556966,Dr. Jörn Lütjohann,,,53.5720031,10.0725125,05503510
6382662861,PiT Personalservice im Takt GmbH,Kreuslerstraße 10,20095,53.5503478,9.9979596,01101101
6389209478,ORBIT Ventures GmbH,,,53.5461155,9.9845605,01101102
6402561467,Hoppe,Kieler Straße 318,22525,53.5860688,9.9343145,03309321
6412799049,Rechenzentrum Akquinet,,,53.7000316,9.9937299,0
6412823234,Malteser in Norderstedt,,,53.7134679,9.9905111,0
6414917642,Geschichtswerkstatt Eppendorf,Martinistraße 44a,20251,53.5917326,9.9816191,04402403
6414917643,martini erleben,Martinistraße 44a,20251,53.5917963,9.9817666,04402403
6418513026,Waagen-Service Mahnke & Rungius GmbH,,,53.544007,10.0149011,01106115
6420915885,Green Planet Projects GmbH,Hongkongstraße 10,20457,53.5418848,10.0014862,01102104
6428039121,Solo Gebäudemagment,,,53.5794861,10.1033687,05505513
6444977290,HyCP Veddel Space,,,53.5276852,10.02082,01115134
6445028636,GIS-Akademie,,,53.5491953,10.0246033,01106117
6448114685,,,,53.6521706,10.2612296,0
6450442836,Felicious GmbH,Herlingsburg 16,22529,53.5855215,9.9538159,03305317
6452258620,Institute of Plant Science and Microbiology,,,53.5603239,9.858744,02209221
6454696501,EGGERS Tiefbau GmbH,Harksheider Straße 110,22889,53.7276157,10.0264212,0
6456392629,Jobcenter Harburg,,,53.4656897,9.9807938,07701702
6457504771,GSD Software Design GmbH,Ernst-Mantius-Straße 24,21029,53.4904761,10.2132316,06602602
6457664395,Menschen & Märkte,,,53.6478302,10.0082292,04413432
6461625762,Innenstadtkoordination,,,53.550126,9.9947167,01101102
6463208432,Hamburg Port Authority,Neuer Wandrahm 4,20457,53.5449693,9.9955278,01102103
6473646811,Gebäude- und Alarmtechnik GmbH,,,53.5805087,9.7970653,02213226
6482335530,SAGEMCOM Dr. Neuhaus GmbH,Papenreye 65,22453,53.6137142,9.972005,04403406
6483353552,Techniker Krankenkasse Hamburg-Barmbek,,,53.5914285,10.0570775,04410426
6494771887,Spaces,Gorch-Fock-Wall 1a,20354,53.5580212,9.9881414,01103108
6494771888,Spaces,Willy-Brandt-Straße 23,20457,53.5472792,9.9990523,01101101
6499485639,Vereinigte Lohnsteuerhilfe e.V.,,,53.6469185,10.0761257,05511519
6502286992,IHG Immobilien Hamburg GmbH,Schiffbeker Weg 68,22119,53.546142,10.1062755,01112130
6504524313,Yessian Music GmbH,Schulterblatt 58,20357,53.5612437,9.9637291,02202207
6507886482,Classic Parking,Goosmoortwiete 9g,,53.6573431,9.9038878,0
6508962811,Bergedorfer Schifffahrtsline,,,53.4896344,10.2093701,06602602
6515383800,Kirchstein Immobilien GmbH,Möllner Landstraße 27,22111,53.5396867,10.1067428,01112130
6515469073,Allianz,Lehmweg 35,20251,53.5832601,9.9799891,04401401
6515491185,Goldflotte GmbH + Co. KG,Löwenstraße 16,20251,53.5838302,9.9791069,04401401
6518753768,Allianz Generalvertretung Wolfgang Niegel,,,53.4880428,10.2131333,06602602
6524674326,Campana & Schott,Ballindamm 4-5,20095,53.5550135,10.0003001,01101101
6535437800,McKinsey & Company,Am Sandtorkai 77,20457,53.5423072,9.9825578,01102103
6542583455,Debeka Servicebüro Hamburg Eimsbüttel,Langenfelder Damm 37,20257,53.5799248,9.9392254,03301301
6546781506,Transact - Gesellschaft für Software & Analyse mbH,Lagerstraße 17,20357,53.5597882,9.9684684,01104109
6551260959,Engel & Völkers,,,53.6810504,10.0004678,04413432
6552177678,Hauptzollamt Hamburg,Süderstraße 63,20097,53.5450565,10.0267213,01106117
6572671959,Videobeat,Rathausstraße 4,20095,53.5498285,9.9943535,01101102
6583653902,LMS,Peutestraße 80a,20539,53.5125878,10.0547075,01115134
6583653903,Setwork,Peutestraße 80a,20539,53.5126915,10.0544205,01115134
6583659645,Profil Papiervertriebs GmbH & Co. KG,,,53.517643,10.0518819,01115134
6583659649,Pro Neupa GmbH,,,53.5172195,10.0529499,01115134
6583659650,Papierverarbeitung Melosch GmbH & Co.,,,53.5174396,10.0527192,01115134
6584208481,Bundesverband Deutscher Versicherungsmakler,Admiralitätstraße 58,20459,53.547385,9.9836121,01103105
6584719378,Logistik & Transportges.Meyer mbh,,,53.5189454,10.0503762,01115134
6584719379,LTH Langhorst Trucking Hamburg GmbH,,,53.519007,10.0504282,01115134
6584720731,WSW Logistik GmbH,,,53.519374,10.0492712,01115134
6584720732,Elneco Lagerei GmbH,,,53.5194982,10.0488715,01115134
6594909475,Daimay Europe GmbH,,,53.5197102,10.0482232,01115134
6594909476,Husarich GmbH,,,53.5196528,10.0481749,01115134
6594916410,Universal Transport Michels GmbH & Co. KG,,,53.5197816,10.0482262,01115134
6594916412,Die Schmücker Klöpner GmbH,,,53.520455,10.0459281,01115134
6594916413,Husarich GmbH,,,53.5205635,10.0455786,01115134
6594916437,Computrade,,,53.5206247,10.0449379,01115134
6594916438,AS-Nord GmbH,,,53.5205784,10.0450761,01115134
6594916481,HPA - Hamburg Port Authority,,,53.5233891,10.0368158,01115134
6594916482,Hatraco GmbH,,,53.5237004,10.0358601,01115134
6594916483,Siegmann + Schröder GmbH,,,53.5235489,10.0363253,01115134
6597306526,Asekurado Versicherungsmakler GmbH,,,53.6110548,10.023949,04404407
6600193854,Hausverwaltung Wilde GmbH,,,53.6082938,10.0051832,04404407
6613000707,TK Hafencity,Überseeallee 6-8,20457,53.5407179,10.0022011,01102104
6622433331,sysfive.com GmbH,Sachsenstraße 20,,53.5467285,10.0278746,01106117
6625017699,Trufi Association e.V.,,,53.6736841,10.1226546,05516524
6627151820,Schapke & Rickmann Steuerberatungsgesellschaft,Dingstätte 32 b,25421,53.6616259,9.7950383,0
6635648782,Reederei F. Laeisz,Trostbrücke 1,20457,53.5478335,9.9922175,01101102
6636570475,Schapke & Rickmann Steuerberatungsgesellschaft,Lornsenstraße 128-130,22869,53.6098619,9.8405078,0
6640047986,De Fleetenkieker e.V.,Großheidestraße 2,,53.5848148,10.02825,04405411
6649427109,Dirk Abraham,,,53.4645963,9.9645202,07710711
6649427127,Buch Wunder Werk,,,53.4642819,9.9627572,07710711
6651740371,RGM Facility Management GmbH,,,53.4679851,9.9670505,07710711
6651768685,Kröger Rechtsanwaltskanzeil,,,53.4672131,9.9654051,07710711
6653195020,D. F. Liedelt,,,53.4676209,9.970672,07710711
6653939692,Allianz,,,53.5331884,9.877182,01120141
6655020757,GMBC,Kaiser-Wilhelm-Straße 93,20355,53.5547507,9.9808218,01103107
6655027511,Ekkore,Kaiser-Wilhelm-Straße 93,20355,53.5547267,9.9807853,01103107
6659151754,Öko-Obstbau Norddeutschland - Versuchs- und Beratungsring e.V.,Moorende 53,21635,53.5086504,9.7360801,0
6660741211,Beratungsstelle Lohnsteuerhilfeverein,,,53.4633072,9.959555,07710711
6669594079,CycleSEC Academy,Heestweg 12a,22143,53.6024565,10.149741,05518526
6682845142,Zoder,,,53.5386847,10.0546709,01114132
6695748157,adelante Jugendhilfe,Griegstraße 75,22763,53.556591,9.9096134,02207219
6699100656,Julia Bentin,,,53.5150131,10.2085023,06601601
6699127100,Areal Sicherheitssysteme,,,53.5155944,10.209032,06601601
6699399283,Ausweisstelle,,,53.6259149,10.0053191,04412431
6700325303,Jugendrotkreuz Harburg,,,53.4516116,9.9828874,07704705
6711544834,WPS – Workplace Solutions GmbH,,,53.583191,10.008426,04405413
6720018461,Allianz Generalvertretung Thomas von Appen,Kiebitzweg 41,22869,53.6082248,9.8389904,0
6738392457,interpersonal GmbH (Verwaltung),Geschwister-Beschütz-Bogen 6,22335,53.6201859,10.0035523,04403406
6741915926,K. Pipping Immobilien,,,53.4879845,10.2123677,06602602
6742517794,SCHUTZWERK GmbH,Poststraße 33,20354,53.5538465,9.9890658,01103108
6749656941,meravis,,,53.4563413,9.9729735,07701701
6755526788,Geschichtsgruppe Dulsberg e.V.,,,53.5793714,10.0616316,04409424
6791067248,MassiveButDynamic Group GbR,Geschwister-Scholl-Straße 52,20251,53.5945212,9.9833428,04402403
6793520814,Debeka-Servicebüro Hamburg,,,53.4707189,9.9489359,07710711
6793527390,Karin Stein Grundstücks GmbH & Co. KG,,,53.4684183,9.9603967,07710711
6794513644,Single Malt Audio,,,53.5707873,9.9753333,03301309
6796994624,KNISTR GmbH,Hugh-Greene-Weg 2,22529,53.5953039,9.9468144,03305317
6801797201,svt Brandschutz Vertriebsgesellschaft mbH Ost International,,,53.4111667,10.018054,0
6814734353,Die Linke,Schloßstraße 90,22041,53.5721595,10.0733492,05503510
6820765819,Wertplan Nord Immobiliengesellschaft mbH,Groote Kamp 35,25474,53.6940472,9.9160637,0
6848414008,Bastian + Fuchs,Bahrenfelder Straße 242,,53.5567439,9.9285728,02204211
6866232022,Kanzlei Leßniak,,,53.4482872,9.9459381,07709710
6896976146,Climate Service Center Germany,Fischertwiete 1,20095,53.5482391,10.0020065,01101101
6901940423,JOB Kontor GmbH,,,53.5489931,10.0009363,01101101
6903466866,Gemeinschaftspraxis Mangeleer-Eisfeld,Ochsenzoller Straße 191,22848,53.6818729,9.9933482,0
6903798858,Lionizers GmbH,,,53.4580964,9.9806471,07701701
6909377063,LOGIC JOE,Vorsetzen 53,20459,53.5446904,9.9761203,01103105
6909436496,CGI,Millerntorplatz 1,20359,53.5506106,9.9686664,01104111
6917036903,Institut für Notfallmedizin,,,53.461046,9.9501627,07710711
6924065403,Cancom GmbH,Poßmoorweg 2,22301,53.5855491,10.0069744,04405410
6931098183,pix & pinsel,Adenauerallee 8,20097,53.5526454,10.0123089,01105114
6949583146,DWARS & iZMiRLi,,,53.5674212,10.0301067,04406415
6971120337,Hamburgnet,Kattunbleiche 18,22041,53.5742204,10.0710977,05502507
6975326003,Gemeindebüro St. Wilhelm,,,53.6204443,10.0904502,05507515
6982159200,JobCenter Altona,,,53.55583,9.90772,02207219
6986417846,Reisebüro Iserbrook,,,53.5764282,9.8210935,02212225
7005112581,Struck KG,,,53.4840065,10.1979382,06602602
7005149047,I.T.E.M.S. AFRICA GmbH & Co. KG,Forsmannstraße 8b,22303,53.5829361,10.0157456,04405412
7005265273,Hauptgeschäftsstelle Nordlicht e.V.,Grubesallee 26,,53.6062877,10.1515958,05518526
7017936416,BSE IT UG,,,53.5824241,9.9699238,03304316
7026451881,mpsc Beteiligungsgesellschaft mbH,Lockkoppel 5a,22391,53.642579,10.0861701,05509517
7047270794,Erbrecht Groß,König-Heinrich-Weg 148,22455,53.6335431,9.9638036,03306318
7048799596,Hamburger Ding,,,53.5502268,9.9562991,01104110
7057291106,Versicherung Hamburger Feuerkassen,Fuhlsbüttler Straße 299,22307,53.6000415,10.04087,04410429
7061471170,öffentliche Rechtsauskunft,,,53.6463536,10.0136738,04413432
7061478422,Mütterberatung,,,53.6464327,10.0135314,04413432
7061486125,Grundsicherung und Soziales,,,53.6463124,10.0132536,04413432
7070311200,Mees Immobilien,Querstraße 2,25451,53.7311906,9.9051619,0
7070311201,1. FC Quickborn,Querstraße 2,25451,53.7310685,9.9051967,0
7070311202,SPD-Geschäftsstelle,Querstraße 2,25451,53.7310962,9.9051888,0
7070471825,Adlershorst Kundencenter Quickborn,Bahnhofstraße 23b,25451,53.7309907,9.9019687,0
7074387384,Otto Cropp Hausverwaltung GmbH,Eilbergweg 11,22927,53.6624928,10.2854606,0
7084206917,die-HAUS-FRAUEN,,,53.5918724,9.9662465,03305317
7096493589,Nicolas Emmanuel Heinrichs,,,53.4706289,9.949199,07710711
7101879746,Honorarkonsulat von Südafrika,Palmaille 45,22767,53.5460704,9.9395693,02201202
7101879747,Deutsche Afrika Linien,Palmaille 45,22767,53.5460705,9.9393894,02201202
7128122378,Pflanzbar GbR,,,53.6517985,9.9069522,0
7131386419,AZ Gebäudeservice GmbH,,,53.463741,9.9618121,07710711
7137693185,Vastobau Gndh,,,53.4892381,10.2684926,0
7139978439,Rechtsanwalt Mc Veigh,Fasanenweg 25,22145,53.6238057,10.1467016,05518526
7149816367,SECURVITA,,,53.5576306,10.0203145,01105113
7165993386,NTT Germany AG & Co. KG,,,53.5447327,10.0016107,01102103
7166896402,Agent ERP GmbH,Balduinstraße 24,20359,53.5479341,9.9598534,01104112
7188434915,W. Markgraf GmbH & Co. KG - Projektbüro,,,53.6495566,10.0129273,04413432
7188437727,Condor Steuerberatungsgesellschaft mbH,,,53.6495413,10.0128165,04413432
7202767960,BayWa r.e. Wind GmbH Büro Hamburg,Am Sandtorkai 66,20457,53.5426614,9.9881083,01102103
7221675685,Bindemann Group,Gärtnerstraße 81G,25469,53.6334688,9.8560255,0
7222547529,HUK-Coburg,Schiffbeker Höhe 2a,22119,53.5472729,10.1076918,01112130
7227458079,Landesjugendorchester Hamburg,,,53.5467958,9.9722654,01103105
7230118349,Design Offices,Görttwiete 16-20,20459,53.5478732,9.9875041,01101102
7230129282,Design Offices,Domstraße 10,20095,53.5492759,9.9958018,01101102
7243135306,DRK Ortsverein Quickborn,,,53.736839,9.8945577,0
7245989908,DB InfraGO AG Produktionsdurchführung Hamburg Kundenmanagment,,,53.5496918,10.0102521,01106115
7245989909,DB Stations&Service AG Regionalbereich Nord Bau- und Anlagenmanagment,,,53.5496527,10.0103702,01106115
7248241829,MomentaryX AG,Axel-Springer-Platz 3,20355,53.5521829,9.9847091,01103107
7258416554,TOTEC,,,53.5573828,9.9364176,02203210
7258873183,Zentrales Fundbüro Hamburg,,,53.5720076,9.892993,02205217
7260473328,Dumrath & Fassnacht,Winsbergring 38,22525,53.5763023,9.9169702,02205215
7266050885,Quickborn Verlag,,,53.464223,9.9657294,07710711
7277336121,CEMEX Deutschland AG,Lohe 58,22941,53.7224056,10.2675498,0
7296411651,Rechtsanwälte Susanne Fuchs-Wenskat & Dr. Wolfgang Wenskat,,,53.6602772,10.0843401,05511519
7298565588,Hamburg Messe und Congress GmbH,Messeplatz 1,20357,53.5624595,9.975362,01104109
7299271059,Beschriftung,,,53.456435,9.978649,07701702
7299738056,lohi,,,53.4625739,9.9876419,07701702
7302343360,Lembke & Langhans,,,53.4555708,9.9778019,07701702
7302440735,Der Hafen,,,53.4586423,9.9825355,07701702
7332437467,Steuerberatung M. Pollmann,,,53.4669893,9.9520931,07710711
7335590367,debicon,,,53.4649195,9.9477795,07710711
7335590368,Dipl.-Finanzwirt Wolfgang Papist,,,53.4649579,9.9477285,07710711
7344438235,Luftfahrt-Bundesamt Außenstelle Hamburg,,,53.6532412,10.0190525,04413432
7362908307,Formel 1 in der Schule gGmbH,Hans-Böckler-Ring 23c,22851,53.69241,10.0529797,0
7376023336,HAPPY BRANDS,Holländische Reihe 11,22765,53.5477131,9.9307014,02204214
7379618472,Wietbrok Rechtsanwälte,,,53.4643799,9.9483736,07710711
7379618473,TBR Architekten,,,53.4644078,9.9483736,07710711
7379646502,AVAutomatisierungs GmbH,,,53.4671334,9.9470137,07710711
7380756517,Bock Innenausbau,,,53.4622535,9.9737505,07701701
7425938156,Jobcenter,,,53.5716134,10.0308217,04406415
7439176765,tricargo,Waidmannstraße 12,22769,53.5693052,9.9412872,02203209
7453264744,MacgyverIndustries,Schulweg 18,20259,53.5732502,9.958929,03301306
7466877190,iteratec GmbH,Am Sandtorkai 75,20457,53.5424145,9.9839531,01102103
7467717985,Maersk Deutschland A/S & Co. KG,,,53.543057,9.9866298,01102103
7467718085,Schroeder KG (GmbH & Co.),,,53.543026,9.9867438,01102103
7467718285,Deutsche Gesellschaft für Privatpatienten mbH,,,53.543002,9.9862995,01102103
7469465451,Logopädische Praxis Bloch & Team,,,53.508624,10.2504354,0
7475449688,Zurich Bezirksdirektion Borowiak Jacks Lengfelder GmbH & Co. KG,,,53.6216858,10.1645972,05518526
7532648923,Sternglas,Eimsbütteler Chaussee 23,20259,53.566706,9.9568864,03301310
7538955681,Tegtmeier Inkubator GmbH,Burchardstraße 14,20095,53.5488381,10.0025958,01101101
7573159869,Headquarters Hamburg Werbeagentur,Stadtdeich 27,20097,53.5451901,10.0097512,01106115
7608215945,INTENSIVkinder zuhause e.V.,,,53.6013902,9.8138045,0
7618292913,Behörde für Wirtschaft und Innovation,,,53.5506068,9.9840313,01103107
7618292914,Behörde für Verkehr und Mobilitätswende,,,53.5506223,9.9837762,01103107
7622963900,Helge Groeneveld,,,53.4620465,9.9850052,07701702
7622990011,malia tax,,,53.46272,9.9795576,07701701
7638241535,TSR,,,53.5249118,10.0271755,01115134
7643267744,Pfarrbüro,,,53.5538915,10.0980705,01111129
7648768080,Stefan Dehns,Berner Weg 31,22393,53.64967,10.1175355,05510518
7648780758,Stefan Dehns,Rathausstraße 28,22941,53.7297322,10.2676542,0
7656868472,Provinzial Thomas Blaume,Bahnhofstraße 108,25451,53.7315618,9.9039435,0
7656874452,Debeka,,,53.7308188,9.9038913,0
7656953930,Wendt Hausverwaltung,Bahnhofstraße 11,25451,53.7312377,9.8991337,0
7656970087,Nuro Bau GmbH,Bahnhofstraße 11,25451,53.7312033,9.8991388,0
7656981729,Kanzlei Quickborn,Bahnhofstraße 11,25451,53.7312361,9.8991986,0
7686998637,Ruf Deutschland GmbH,,,53.6786976,10.1437859,0
7688408800,Nocke Lagerhaus,,,53.6790137,10.1435056,0
7705557108,Complete Dienstleistung GmbH,Stadtdeich 7,20097,53.5451519,10.0092256,01106115
7705594802,Mikro Partner Service GmbH Hamburg,,,53.5515064,10.0252328,01106117
7707545456,Hamburger Feuerkasse,Eppendorfer Weg 97,20259,53.5736161,9.9606536,03301306
7709909434,hegel° architektur,,,53.5622362,9.9388009,02203210
7714509064,Jugendberufsagentur für Arbeit,,,53.5656044,9.9430937,02203209
7728113308,Rechtsanwälte Müller-Knapp • Hjort • Wulff,,,53.5851077,10.0279509,04405411
7745467159,Anders & Anders GbR,,,53.6029661,9.9110149,03308320
7760898485,Vantopia GmbH,Frohmestraße 59,22459,53.6329936,9.9240513,03307319
7798888228,Centurius,,,53.6704418,10.0741893,05511519
7811049320,POWmedia GmbH,Bramfelder Straße 102a,22305,53.5890096,10.0541464,04410426
7811049321,Praxis für Lerntherapie,Bramfelder Straße 102a,22305,53.5890511,10.0541271,04410426
7816526429,Kanzlei Maack,Löwenstraße 16,20251,53.5838185,9.9790247,04401401
7816526430,Steuerberaterin Petra Brandt,Löwenstraße 16,20251,53.5838482,9.9790688,04401401
7821128560,Steuerberater Holger Richter,Eißendorfer Straße 43a,,53.4601532,9.9723844,07701701
7836595986,Arbeit und Mehr,,,53.5939168,9.9950152,04405409
7836595987,TGMC Recruting Services GmbH,,,53.5939494,9.9951386,04405409
7836595988,Heissner & Struck,,,53.5939662,9.995194,04405409
7840507271,Digitec GmbH,Krüsistraße 7,22305,53.5879624,10.0447204,04410427
7840782338,foodlab Hamburg,Überseeallee 10,20457,53.5400548,10.0025998,01102104
7869922163,Kfz-Sachverständigenbüro Mahnke & Sohn GmbH,Fabriciusstraße 210,22177,53.60892,10.0678559,05507515
7893503520,bbsMEDIEN - Die Kretivagentur,Am Lohsepark 16,20457,53.5419829,10.004563,01102104
7893503521,Netzwerk Hafencity e. V.,Am Lohsepark 16,20457,53.5420339,10.0045496,01102104
7894334374,Block Mono,,,53.4667965,9.9743696,07710711
7894334375,moij design,,,53.4668229,9.9743092,07710711
7896217987,Abelone Films GmbH,Brandstwiete 42,20457,53.5469075,9.9967245,01101102
7903042979,Kanzlei Rechtsanwalt Siegfried S. Heida,Lüdmoor 39,22175,53.6276757,10.0983219,05507515
7924924350,SYNGENIO AG,Neuer Wall 10,20354,53.5526648,9.9924131,01103108
7932664412,MesseHalle Hamburg-Schnelsen GmbH,Modering 1a,22457,53.6378608,9.9233169,03307319
7933626638,Ebner Stolz,Ludwig-Erhard-Straße 1,,53.5475823,9.9853231,01101102
7937888037,HUK-Corburg Marina Schimanski,,,53.4621837,9.9754132,07701701
7941847776,Amanat,Steintorweg 2,,53.5531058,10.009843,01105114
7942192992,Gesundheitsamt Wandsbek,Robert-Schuman-Brücke 8,22041,53.5708544,10.0715248,05503510
7945028805,Unilever Deutschland GmbH,,,53.5478751,9.9913475,01101102
7949039580,dentisratio GmbH Hamburg,,,53.5522201,10.0379489,01107119
7951363000,Fritz Fick GmbH,Steindamm 8,20099,53.552845,10.0111655,01105114
7968636164,Consulting 86 Fides,Am Kaiserkai 60,20457,53.5415396,9.9861545,01102103
7969263830,Marcus Tischel,Osterstraße 92,20259,53.5759666,9.953681,03301305
8002695767,Susanne Gassan,,,53.620354,10.0821602,05507515
8002695776,Dirk von Minden,,,53.6212737,10.0828407,05507515
8006572258,Architekturbüro Sawallich,Mehringweg 24,21073,53.4592303,9.9587365,07709710
8007207576,FaberTec IT,Mehringweg 12,,53.457794,9.9597805,07709710
8007345174,Heinrich & André Rohn e.K.,Eißendorfer Straße 86,,53.4575975,9.9638049,07709710
8042541562,Oxyton Pharma GmbH,Edith-Stein-Platz 7,21035,53.4866772,10.1809735,06614615
8062891074,Architekten Thomas Giese & Reinhard Scholl,Elligersweg 31,22307,53.6039993,10.0442899,04410429
8069217085,Michael Rübcke,Kupferredder 17,22397,53.6965421,10.1331893,05515523
8080770613,Silke Lebender Achtsamkeit und Meditation,,,53.417796,9.8806797,0
8089012536,Pastorei zu Vahrendorf,,,53.4355747,9.9038368,0
8113404898,DEKOM,Hoheluftchaussee 108,20253,53.5847665,9.9699041,04401402
8165224977,proLogistik,Eggerstedter Weg 16,,53.6447481,9.7892812,0
8190826102,Melville - Schellmann GbR,Bogenstraße 28,22926,53.6670692,10.232818,0
8223839439,Rhenus Logistics,,,53.5028735,9.9228564,07712713
8239906414,Behr Objekt,Hammer Deich 160b,20537,53.5445113,10.0513849,01108127
8259737095,Aequitas Software Gmbh & Co. KG,Hermannstraße 13,20095,53.5516955,9.9967203,01101101
8281785351,Signa Projektbüro Flüggerhöfe,,,53.5471609,9.9862879,01101102
8284041841,Daniel Heid,Durchschnitt 19,20146,53.5648941,9.9801941,03302311
8288623856,combine Consulting GmbH,Raboisen 38,20095,53.5533347,9.9998942,01101101
8297383425,Dirk Gulderer Immobilien,,,53.7256399,9.9187177,0
8297383426,Röper GmbH Versicherungsmakler,,,53.7256399,9.9186,0
8305148917,Ludwig Weber GmbH,,,53.6747041,9.7685425,0
8324741145,Plansysteme GmbH,Amsinckstraße 57,20097,53.544681,10.019524,01106115
8325160887,Dataletics GmbH,Stephansplatz 6,20354,53.5577622,9.9892015,01103108
8325802811,Dokumenta,,,53.671713,10.0021023,04413432
8326245668,Globetrotter Reisen u. Subunternehmerliniendienste,,,53.4337018,9.9053146,0
8329687054,NEW WORK SE,Am Strandkai 1,,53.5390617,9.9933194,01102103
8334841217,Orange Cube Werbeagentur,Osterbekstraße 86,,53.5824613,10.0239787,04408419
8355440270,Hamburgs Immobilienmakler,Stellinger Weg 43 Haus 6,20255,53.5796274,9.9472231,03301303
8376264117,Weinhardt Immobilien,,,53.5948356,9.9870482,04402405
8376686467,Planevision Systems,Gewerbering 8,22113,53.5502252,10.1588183,0
8381611422,kvadrat soft cells,,,53.5513702,9.9869116,01103108
8388519992,Gemeindebüro Ansgar,,,53.6522719,10.0082405,04413432
8394444659,ServiceCenter Vattenfall,,,53.6047738,10.1554442,05518526
8409692897,Johanniter Ortsgruppe Osdorf,,,53.5799703,9.8508283,02209221
8413371469,Lichten | Kommunikation und Gestaltung,Hohenesch 55,22765,53.5544822,9.9315393,02204213
8414792651,Theorie und Praxis Verlag Hamburg,Hospitalstraße 67a,,53.5543634,9.9468622,02201204
8414792652,Karex Warenhandels GmbH,Esmarchstraße 82,22767,53.5546176,9.9454956,02201204
8414792653,ASA Handelskontor GmbH,Esmarchstraße 84,22767,53.5546232,9.9454285,02201204
8414792655,Frauentherapiezentrum Hamburg e.V.,Warnholtzstraße 2,,53.5546463,9.9453722,02201204
8414792656,BESPOKE co/work,Warnholtzstraße 4,22767,53.5548917,9.9456029,02201204
8418147992,SPD Bürgerbüro Regina Jäck,Neusurenland 107,22159,53.6165722,10.1142251,05506514
8420556287,Riesenbeck IT-Lösungen,Bramfelder Straße 121,22305,53.590059,10.053432,04410426
8422752375,ECS Elbe Clean Service,,,53.5472962,10.0262301,01106117
8440357917,VIPERdev HQ,,,53.464198,9.9832194,07701702
8443187107,LVM-Versicherung Agentur,Waldenauer Marktplatz 11,25421,53.6209582,9.7941516,0
8443187108,SuS Waldenau,Waldenauer Marktplatz 11,25421,53.6210759,9.7941301,0
8443187109,Apotheke Waldenau,Waldenauer Marktplatz 9,25421,53.6211905,9.794106,0
8446106425,Provinzial H.A. Schween,,,53.4474938,9.9904655,07704705
8460892094,EmLab Legal,Hohe Bleichen 5,20354,53.5524592,9.9866016,01103108
8465317634,Flüchtlingshilfe Harvestehude,,,53.5714571,9.9807559,03302311
8486124889,Quartiersbüro - Mitte Altona,Harkortstraße 91,22765,53.5596299,9.9392716,02203210
8486764979,Speidel System Trocknung GmbH,Marlowring 6,22525,53.573846,9.9271822,02205215
8509409558,Wiegers Immobilien-Service,Brandheide 23a,21224,53.4172255,9.8898672,0
8509430387,Vermietung Eduard Donhauser,Brandheide 17,21224,53.4172698,9.8911079,0
8523331436,Selectus GmbH,Osterbrooksweg 71,22869,53.5910866,9.8329886,0
8534324563,PlayTheHype,Große Bleichen 16,20354,53.5534707,9.9902302,01103108
8548265961,Schulz Seelig Triebe,,,53.6695303,10.2436322,0
8553070786,Hamburg Welcome Center for Professionals,Süderstraße 32b,20097,53.5441871,10.0297508,01106117
8557361067,SCHROLLER mobilmedia.hamburg,Planckstraße 13,22765,53.5565031,9.9229687,02204211
8567985602,Lütt Huus,Kieler Straße 101b,25474,53.6643753,9.904908,0
8568140014,consenss,Kieler Straße 101b,25474,53.6643296,9.904953,0
8568155526,Bosse & Schormann Rechtsanwälte u. Notare,Kieler Straße 101a,25474,53.6641762,9.9050526,0
8575540818,LASERCUT.HAMBURG,Billhorner Brückenstraße 40,20539,53.5387184,10.0316596,01114133
8575551923,pike engineering,,,53.5698571,9.8835757,02205217
8575551925,CAE-Forum,,,53.5698546,9.8836229,02205217
8583371377,"Hohage, May & Partner mbB, Rechtsanwälte, Steuerberater",Mittelweg 147,20148,53.5694625,9.995869,03302312
8596182437,HoneyHeroes,Zu den Diebeskuhlen 2,21224,53.4218469,9.8970929,0
8598432292,LA Bauunternehmen,Zu den Diebeskuhlen 7,21224,53.4217481,9.8953782,0
8600109198,Westerfeld,,,53.4917063,10.2569423,0
8611164521,IPM Immobilien Projekt Marketing GmbH,Hopfensack 6,20457,53.5482826,10.0000919,01101101
8612757546,Anwaltskanzlei Stöffler,Bahnhofstraße 71a,21629,53.4723122,9.7891233,0
8625579810,more shiny eyes / Wondercards,Liebermannstraße 9a,22605,53.5472455,9.8997036,02207219
8627027474,Kräuterkiste,Evastraße 1a,22089,53.5661761,10.0514744,05501503
8633260964,K&N Immobilien,,,53.4622504,9.9796136,07701702
