id,lat,lon,name,street,zip_code,city
31477371,53.5881739,9.9004894,Uwe-Seeler-Fuß,,,
270478989,53.5732049,9.8837105,,,,
290835907,53.530685,10.0446219,Vogel,,,
291421019,53.5308079,10.0447348,Vogel,,,
291421503,53.530665,10.0449183,Freundschaftsdenkmal,,,
292319615,53.5588804,9.862244,Adam plündert sein Paradies,,,
292574288,53.6509,10.1852038,Der Faulenzer,,,
302055527,53.7085442,9.9825217,Bürger im Park,,,
302719134,53.5441686,9.9795673,Sir William Lindley,,,
369768132,53.4818186,10.2394478,Kristallformation,,,
369768135,53.4832861,10.2377371,Krokusläufer,,,
369768137,53.4831308,10.2373207,Blot-able,,,
369768139,53.4831263,10.2370056,Angekippte Wiese,,,
369768141,53.4830183,10.2367085,Häuser 1,,,
369768143,53.4833385,10.236876,to the lighthouse,,,
369768159,53.4837112,10.2352651,Chercher la femme,,,
369768161,53.4838452,10.234563,Die Bürger von N,,,
372691315,53.4855843,10.2226569,Windstille,,,
372691371,53.485768,10.2232487,Ding mit Rohren,,,
372691374,53.4858026,10.2227532,Chromosom II,,,
372691376,53.4856042,10.2234663,Familie,,,
372691378,53.4856511,10.2246434,Torso,,,
372691379,53.4855853,10.225253,Zen 16 + 17,,,
372691388,53.4854694,10.2260375,Venedigstein 2001,,,
372691391,53.4855273,10.2261299,on the other side,,,
372698324,53.4862739,10.2209023,Alpha,,,
374120100,53.48297,10.2369557,Saatlinsen,,,
374120101,53.4829002,10.2369173,Lebenswege,,,
374120109,53.4861034,10.2202848,Symbiose + Metamorphose,,,
374120111,53.4858979,10.2208095,NaturMenschenRäume,,,
374120132,53.4859148,10.2209346,NaturMenschenRäume,,,
374120138,53.4858727,10.2211898,NaturMenschenRäume,,,
392717701,53.4846528,10.230298,Flieger Franze,,,
392719478,53.4859629,10.220612,Luftsäule,,,
392719479,53.4861799,10.2202827,Stein zu Mensch,,,
413549541,53.5687258,9.9888848,Löwe,,,
413558329,53.568364,9.9888688,Löwe,,,
414112810,53.4853063,10.2267737,Stein,,,
416688048,53.5962964,9.9378738,Pavillon Dresdner Frauenkirche,,,
486625734,53.6733483,10.1215386,Walddörfer-Stein,,,
659019628,53.5561503,10.0077953,Kreuzigungsgruppe,,,
703112192,53.5544497,10.0043385,Kleiner Zyklop,,,
703112193,53.5543983,10.0039724,Der junge Reiter,,,
703112195,53.5546292,10.0040977,Der Fluß,,,
775498887,53.557166,10.0169889,Keramische Reliefs,,,
778255383,53.5722178,9.9424987,Tor,,,
911062348,53.5400005,9.8656871,,,,
974002347,53.408168,10.2086692,Kunsthandwerkerei,,,
976569531,53.671241,10.2389618,,,,
989335944,53.570328,9.945141,Liegende,,,
1018603924,53.5656269,9.9431536,ohne Titel,,,
1020261446,53.5667839,9.9460251,Würfelobjekt,,,
1026448241,53.56321,9.9485009,Flötenspieler,,,
1260271224,53.5474457,9.9915611,Prüfung,,,
1260271240,53.5474688,9.9911581,Erdenengel,,,
1271073638,53.5694922,10.0265745,,,,
1271116474,53.5900445,9.85992,Holzsäule,,,
1334918857,53.5776716,10.0890281,Moltke-Denkmal,,,
1443451492,53.4587323,9.9771629,Thörlbrunnen,,,
1446223286,53.5867064,10.064086,Entwicklung des Schiffbaus,,,
1452642660,53.4615451,9.9804793,Geschichtsbrunnen,,,
1453491545,53.4590754,9.9797857,Aufrechter Gang,,,
1453491546,53.4603795,9.9807018,Begegnung,,,
1453491547,53.460512,9.9809416,Begegnung,,,
1453491548,53.4628181,9.98015,Christusfigur,,,
1453491549,53.4588979,9.9828464,Drei mögliche Denkmäler,,,
1453491551,53.4587533,9.9844068,Flaggenmann,,,
1453491552,53.4592334,9.9828375,Großstadtgören,,,
1453491553,53.463476,9.9811791,,,,
1453491657,53.4591239,9.9805168,Robbe,,,
1453491658,53.4616228,9.981381,Schiller-Büste,,,
1453491659,53.4574723,9.9842092,Säule und Wandrelief,,,
1453491660,53.4597271,9.9803977,Tubaspieler,,,
1453491661,53.459344,9.9825093,Wandbild Anamorphose,,,
1453540620,53.4581315,9.9814219,Soldat,,,
1453540621,53.4573663,9.9768933,Der pfeifende Junge,,,
1453540622,53.4586949,9.9780709,Eisengießer,,,
1453540624,53.4589812,9.9794287,Faustkämpfer,,,
1453540625,53.4593209,9.9791881,Großes Normandiestück,,,
1453540626,53.4585073,9.9777677,Kugel im Kubus,,,
1453540628,53.4589347,9.9782605,Mauerrelief,,,
1453540629,53.4569051,9.9836773,Miteinander,,,
1453540630,53.4570486,9.9797634,Niemandes Land,,,
1453540637,53.4608256,9.9765569,Sgrafitto 1955,,,
1453540638,53.4580988,9.9815171,Trauerndes Kind,,,
1453540639,53.4580031,9.9775662,Umarmung,,,
1453540640,53.4631504,9.9816297,,,,
1492561288,53.6741291,10.2420446,,,,
1492561289,53.6741905,10.2420585,,,,
1504421325,53.7255026,10.2624256,Der Schläger,,,
1504421337,53.7262558,10.2624628,Streben nach Höherem,,,
1536759491,53.726239,10.2676425,,,,
1547008323,53.6001566,9.8359797,Dialogsäule,,,
1549516893,53.5414421,9.9856258,,,,
1561539056,53.5560196,10.0076475,Schiffsbleche,,,
1599630540,53.5934867,9.9427003,Mann auf Giraffe,,,
1664478148,53.4873275,10.1755051,Rieselbrunnen,,,
1806298251,53.5425058,10.2112436,Kühe,,,
1806529256,53.6284962,10.0457805,Das Schicksal,,,
1825401134,53.5469488,10.0055016,Körber-Ringe,,,
1839504485,53.4599218,9.9687999,,,,
1839504490,53.4617291,9.9695096,,,,
1887418241,53.544978,9.9896688,Propeller,,,
1887472737,53.5448264,9.9801636,Hermes,,,
1889018125,53.5552808,9.9783113,,,,
1889018129,53.5554455,9.9781014,,,,
1889018130,53.5555331,9.978222,,,,
1889917625,53.5473061,9.9708364,Kersten Miles,,,
1889917629,53.5475596,9.9707925,Berend Jacob Karpfanger,,,
1889917636,53.5476024,9.971461,Ditmar Koel,,,
1904845524,53.6778157,10.1823742,,,,
1907939171,53.5301996,9.8778353,Aqua Viva,,,
1911609795,53.5901994,9.8494388,Ziehende Kraniche,,,
1912920859,53.5845999,9.8517237,Aufsteigender,,,
1912920862,53.5859056,9.8535958,Liegende,,,
1915729114,53.5870543,9.8523197,Reliefwände,,,
1915874971,53.5910281,9.8509624,Symbol der Gemeinsamkeit,,,
1915874994,53.583838,9.8550715,Große Oceanide,,,
1918543493,53.558452,9.9886399,Liegende,,,
1919949587,53.6007567,9.8805337,Paar auf Pferd,,,
1919949593,53.59923,9.862313,Flügelsäule,,,
1919973293,53.5909322,9.8529014,Möwen,,,
1923551634,53.5564415,9.9835893,,,,
1923551639,53.55238,9.9870112,Große Dreifigurengruppe,,,
1923646370,53.5454619,9.9350261,Maritim,,,
1924016442,53.5543915,10.0042472,Sieben Orte für Hamburg - Ort,,,
1924031071,53.5575287,10.0034313,Rhythmus im Raum,,,
1924042690,53.5587591,9.990762,Rugby,,,
1924048106,53.5587425,9.9914236,Lichtplastik,,,
1924055084,53.5551819,9.9772449,Panther,,,
1924066334,53.550363,9.9699446,Rad & Schiene,,,
1925770272,53.5594991,9.9868969,Liegende,,,
1925776816,53.562324,9.9792842,Flamingogruppe,,,
1925779038,53.5625641,9.9799424,Sonnenuhr,,,
1925807557,53.5631413,9.9776023,Kreisende Kugeln,,,
1925807558,53.5633078,9.9788478,Große weibliche Figur,,,
1925807560,53.5632704,9.9785512,Weibliche Gestalt,,,
1925807566,53.5632744,9.9783007,Aurora,,,
1925811789,53.5613313,9.9855578,Stehender männlicher Torso,,,
1937187905,53.5548869,9.9908069,Atlas,,,
1937187911,53.5569809,9.9937818,Die Windsbraut,,,
1937187916,53.5567885,9.992371,,,,
1951736297,53.6244532,10.0605131,Grablegung Jesu,,,
1951751336,53.6243891,10.0602482,Finis vitae,,,
1975318790,53.5776494,9.8684098,Bärengruppe,,,
1975540261,53.5885888,9.8466839,,,,
2022358973,53.5426804,9.9948592,Kaffeebohne,,,
2038940395,53.5534866,9.9925423,,,,
2102927533,53.57262,9.979063,Große Liegende,,,
2112593393,53.4344495,10.23316,Der sterbende Häftling,,,
2127237596,53.6736392,10.2362736,Kämpfende Vögel,,,
2186456995,53.7270012,10.2601606,Artes Liberales,,,
2186499039,53.7292367,10.2610668,,,,
2225763189,53.6734983,10.2359464,Unser Erbe,,,
2264170341,53.5588318,10.0169632,Säule für den Lohmühlenpark,,,
2273600443,53.5698032,10.1083227,"ohne Titel (verschiebbare Würfel, Dreiergruppe)",,,
2273600447,53.5696502,10.107797,"ohne Titel (verschiebbare Würfel, Zweiergruppe)",,,
2288554705,53.5894438,9.8657026,Spielende Kinder,,,
2306333956,53.5669621,9.9828693,Stele,,,
2307123871,53.4668548,9.9838455,,,,
2307123881,53.495668,10.0068296,Auffliegende Reiher,,,
2322249387,53.4842804,10.226956,Kindertürme mit Tieren der Welt,,,
2340955819,53.5487973,9.9944453,Segelmotiv I,,,
2356474220,53.6431028,10.0131788,Schafhirte mit Schalmei und Lamm,,,
2425855598,53.543735,9.907306,Mann auf der Boje,,,
2480235072,53.5430024,9.9999556,Schiffsschraube,,,
2553085881,53.5460159,9.9782894,Moai Angelito,,,
2578087306,53.7262037,10.2676367,,,,
2584338626,53.6512649,10.0928852,Hahn,,,
2589243057,53.5684669,10.0532876,Latsch-in 1976-1986,,,
2627741444,53.5710653,10.0766295,,,,
2699836087,53.6891938,10.2487376,Spielplatzpokal,,,
2851829651,53.6843128,10.1559513,,,,
2857970907,53.6697867,10.2387802,,,,
2863118190,53.4855276,10.1682558,Klee-Monolithen,,,
2863119094,53.4869005,10.1543668,Ader,,,
2863123213,53.486105,10.1495649,Läufer,,,
2863141383,53.4813071,10.1613233,Botschaft an die Zukunft,,,
2863142365,53.4866174,10.140958,Bernsteingewebe,,,
2863148976,53.4869747,10.1558764,Livingroom,,,
2863150030,53.4873228,10.1571154,Geöffnete Form,,,
2876732223,53.6705307,10.2385861,Wegweiser Partnerstädte,,,
2945789837,53.6527329,10.0920525,Antje-Brunnen,,,
3000072698,53.5847271,10.1445322,Gleichklang,,,
3000072701,53.5879202,10.143914,Liegender Panther,,,
3000093947,53.5849651,10.1464137,Pferdebändiger,,,
3161061836,53.580741,10.0809876,Zwei Tauben an Hauswand,,,
3297371973,53.55975,9.9813807,Stadtzeichen,,,
3324212225,53.5134804,10.2363921,Tor,,,
3327476425,53.5499676,10.0056235,,,,
3360316392,53.5487804,9.98048,Zitronenjette,,,
3424111580,53.5718127,10.0672017,Der Ehrensprung (Matthias Claudius),,,
3460178869,53.5504698,9.9783351,Morgenstunde,,,
3507251293,53.5716962,10.0671332,Zeitunglesende am Strand,,,
3529178884,53.5621988,9.982484,Mädchen mit Mappe,,,
3556505568,53.5493369,9.8525202,Springendes Pferd,,,
3603697374,53.5461185,10.0206843,,,,
3613490915,53.5679136,10.0015901,Das metamorphe Ufer des Herrn Lienau,,,
3613490916,53.5678573,10.0013163,Die Kniende,,,
3613546135,53.5661725,9.9848263,Panther,,,
3618208469,53.5472492,10.0233139,Arbeiter mit Schubkarre,,,
3618208470,53.5458292,10.0245805,Gänseschar,,,
3618216064,53.5557691,9.9814401,Brahms-Kubus,,,
3618216065,53.5556286,9.9801263,Hommage an Brahms,,,
3618217154,53.5340432,10.0389187,,,,
3632103457,53.5464423,10.0069277,112 T.W.U,,,
3633479456,53.5460324,9.9430961,Meerjungfrau,,,
3646651423,53.5990122,9.8864452,Bison,,,
3646651424,53.5992159,9.8863674,Weiblicher Akt,,,
3670837500,53.5506862,9.9894505,Hamburgerin,,,
3670882482,53.547878,10.0006125,Ohne Titel,,,
3685517258,53.5475815,9.9942486,Sieben Orte für Hamburg - Bewegung,,,
3686091637,53.5933728,10.0131281,Diana-Brunnen | Aufbruch zur Jagd,,,
3694155510,53.5628659,9.9920956,Reclining Figure: Hand,,,
3735822071,53.5531334,9.9663131,,,,
3748435734,53.5464915,9.9678614,Lob des Wassers,,,
3756439583,53.5625812,9.9887845,Calao,,,
3849761209,53.5741355,9.8418621,Steinbock,,,
3884972276,53.5495437,9.9450083,,,,
3898109121,53.5481937,9.9419383,Okeanide,,,
3898121092,53.5479795,9.9427581,Bismarck-Denkmal,,,
3898180065,53.5495008,9.9450041,,,,
3948733779,53.5506848,9.9994505,o.T.,,,
3962616473,53.4851243,10.1999089,,,,
3985720425,53.5633832,9.9785337,Schwarz-weiß-Komposition,,,
3988564646,53.5583121,9.9702432,Überläufer | Bodenarbeit,,,
3989664225,53.5634828,9.9782978,Ungegenständlich,,,
4024296271,53.5415668,9.99929,Aura,,,
4040149694,53.5565323,9.9776028,"Bremen, Hamburg, Lübeck",,,
4040149695,53.5563651,9.977399,"Technik, Handel, Industrie",,,
4061861716,53.557283,9.980231,Wand-lung,,,
4067106562,53.5714021,9.9567396,,,,
4075689777,53.5481371,9.9324597,,,,
4076340271,53.5651609,9.9862837,,,,
4076351657,53.5670882,9.9839028,Dreiecke Divergent,,,
4099236595,53.5473492,9.9715091,Simon von Utrecht,,,
4105991411,53.5847631,10.0421743,Die Träumende,,,
4112069243,53.56472,10.0153152,Drei Männer im Boot,,,
4235134085,53.5466774,10.0057642,Sprachzylinder,,,
4256314918,53.5494123,9.9853262,Flor Urbana,,,
4288764735,53.4975252,10.0041338,,,,
4296675429,53.5753439,9.9790643,Kleiner Stehender,,,
4382499081,53.563803,10.0136797,Vier Männer auf Bojen,,,
4401884643,53.5430992,9.9836885,Steinerner Orientteppich,,,
4401886629,53.5731595,10.0025791,Drachensteigenlassende Kinder,,,
4401886800,53.5706537,10.0020888,Orpheus und Eurydike,,,
4419494949,53.5372606,10.0332303,Zwischen Barmbek & Haiti,,,
4421095772,53.576545,9.9812765,Großer Speerträger,,,
4421172352,53.5797425,9.974882,Die Postliesl,,,
4421202863,53.5759272,9.9790693,Schreitende,,,
4455243834,53.6413427,10.1510635,,,,
4466716207,53.5525042,9.9940978,Sieben Orte für Hamburg - Raum,,,
4466860914,53.5477746,10.0018086,Sieben Orte für Hamburg - Innen Außen,,,
4466865425,53.5492492,10.003454,Sieben Orte für Hamburg - Körper,,,
4485982287,53.5569674,10.0225802,Pyramide,,,
4486636230,53.5534401,10.0260449,Berlin,,,
4490687889,53.729742,10.2670552,Wappen,,,
4490982299,53.6862017,10.1728111,Schwebende Archive,,,
4490982300,53.6862587,10.1728827,Schwebende Archive,,,
4490982301,53.6862742,10.1728086,Schwebende Archive,,,
4490982302,53.6863468,10.1731968,,,,
4490982303,53.6863636,10.17216,Anrufung,,,
4490982304,53.6863733,10.171488,U-Bahn Station,,,
4511311573,53.4951486,10.183595,,,,
4595536493,53.5463908,10.0055648,Sprachzylinder,,,
4683537402,53.5583033,9.9558434,Manga Hamburg,,,
4705814590,53.5937207,9.8836248,Vegetatives Wachsen,,,
4718776589,53.5617262,9.8120128,Das Schwein von Blankenese,,,
4812161588,53.5434561,9.9359575,Die Elbe,,,
4816447502,53.6236718,9.9131926,Spirale,,,
4943394791,53.6409686,9.815587,,,,
4962763777,53.670689,10.0258124,Großer Schreitender,,,
4995523614,53.5243097,10.0183132,Goldenes Haus,,,
5003857124,53.5571368,9.9755537,,,,
5067559916,53.4892269,10.2016316,Schaffender,,,
5071975178,53.4837446,10.1752946,Fischer,,,
5086585349,53.486121,10.1782508,Grasende Kuh,,,
5107419787,53.605225,10.1591872,Eva,,,
5120367126,53.6019023,10.0030332,Turnier,,,
5122929220,53.544718,9.9322405,Frauen in der Fischverarbeitung und am Fischmarkt,,,
5136264936,53.6409312,9.815562,,,,
5155173555,53.5459102,9.9005447,Die Ameisen,,,
5200371097,53.6482867,10.1638368,Postillon,,,
5273648878,53.5591806,10.107529,Mann und Pferd,,,
5330100018,53.4941105,10.179086,Wachstum,,,
5366586424,53.4825983,10.1523504,Dings,,,
5446726708,53.4980243,10.0087266,Cinema Aquatica,,,
5513918578,53.7075259,9.9942058,Regentrude,,,
5554892695,53.5521816,9.9302618,Ottenser Torbogen,,,
5584618074,53.4756743,9.8783005,Erlkönig,,,
5631123402,53.5597926,9.910604,,,,
5686011745,53.5994371,9.8579622,Zwei Schulmädchen,,,
5695348826,53.5620144,9.8586772,Mensch und Tier,,,
5713450868,53.5393788,10.1063034,,,,
5713762328,53.5474896,9.9898902,Tempel,,,
5715043565,53.5751652,10.0066488,Double Triangular Pavilion for Hamburg,,,
5721119917,53.6340757,9.9513799,Männliche Figur im Doppelstamm,,,
5769087444,53.5610232,9.9054131,Frühling,,,
5790814933,53.5389693,10.1084103,Lebensbaum,,,
5790814934,53.538855,10.1089689,Säulen mit Figurengruppen,,,
5823263711,53.6238207,10.0186675,,,,
5833516168,53.4775283,9.8747407,Zugvögel,,,
5986657829,53.7147417,10.0117702,Friendship Force Norderstedt,,,
6015549819,53.48139,10.1720013,Barke,,,
6032706596,53.5704106,9.9587122,,,,
6111350703,53.7293732,10.2629311,Sprachdusche,,,
6162026519,53.6814158,9.9876975,Der Dorfschmied,,,
6326354741,53.5999833,9.945214,Gänseliesel-Figur,,,
6327460228,53.5286491,10.0238605,Botin des Seewindes,,,
6356678368,53.600849,9.8886502,Zwei Kreisscheiben,,,
6356678592,53.5912137,9.8737612,Reifenspieler,,,
6356678655,53.60051,9.8824811,Sitzender,,,
6356678731,53.6024215,9.8798217,Knieende,,,
6356678732,53.6051208,9.8796473,Ballspielende Kinder,,,
6356678977,53.6056937,9.8700167,Vogelgruppe,,,
6356678979,53.6057273,9.8669705,Große Marina,,,
6356679130,53.6081021,9.8679416,Gazelle,,,
6357096152,53.5945639,9.8886681,Großer Götze,,,
6372427311,53.5616975,9.9127392,,,,
6391690636,53.6649586,10.1937989,Tropfen des Lebens,,,
6433149085,53.5598985,10.0287695,Geometrische Blumen,,,
6446525223,53.52795,10.1512005,Sich leckender Gepard,,,
6446525224,53.5279841,10.1511985,Leuchtturm,,,
6446525225,53.5279511,10.1510735,Offenes Atelier,,,
6446525226,53.5279845,10.15102,Voilá lhomme,,,
6446525227,53.5279829,10.1510776,Befreiung,,,
6446525228,53.5279833,10.1511375,Löwe,,,
6446525229,53.5280217,10.1511381,Pappas,,,
6446525230,53.5280221,10.1510781,Drei Figuren,,,
6446525231,53.5280225,10.1510187,Wut im Bauch,,,
6446525232,53.5280229,10.1509599,Wegmarke für Mümmelmannsberg,,,
6446525233,53.5280582,10.15102,Kugelbaum,,,
6446525234,53.5280563,10.1510787,Reisespuren,,,
6446525235,53.5280555,10.1511368,Huldigung,,,
6446525236,53.5280912,10.1511407,Weibliche Form,,,
6446525237,53.528092,10.1510787,Hand,,,
6446525238,53.5280931,10.1510194,Drei Bögen,,,
6446525239,53.528095,10.1509612,Bewohner,,,
6446525240,53.5281292,10.1510213,Portrait G.H.,,,
6446525241,53.5281304,10.1509606,Vogel,,,
6446525242,53.5280225,10.1508986,Männer im Boot,,,
6446530939,53.6009359,10.0198806,Hamburg-Mannheimer-Brunnen,,,
6454369262,53.5822534,10.0677571,Wiederaufbau und Planung,,,
6488255485,53.5578832,9.9829341,,,,
6494344257,53.5537033,9.9742287,Osaka II,,,
6504736250,53.5627976,9.9023867,Sitzende,,,
6514144386,53.5490194,10.0185245,Miteinander,,,
6535915321,53.5477694,10.0507336,Störtebeker-Säule,,,
6549438380,53.4672582,9.9619761,Fischreiher,,,
6594834703,53.5504819,9.9755616,Jung mitn Tüddelband,,,
6620799787,53.5585101,9.9723079,,,,
6620799788,53.5623737,9.9633564,,,,
6620799789,53.5623311,9.9599156,,,,
6620811385,53.5622655,9.9642255,,,,
6620811585,53.564925,9.9649699,,,,
6621363985,53.5167382,9.9908535,,,,
6665890478,53.559097,9.9202608,,,,
6677268052,53.6647716,10.0739425,Heine Denkmal,,,
6680661287,53.4698342,9.953368,ohne Titel,,,
6750865399,53.5714328,10.0014012,Der Gedanke dort hinten,,,
6750955085,53.5248128,10.0547831,Moislinger Klangschalen,,,
6812488470,53.4900165,10.2018743,Verbundenheit,,,
6872081505,53.5531621,10.0057449,,,,
6872081558,53.5532022,10.0059336,,,,
6872081584,53.5533787,10.0056268,,,,
6903373215,53.701999,10.0093952,Balance,,,
6903438131,53.6828153,10.0063938,Max und Moritz,,,
6903466880,53.6815788,9.9876408,5 Traumhäuser,,,
7020170599,53.5759171,10.0013571,,,,
7052516523,53.6817411,9.9848729,Familie,,,
7084801741,53.5872705,10.067061,Sitzende,,22049,Hamburg
7085654103,53.4596911,9.9573739,Kleine Stehende,,,
7085664164,53.589145,9.9257277,,,,
7085691307,53.5476053,9.9916726,Weiblicher Engel,,,
7085907196,53.5682272,9.9787996,Ohne Titel,,,
7086048806,53.5543255,10.0034266,Ornamente,,,
7086075084,53.5901124,9.9716496,Liegende,,,
7086142273,53.5901607,9.9717652,Lauschender Knabe,,,
7086142274,53.5903412,9.9712476,Danae,,,
7086142276,53.5896692,9.9716694,Phoenix,,,
7086142277,53.5888672,9.9741701,Bärengruppe,,,
7086160167,53.590179,9.9715427,Große Stehende,,,
7087672061,53.5915206,9.9800804,Mädchen mit Hund,,,
7091075047,53.6721844,9.9998733,Mensch und Natur,,,
7149196344,53.7085594,9.9911495,Labyrinth des Lebens,,,
7149235084,53.6820425,9.989803,Atlas,,,
7149257284,53.6877355,10.0383094,Inspiration einer nördlichen Stadt,,,
7149295194,53.7074846,9.9904346,Augen und Ohren,,,
7212802848,53.686549,10.1726076,Wir sind alle Astronauten,,,
7212802849,53.6865899,10.1721663,Bestandsaufnahme,,,
7260728357,53.5512499,9.9123007,,,,
7364716717,53.5574941,9.9787078,,,,
7366310597,53.5386871,10.109738,Großer Stehender,,,
7366785033,53.4600368,9.9513555,Pan,,,
7387682531,53.6325976,9.749988,Märchenbilder,,,
7454591107,53.6041489,10.1521529,Bahnschranke,,,
7526547331,53.715499,10.0140676,Wurzeln,,,
7596914408,53.686468,10.1726921,Break,,,
7596914409,53.6865006,10.1725768,Drei Arten zu liegen,,,
7596914421,53.6867682,10.1735973,Friedhof für literarische Gestalten,,,
7596914433,53.686607,10.1723193,Kopfkartons,,,
7596914457,53.6859225,10.1732853,Mea,,,
7596914458,53.6858683,10.1731534,Apokalyptischer Reiter,,,
7596914460,53.6860082,10.1728342,Kreuzgewölbe,,,
7596914463,53.6859804,10.172397,Dogdome,,,
7596914464,53.6858612,10.1724225,Hommage an Heizer,,,
7596914468,53.6859391,10.1722267,,,,
7596914469,53.6859002,10.1727457,Heimat,,,
7596914478,53.6855682,10.1720618,Kleiner Wächter,,,
7596914480,53.685889,10.1719961,Boot,,,
7596914484,53.6863473,10.1724359,,,,
7596935285,53.6860638,10.1721168,Anrufung,,,
7596935302,53.6864084,10.1725003,o T,,,
7596935309,53.6859955,10.1727001,Torso,,,
7596935310,53.6863755,10.1727518,Ausgegrenzt - Zeugen gesucht Grenzsteine - Friedenssteine,,,
7596935311,53.6865089,10.1732077,Wenn Engel reisen …,,,
7596935312,53.6864891,10.1732963,Engel,,,
7596935313,53.6864025,10.1733419,,,,
7596935314,53.6864104,10.1732191,,,,
7596935315,53.685708,10.1720725,ohne Titel,,,
7596935316,53.6859137,10.173022,Übergang,,,
7596935319,53.6860804,10.1730837,Containing,,,
7596935324,53.6861241,10.1743242,,,,
7596935336,53.686549,10.1722455,,,,
7596935337,53.6867206,10.1729174,Aufrecht,,,
7596935338,53.6866674,10.1725352,Inside Track,,,
7618157589,53.4336401,9.9903766,,,,
7627139975,53.4559657,9.9819223,Blumenmädchen,,,
7743906215,53.5504125,9.9827578,Akzente am Balkon,,,
7837742355,53.554203,9.8665877,Die Tänzerin,,,
7837799102,53.5626518,9.8621048,Magnolienblüte 10:1,,,
7868911306,53.6515237,10.0772817,Lesende,,,
7869341427,53.5472122,9.9014763,Freundschaft,,,
7873131081,53.6492304,10.167353,Nu vertell mi dat doch,,,
7881714599,53.7317567,10.260409,Hilfsorganisationen,,,
7881714652,53.7254638,10.2624066,Der Schaulustige,,,
7881714653,53.725505,10.2624992,Der Betroffene,,,
7881714661,53.7268388,10.2614799,Das Gericht der Tiere,,,
7881760048,53.6736583,10.2360693,Die vier Lebensalter,,,
7973111657,53.5501859,9.990384,Gesellschaftsspiegel,,,
7973111658,53.5509889,9.9919429,Gesellschaftsspiegel,,,
8006629045,53.6098089,10.0579769,Pendelmobile,,,
8042602690,53.6251538,10.1141694,Traverse,,,
8143552061,53.5970856,10.0244939,Die Badende | Nach dem Bade,,,
8156194318,53.7079477,10.0059609,Flügelform,,,
8167755684,53.5555603,9.9587152,,,,
8177467971,53.5779972,10.0885311,Sphinx,,,
8177467972,53.5780378,10.0889213,Sphinx,,,
8177467975,53.5784781,10.0880557,Schöne,,,
8212791309,53.5704091,9.8521501,Mikado,,,
8253047693,53.6674413,10.0233574,Zirkusreiterin,,,
8253109533,53.6736841,9.9979891,Katze,,,
8253109540,53.6560405,10.0155093,Das Blatt,,,
8253109559,53.6749226,10.0266083,Liegendes Paar,,,
8253123332,53.6545201,10.0136143,Steinblume,,,
8253123343,53.6755669,10.0255823,Der Baum,,,
8261937858,53.6761222,10.0201093,Zwiegespräch,,,
8262017832,53.6726942,10.0044458,Stehende Eva,,,
8262017836,53.6723021,10.0046276,Die Hilfe,,,
8262017842,53.6522786,10.0116684,Fisch,,,
8262017865,53.6522667,10.0218956,Ikarus,,,
8262046983,53.6751685,10.0046886,Zwei Eulen,,,
8262046984,53.6745409,10.0051459,Schafhirte,,,
8262046993,53.673495,10.0076933,Rinder,,,
8262061087,53.6506738,10.0139402,Mädchen mit Katze,,,
8262061088,53.6677126,10.0035734,Mädchen mit Hund,,,
8262061098,53.6557734,10.0049454,Mutter und Kind,,,
8262210967,53.6677905,9.9999122,Erbsenschote,,,
8262210972,53.6680348,9.9993429,Farntrieb,,,
8262210973,53.6688766,9.9991693,Apfel,,,
8262210975,53.6697411,9.9989795,Schachtelhalm,,,
8262210979,53.6701606,9.9997023,Windenknospe der Ackerwinde,,,
8262210986,53.6703703,9.9951848,Stehender Mann,,,
8262210987,53.6703823,9.9936211,Männerbüste,,,
8262210988,53.6708006,9.9950588,Sitzendes Kind,,,
8262210989,53.6713829,9.9958152,Liegende Frau,,,
8262249689,53.6737854,9.9956629,Platte Flunder,,,
8262249712,53.6710242,9.9952452,Seeschlange,,,
8262260123,53.671087,9.9953176,Seeschlange,,,
8262260124,53.6670404,10.0003119,Blatt,,,
8262265212,53.670192,9.9998378,Thronhaus,,,
8262292936,53.6725087,9.998948,Zwei Schnecken,,,
8262334574,53.6704673,10.0320733,Sokrates,,,
8262379398,53.5766324,10.1357326,Raumskulptur,,,
8262440442,53.5716904,10.1345135,Figurengruppe,,,
8262541354,53.6050038,10.1536551,Feuermacher,,,
8262560947,53.6165198,10.1413934,Fische im Schwarm,,,
8262560948,53.6121804,10.1365631,,,,
8262560958,53.6019074,10.1378971,Adam und Eva,,,
8262637929,53.5887731,10.1620042,Mann auf Hirtenflöte blasend,,,
8262637930,53.5855768,10.1586333,Twens,,,
8262637937,53.5821785,10.1535847,Reiterkampf,,,
8262637940,53.5818875,10.1525715,Geste,,,
8262637962,53.5811622,10.14368,Mutter mit Kind,,,
8262637970,53.5853921,10.1448373,Segelmotiv,,,
8262637981,53.5901471,10.1443197,Großer Angelo,,,
8262678934,53.6070782,10.1889691,Merkur-Säule,,,
8262678935,53.5891353,10.1617996,Zwei Tafeln mit herausgearbeiteten Elementen,,,
8262770972,53.6264233,10.1662836,Trompeter,,,
8262772905,53.6275873,10.1712853,,,,
8262772906,53.6316249,10.1754709,Lebensbaum,,,
8262772912,53.6294491,10.1715884,Kinderturm,,,
8262772913,53.6316098,10.1534794,Tänzerinnen,,,
8262772914,53.6278899,10.1517507,Kreisobjekt,,,
8262802522,53.6267928,10.1529148,Objekt,,,
8262802523,53.6034063,10.1548366,Flüsterer,,,
8262802524,53.6000779,10.1516072,Liegende Stute mit Fohlen,,,
8262802525,53.6053921,10.175613,Atmende Stele,,,
8262802526,53.5941819,10.1766812,Fisch,,,
8262802527,53.5901033,10.1813932,Vegetativ,,,
8262821720,53.6340532,9.9512046,Große Liegende,,,
8262985508,53.6048169,10.0182216,Shell,,,
8262985509,53.6045724,10.0185457,Athena,,,
8268402217,53.5577462,9.9971801,Jüngling mit Möwe,,,
8274786032,53.7223191,10.0076705,Maibaum,,,
8274786042,53.7060438,10.0085701,Mahnmal für die Opfer des Zweiten Weltkrieges,,,
8274786043,53.7052178,10.0082613,Vertriebenen-Ehrenmal,,,
8274786044,53.6862875,9.9918409,Windbewegtes Objekt,,,
8274786045,53.6871796,9.9873461,Das System des Coppernicus,,,
8274786047,53.6812034,9.9971309,Manifest,,,
8274786048,53.6839582,10.0305659,Scultura urbanistica,,,
8274786056,53.7087944,10.0060451,Geometrisches Relief,,,
8274786057,53.686198,9.9872804,Ohne Titel,,,
8274786058,53.7093691,10.0075592,Muschel,,,
8280758002,53.5755065,9.9890023,Ätherwelle,,,
8280843742,53.5454228,9.9328986,Auswandererdenkmal,,,
8281202615,53.6258487,10.1695968,Akrobatin auf Pferd,,,
8281244517,53.4779547,9.8755771,Münchhausenbrunnen,,,
8281277471,53.5876021,9.964444,Frau mit Haarschopf,,,
8281277478,53.5875233,9.9644628,Pantomime,,,
8281280065,53.5468969,9.953107,Hexenfahrt,,,
8281297323,53.5528266,10.0517821,Flötenspieler,,,
8281374289,53.5567873,9.9581482,Nixen,,,
8282020608,53.5841375,10.0679773,Tanzende Mädchen,,,
8282041208,53.611275,10.0779759,Tanzende Steine,,,
8282091954,53.5091321,10.2087589,Tanzendes Paar,,,
8282092878,53.6698936,10.1427674,Abendlied,,,
8282101441,53.5257922,10.1557901,Farbige Plastiken,,,
8282101442,53.5238565,10.1449862,Stahl-Plastik,,,
8282109885,53.5851875,10.1357688,Fohlen,,,
8282135720,53.5714925,10.0357305,Knabe mit Hund,,,
8282135721,53.5679856,10.0265761,Falkner zu Pferd,,,
8282141210,53.5027866,10.1888712,Lesender Knabe,,,
8282147614,53.6415174,9.9409237,Reiter mit zwei Pferden,,,
8282151313,53.4941909,10.1878171,Drei Kraniche,,,
8283716782,53.5458395,9.9528603,Fischhändler und Marktfrau,,,
8284315182,53.5970249,10.0232099,Mähnenrobbe,,,
8284315183,53.5987416,10.0214195,Schale,,,
8284419460,53.5947144,10.027885,Tanzende Mädchen,,,
8284419680,53.5957618,10.0258774,Knabe mit Fischen,,,
8284419684,53.5958995,10.0153068,Große Kriechende (nördliche Figur),,,
8284419685,53.5956416,10.0151043,Große Kriechende (südliche Figur),,,
8284419690,53.5920245,10.0246519,Kinder mit Fohlen (linke Figur),,,
8284419691,53.5920708,10.0244646,Kinder mit Fohlen (rechte Figur),,,
8284419692,53.5923178,10.0264876,Zentauren | Nereide,,,
8284419693,53.5933987,10.0272587,Zentauren | Triton,,,
8284419695,53.5939853,10.0297424,Diana | Diana auf der Hirschkuh,,,
8284419696,53.5949301,10.0295037,Adam und Eva (Eva),,,
8284419697,53.5949882,10.0292476,Adam und Eva (Adam),,,
8284419698,53.5973767,10.0216522,Wasserspeier,,,
8284590512,53.5952125,10.0260749,Affe | Hockender Affe,,,
8284590513,53.5939582,10.0171977,Aufspringender Hund,,,
8284746830,53.5935661,10.0152613,Weiblicher Akt,,,
8291751014,53.5509216,10.0732532,Haarflechtende,,,
8291807690,53.5627777,10.1088495,Zwei Reiher,,,
8291815070,53.5526059,10.1029211,Großer Sitzender,,,
8293735126,53.5442179,10.1145954,Wisent,,,
8304658969,53.6187158,10.125917,Vegetative Komposition,,,
8304686902,53.5500088,10.0080976,Mann und Frau,,,
8306530536,53.5552422,10.036224,Drei Vogelsäulen für Borgfelde,,,
8306530537,53.5551585,10.0357345,Drei Vogelsäulen für Borgfelde,,,
8306530538,53.555192,10.0356325,Drei Vogelsäulen für Borgfelde,,,
8307581002,53.619094,10.0106786,Rose,,,
8309516528,53.591197,10.0412075,Bärengruppe,,,
8309518675,53.5739628,10.0406785,Eingemauerter Mann,,,
8309577834,53.5469304,10.0552033,Bärengruppe,,,
8309601619,53.5727745,10.0720862,Fliegende Schwäne,,,
8312219401,53.6467342,9.9131039,Widder,,,
8312219411,53.6246127,9.9148138,Frosch,,,
8312384799,53.639792,9.9123482,Sitzender Jüngling,,,
8312406473,53.6469361,9.9098463,Drache,,,
8312675961,53.591431,10.0859347,Idol,,,
8318625380,53.6043737,10.1549403,Adam und Eva,,,
8318759251,53.6756019,10.145634,Springende Delphine,,,
8318768014,53.6382038,10.031746,Flötenspieler,,,
8318778396,53.6495379,10.0604001,Galionsfigur,,,
8319169554,53.6735014,10.0907734,,,,
8319951876,53.652897,10.109282,Erdkugel,,,
8330062608,53.5914376,9.9296206,Bhagwan-Stein,,,
8398221066,53.5622492,9.9785525,Sommerruhe,,,
8421463841,53.6113681,10.0806481,Europa auf dem Stier,,,
8421534785,53.5320297,9.8611508,Der gute Fang,,,
8423338464,53.5898605,10.068505,Vögel,,,
8423341627,53.653047,10.00866,Sankt Ansgar mit Gemeinde,,,
8441744268,53.571683,9.8622022,Sitzende Frau,,,
8441744269,53.5716402,9.8621656,Schreitende Frau,,,
8441748103,53.6111071,9.8860712,Flügelobjekt,,,
8443551979,53.5748798,9.9796495,Schwäne,,,
8443577117,53.5741141,9.9806131,Eselreiter,,,
8446928898,53.4943361,10.2108841,Säule,,,
8446928899,53.4941797,10.2113615,Rinder-Gruppe,,,
8446961271,53.4945962,10.2115761,Doppeltor,,,
8446970676,53.4949225,10.2092627,Gießkanne,,,
8450896786,53.6019604,10.180213,Blüte,,,
8451244947,53.5751075,10.1415443,Stele,,,
8451244958,53.5692431,10.1349454,Wegweiser,,,
8459128411,53.5542063,9.9491682,Mädchen mit Walkman,,,
8459145618,53.5641651,9.9462734,Bärengruppe,,,
8459145619,53.5640357,9.945823,Bärengruppe,,,
8459145620,53.563157,9.9478536,Ceres,,,
8459145621,53.5630424,9.947937,Diana,,,
8459145622,53.5629304,9.9480101,Athena,,,
8459145627,53.5650347,9.9470967,Zwei Jünglinge,,,
8459145628,53.564721,9.9472634,Frauenakt,,,
8462279948,53.5464681,9.9365196,Relief Palmaille,,,
8462279978,53.5474428,9.9484353,Schneeleopard,,,
8484101817,53.4921304,10.2277384,Tanzendes Vierländer Paar,,,
8487368562,53.5753448,10.1276658,Läufergruppe,,,
8487407701,53.5687111,10.1374251,Merkzeichen,,,
8490286476,53.5576091,10.1066186,Blumenpflückerin,,,
8490289432,53.5625288,10.1039739,Tiger,,,
8492733598,53.5860211,10.1431321,Mädchen im Wind,,,
8492733599,53.5843437,10.1423281,Schaukelnde Mädchen,,,
8492987656,53.5871268,10.1445785,Summstein,,,
8492987657,53.5893606,10.142473,,,,
8493062698,53.6085638,10.139886,Matthias Claudius,,,
8493062699,53.6011976,10.1278536,Sommerjunge,,,
8493062700,53.6014721,10.1468175,Laufende Giraffe,,,
8493063689,53.6396887,10.1566645,Fischotter mit zwei Jungtieren,,,
8493063690,53.6399399,10.1569636,Flötenspieler,,,
8493063691,53.6401562,10.1572278,Mädchen mit Gans,,,
8493063692,53.6260992,10.1668757,Lautenspielerin,,,
8493063693,53.6243876,10.1591174,Tanzpaar,,,
8493978843,53.6504409,10.0763854,Großer Hirte,,,
8494272217,53.643555,10.0344698,Steinstele,,,
8494311818,53.6310822,10.1785708,"Windwort ""alles""",,,
8494311835,53.6314842,10.178837,"Windwort ""locker""",,,
8494311863,53.6300941,10.1764458,"Windwort ""u.s.w.""",,,
8494434477,53.6526367,10.1714207,Sitzende,,,
8494447690,53.4988343,10.0104509,Zwei Fußballspieler,,,
8495052192,53.4960601,10.0109428,Torwart,,,
8495265102,53.6074172,10.043297,Zwei Fischotter,,,
8495282807,53.5924276,9.9351,Stele,,,
8495282808,53.597469,9.9223769,Schützende Mutter,,,
8495282809,53.5858642,9.9291898,Schräger Torso,,,
8497880008,53.5913101,10.0551788,,,,
8497887858,53.5182394,9.9245287,Schwertfisch,,,
8498026506,53.5517822,9.958091,Periskopisch,,,
8498091528,53.527016,9.9976096,Möwenschwarm,,,
8498091529,53.5271344,9.9975304,Schwertfischträger,,,
8498329864,53.6492962,10.1637697,Eliza,,,
8499910754,53.5619882,10.1059963,Verkehrszeichen,,,
8500244988,53.54501,10.0946733,Hirschkuh mit Kalb,,,
8500278229,53.5736574,10.1266453,Bockspringen,,,
8501258560,53.4898496,10.1837048,Geschichte Bergedorfs,,,
8503446404,53.5780868,9.8319174,Reiher im Schilf,,,
8503496018,53.5458396,9.954947,,,,
8504552337,53.608133,10.0482957,,,,
8508224932,53.572484,10.0353877,Christophorus,,,
8554605725,53.5792986,10.0899428,Welle,,,
8554605726,53.5792297,10.0858374,Wegweiser,,,
8622806051,53.6864089,10.1724082,Festivalsommer Schleswig-Holstein,,,
8622806052,53.6863966,10.1720068,Jetzt,,,
8648976146,53.4675561,9.8602426,Das Gepräch,,,
8657211907,53.6052758,10.1947119,Victoriasäule,,,
8720131417,53.6109908,10.1753696,Lebensbaum,,,
8725159297,53.5703831,10.0009118,Meteoritenwerkstatt,,,
8734342340,53.6290754,10.1116618,Erlebnisstation Wald,,,
8734342374,53.630416,10.1096521,Bär,,,
8734342375,53.6304276,10.1100537,,,,
8734342376,53.6304045,10.1101,,,,
8734342377,53.6304224,10.1100348,,,,
8734342378,53.6304037,10.1100287,,,,
8737040307,53.6289987,10.11184,,,,
8737040308,53.6289773,10.1117442,,,,
8737040309,53.6289777,10.1117934,,,,
8737040311,53.6304378,10.1100956,,,,
8737040312,53.6304546,10.1100127,,,,
8737040313,53.6304275,10.1100906,,,,
8745148962,53.5933202,10.0300798,Frauenschicksal,,,
8766289052,53.6304264,10.1100746,,,,
8783669956,53.6268081,10.0387237,"Werden, Sein, Vergehen",,,
8806294171,53.5927067,10.0290973,Eisbär,,,
8814724157,53.5632379,9.979112,Das Bienenhotel,,,
8828187108,53.4644103,9.9877901,Der sich leckende Gepard,,,
8833572651,53.5931227,9.943831,Kronenkranich,,,
8839132440,53.5945323,10.1530413,Himmelwärts,,,
8839132441,53.5945178,10.1530042,Der Schwan,,,
8839132442,53.5942259,10.1536729,Cristophorus,,,
8839132443,53.5943489,10.1541933,Anker,,,
8839132444,53.592597,10.1544025,Dreimaster,,,
8839132445,53.5944098,10.1546391,Lebensweg,,,
8839132446,53.5948676,10.1531549,Schmetterling,,,
8881203168,53.4790631,9.8451138,Wachtelkönig im Nest,,,
8891027840,53.5821492,10.1303639,Kurt Freiherr von Schleinitz,,,
8891027841,53.5834506,10.1324854,Emil von Zelewski,,,
8891027843,53.5833162,10.1316559,Militärsornamente,,,
8891027844,53.5826325,10.1320785,Herrmann Wissmann,,,
8891027845,53.5819854,10.1317755,Lothar von Trotha,,,
8891027846,53.5824008,10.1304807,,,,
8891027847,53.5830405,10.1307341,Friedrich Freiherr von Schele,,,
8891027848,53.5833096,10.1335557,,,,
8891027849,53.5836731,10.1350592,,,,
8891027850,53.583694,10.1361377,,,,
8891027851,53.583513,10.1360523,,,,
8891027852,53.5830508,10.1358511,,,,
8891027853,53.5828075,10.1357518,,,,
8891027854,53.5829867,10.1325413,Reichsadlerornament,,,
8899082771,53.4795832,9.8454374,Frosch,,,
8902407848,53.5828395,10.132174,Lettow Vorbeck,,,
8902407849,53.58387,10.1340642,Kolonialdenkmal,,,
8904356602,53.4890343,10.2093876,Bojenmann,,,
8916797453,53.5768969,10.0007967,Dem ollen urbanen,,,
8974165350,53.599674,9.9062907,,,,
9025311043,53.7215607,9.9056568,,,,
9026502434,53.4607621,9.9566568,Pferd,,,
9063103773,53.5718278,9.9925747,Keim,,,
9067282404,53.4867696,10.165531,Erste Begegnung,,,
9067282405,53.4867007,10.1655115,Stärke zeigen,,,
9067282406,53.4866144,10.1654821,Twins,,,
9067282407,53.4865289,10.165452,Darin und Darum,,,
9067282408,53.4869611,10.1656145,Kommunikation,,,
9164595713,53.597975,9.8921351,Goethe als Schüler,,,
9206249866,53.5442325,9.9897018,St.Angsar,,,
9206249867,53.5442428,9.9898716,Barbarossa,,,
9206249868,53.5446254,9.989586,Hammonia,,,
9206249869,53.544641,9.989757,Europa,,,
9207307701,53.5469386,9.9881942,,,,
9207367022,53.5474508,9.9904818,,,,
9207367023,53.5475415,9.9904749,,,,
9207367025,53.547535,9.9917314,,,,
9207816454,53.5575844,9.9626759,,,,
9207816455,53.5576595,9.962402,,,,
9207816456,53.5576012,9.962472,,,,
9207816459,53.5576712,9.962359,,,,
9207816463,53.5576903,9.9622428,,,,
9207816473,53.5575273,9.9619173,,,,
9207816475,53.5574912,9.9619624,,,,
9207816476,53.5575118,9.9621275,,,,
9207816477,53.557637,9.9621558,,,,
9207816478,53.5533361,9.9578245,,,,
9207816479,53.553222,9.958291,,,,
9207816485,53.5533517,9.9564806,,,,
9207816486,53.5533944,9.956437,,,,
9207816490,53.5529545,9.956834,,,,
9207816491,53.5528836,9.9564846,,,,
9207816492,53.5530368,9.9562953,,,,
9207816497,53.5530856,9.9560256,,,,
9207816498,53.5531262,9.9559308,,,,
9207816499,53.5530891,9.955992,,,,
9207976617,53.5488364,9.9598436,,,,
9208240507,53.548345,9.9592521,,,,
9208240508,53.5474904,9.962675,,,,
9208240513,53.5467575,9.9610284,,,,
9208240514,53.5465974,9.9580293,,,,
9208240515,53.5465742,9.9579153,,,,
9208240516,53.5463989,9.9579906,Palme,,,
9208273518,53.5464366,9.9574946,Palme,,,
9208273519,53.5462687,9.9571063,Palme,,,
9208273520,53.5461583,9.9569953,Palme,,,
9208273521,53.5461426,9.9569425,Palme,,,
9208273522,53.5465117,9.95825,,,,
9208273524,53.5473924,9.9575532,,,,
9208273532,53.5480319,9.9506991,Pelikanbrunnen,,,
9208576701,53.5495127,9.9566123,,,,
9208576702,53.5508393,9.9602756,,,,
9208576703,53.5512835,9.9608221,,,,
9208576704,53.5516632,9.9626488,,,,
9208576705,53.5518868,9.9627237,,,,
9208576706,53.5519922,9.9627587,,,,
9208576708,53.5521307,9.9635276,,,,
9208576709,53.5522026,9.9637395,,,,
9208576710,53.5522057,9.9637169,,,,
9208576711,53.5519012,9.9654107,,,,
9208576712,53.5523423,9.9662749,,,,
9208576713,53.552175,9.9664514,,,,
9208576714,53.553816,9.9683676,,,,
9208576715,53.5535046,9.9671328,,,,
9208586522,53.553531,9.9661517,,,,
9208586523,53.5536794,9.9677152,,,,
9208586524,53.5538872,9.9680354,,,,
9208586525,53.5538658,9.967904,,,,
9208586526,53.5549416,9.9693787,,,,
9208586527,53.554914,9.9694675,,,,
9208586528,53.5548619,9.9696288,,,,
9208586536,53.5562832,9.9785453,,,,
9208586540,53.5557912,9.9785543,,,,
9209629190,53.5552431,9.9781284,,,,
9209742875,53.5512538,9.9822588,,,,
9209924184,53.5535608,9.9927188,,,,
9209924188,53.5504349,9.9974846,,,,
9223933982,53.478284,9.8665143,Zwei Ringe,,,
9313264537,53.5322765,10.1542197,Edelstahlplastik,,,
9321675744,53.5457622,10.0945734,Mutter mit tanzendem Kind,,,
9321720107,53.6486997,10.1108618,Stele Maritim,,,
9321724146,53.6529545,10.0882104,Friedensbaum,,,
9321724147,53.6545131,10.0922764,Figuren für Mimir-Brunnen,,,
9321731987,53.6669371,10.0779612,Stele,,,
9322030397,53.6874755,9.9875902,ohne Titel,,,
9322030398,53.7153506,9.9954142,Ohne Titel,,,
9322052167,53.7148783,9.9952626,Ohne Titel,,,
9322052168,53.7077672,10.0061283,Wabenstein,,,
9322052169,53.6789605,9.9716518,Emmausweg,,,
9322052170,53.7006724,9.9862289,Emmausweg,,,
9322058595,53.7063114,9.9793732,Reitender Knabe,,,
9322078860,53.708153,9.9913278,Fischotter,,,
9322078865,53.6889387,10.0260477,Windspielobjekt,,,
9322118097,53.7069984,9.9929345,Reptilienbrunnen,,,
9322136430,53.6851869,9.9889997,Wegmarken,,,
9323584713,53.6390737,10.023863,Spielende Kinder,,,
9325714601,53.545518,10.1187301,Sitzende,,,
9325731922,53.5594457,10.1099244,Luchs,,,
9325731930,53.5538567,10.1078202,Kraniche,,,
9325748630,53.564442,10.12252,Möwenflug,,,
9325752161,53.5410621,10.0977901,Zirkusreiterin,,,
9327559615,53.5328567,10.1531428,Knabe mit Hut,,,
9327559616,53.5323203,10.1509555,Windmühle,,,
9327647300,53.5938365,10.0571787,Radschlagende Kinder,,,
9327647841,53.5324622,10.15001,Spiegelbrunnen,,,
9327647842,53.5320198,10.1499926,Schwebende Pyramide,,,
9327766666,53.5462555,10.1376115,Faun und Mädchen,,,
9327792844,53.5807214,10.1042797,Spinnaker,,,
9327793929,53.5828445,10.0628355,Ballspielende Jünglinge,,,
9327793930,53.5830595,10.0640023,Tanzende Mädchen,,,
9327893781,53.6351218,10.0565692,Ohne Titel,,,
9327893782,53.6347266,10.0539929,Storch mit Kindern,,,
9327893799,53.6435825,10.0727899,Balance,,,
9327980756,53.6350562,9.949244,Wildschaf,,,
9327980757,53.6381851,9.9438581,Wolf,,,
9327980771,53.6390844,9.9391327,Luchs,,,
9327987556,53.6228346,9.9374489,Sitzende,,,
9328034177,53.6198326,9.9505006,Sitzende,,,
9328034178,53.6203763,9.9499809,Mosesbrunnen,,,
9328034179,53.6216486,9.9537377,Gefüge,,,
9328034180,53.624526,9.955926,Der Hüter,,,
9329791703,53.6199029,9.8992752,Katze,,,
9329791704,53.6196922,9.8998739,Raumschleife,,,
9329791712,53.6185086,9.9008194,Eidelstedter Löwe,,,
9329832403,53.6152362,9.9089726,Raumgestaltung,,,
9329832415,53.6169665,9.908231,Drei Tanzende,,,
9330011789,53.5271686,10.1500195,Mümmelmann,,,
9330011790,53.5276386,10.1497191,Mümmelmann,,,
9330588384,53.6756503,10.1361041,Bobble III,,,
9332925525,53.5353269,9.8768793,Die Bürger,,,
9332925526,53.5353982,9.8767948,Die Bürger,,,
9332948557,53.5075971,9.9259785,Rut und Rin,,,
9368598306,53.6502279,10.1826847,Fest der Vögel,,,
9373310606,53.5292354,10.3143194,Träumerin,,,
9420250422,53.5709787,10.0883527,Männlicher Torso,,,
9442673854,53.6013152,10.020152,,,,
9445877291,53.4862236,10.2216385,Walross,,,
9458607032,53.607192,10.0170676,Kommunikation,,,
9458607033,53.6060728,10.0173543,OPD II,,,
9458737097,53.6041392,10.0170882,OPD I,,,
9503019501,53.4896626,10.2140551,Albis,,,
9516520418,53.6045179,10.0267662,Global,,,
9522837588,53.5547373,9.9608547,Fische (Tauchender Fisch),,,
9648180691,53.6013649,10.0167459,Transformation eines Würfels,,,
9682740564,53.5918585,10.0216179,Eisbär,,,
9682740568,53.5942115,10.0151775,Knabe mit zwei Enten,,,
9682740570,53.5927038,10.015744,Weibliche Figur aus Eichenholz,,,
9682740574,53.5960119,10.0310238,Panther | Liegender Panther,,,
9682740575,53.5954135,10.0280626,Taubenpaar,,,
9682740591,53.5935983,10.0281516,ohne Titel | Wirbel,,,
9689827017,53.5580752,9.9691219,,,,
9720632599,53.5427638,10.0346181,Leuchtturm,,,
9741444382,53.4828904,10.1983697,Flötenspieler,,,
9764491218,53.5965343,10.0216204,Knabenrelief,,,
9788972683,53.5558609,9.959306,,,,
9820172246,53.6620414,9.9012696,,,,
9836661164,53.5499328,9.986227,Stigma,,,
9851356339,53.5396538,10.1035892,Und ewig schleppt die Frau,,,
9882138088,53.5240308,10.0525423,Merkur,,,
9897636366,53.5896474,10.1094266,,,,
9897636367,53.5895312,10.1093944,,,,
9897636368,53.5894006,10.1093488,,,,
9897636369,53.5897254,10.1089223,,,,
9897636370,53.5898846,10.1088714,,,,
9906213446,53.582142,9.9467458,,,,
9907483980,53.5481283,9.9923031,Adolf III. Statue,,,
9929933195,53.6204591,10.1298744,Verbindungsobjekte,,,
9977015899,53.4972981,10.0090249,Galionsfigur mit Schiff,,,
9997688449,53.5608866,10.1075388,Mosaiksäule,,,
10032370846,53.7182656,10.0353456,,,,
10034958236,53.7193115,10.0385468,,,,
10060855630,53.5563773,9.9595103,Fünf Objekte der Verbindung,,,
10069230978,53.5613937,9.9132564,,,,
10069230979,53.5613963,9.9132212,,,,
10072580947,53.5382825,10.1160559,Allegorische Figur,,,
10128805088,53.5560962,10.0459228,Trümmer-Bank,,,
10141506873,53.5628065,9.9879225,Der Perfekte Handschlag,,,
10158966291,53.558964,9.9276616,,,,
10228406512,53.5628046,9.9004027,(Tanz und) Musik,,,
10304791276,53.5478217,9.9588826,Knabe auf dem Pferd,,,
10317069927,53.5417349,10.216163,Motor,,,
10612350969,53.7060605,9.9782816,Sonnenuhr,,,
10612350971,53.6825599,10.0013573,,,,
10629937759,53.5413726,10.0470729,Denkmal für die sowjetischen Häftlinge,,,
10685832910,53.5204481,10.0073736,,,,
10706757357,53.5739318,9.9964716,Junge ruhende Sappho,,,
10729446892,53.5670329,9.9180563,,,,
10729869155,53.5104817,10.2346878,Guillotine,,,
10729874328,53.5180413,10.2507672,Otter,,,
10729874329,53.5106029,10.2504795,Otterbrunnen,,,
10733072307,53.5646217,9.9844178,Gedankenflug,,,
10733561818,53.5713185,10.0004383,Große Stehende,,,
10734869772,53.5701716,9.9998537,Dreiklang,,,
10745279033,53.5763991,9.9891951,Großer Kniender,,,
10746257079,53.5761113,9.975429,Möwengruppe,,,
10748939745,53.5666939,9.986742,Brunnenschalen,,,
10748939746,53.5670139,9.9867201,Brunnenschalen,,,
10772853680,53.5646674,9.9863151,Theorie in Hamburg,,,
10775119140,53.5699657,9.9904239,Auditorium minimum,,,
10775262257,53.583027,10.0566457,Mutter mit drei Kindern,,,
10780426476,53.5091999,10.1856668,Lebensbaum,,,
10780492039,53.5026908,10.1971256,Mutter und Kind,,,
10780522737,53.5083529,10.2044329,Ringformation,,,
10780541052,53.5110847,10.2042905,Bauarbeiter,,,
10780560710,53.5108848,10.1978565,Fohlen,,,
10780567090,53.5107137,10.2017548,Stelzenläufer,,,
10780570946,53.5047357,10.203891,Fuchs und Gans,,,
10780577850,53.5073745,10.1989084,Lebensbaum,,,
10780581506,53.5023816,10.2041171,Mensch und Tier,,,
10780584136,53.495928,10.2056588,Lattenprojekt,,,
10780584137,53.4956108,10.2057161,Prelude auf Zeit,,,
10780586114,53.4953917,10.2072012,Marktschreier,,,
10783708353,53.5670824,9.9755132,Entlüftungsschornstein,,,
10790718289,53.5600244,10.0365536,,,,
10792145151,53.5648019,9.9855078,2-teilige Verspannung im Raum,,,
10814387885,53.6034433,9.944985,Senator,,,
10827595574,53.6732847,10.13253,Crash,,,
10853096818,53.5786404,10.0039509,Achilleus,,,
10860655268,53.5945879,9.9486722,Antilope,,,
10908173364,53.6005738,9.9253407,Junges Mädchen,,,
10908691088,53.582364,9.9437815,Fischotter,,,
10908799394,53.596719,9.9184764,Fächerplastik,,,
10911538481,53.5905577,9.9369501,Sibirischer Tiger,,,
10918258262,53.5798226,9.9293104,Sitzelemente mit Tieren,,,
10918262979,53.5985623,9.9199846,Januskopf,,,
10918329128,53.5793373,9.9327987,Mutter und Kind,,,
10943626685,53.566798,10.104295,Sitzender Knabe,,,
10973844443,53.6129105,9.8795745,Bärengruppe,,,
10997393819,53.5944779,9.9871457,Mahnmal „Verhörzelle“,,,
11005901112,53.5560408,10.0278465,Schlangenbrunnen,,,
11006285984,53.5588942,9.9820946,ohne Titel,,,
11021696578,53.6235403,9.9472332,Eulenturm,,,
11021699776,53.6236712,9.9466558,Farbenspiel,,,
11021711201,53.6230311,9.9465085,Kind mit Kette,,,
11032267166,53.5556835,10.0215336,Dreiergruppe,,,
11035762299,53.5515323,10.0155183,Bauarbeiter,,,
11035794739,53.5515992,10.0162833,Hamburger Figur,,,
11037153045,53.5659043,9.9607144,Otto Sponholz,,,
11039703104,53.6204152,9.9528393,Vögel im Nest,,,
11049548414,53.6282718,9.9637174,Signale,,,
11061327452,53.6181458,9.9499463,Knabe mit Gans,,,
11070757540,53.5683695,9.9080981,Flötenspieler,,,
11072745217,53.5837247,9.9127294,Symbol,,,
11074523508,53.572531,9.907109,Musizierender,,,
11076695777,53.5673287,9.89391,Füchsin mit Jungen,,,
11081539155,53.5477663,9.9780538,Fünf Boßelkugeln,,,
11121077290,53.5037668,9.9766116,Anna of Green,,,
11158924339,53.5929587,9.9991311,Mufflonschaf,,,
11160508085,53.6014825,10.0137533,Große Arethusa,,,
11162518332,53.5838823,9.9738348,Bärengruppe,,,
11162855176,53.5623245,9.9126492,,,,
11162855178,53.5621707,9.9126197,,,,
11169134133,53.59125,10.0145173,Tanzende,,,
11189061493,53.6020188,10.0202125,Das Gespräch,,,
11195958903,53.6018004,10.011812,Mädchengruppe,,,
11195980586,53.5913359,10.0139853,Tastende Sitzende,,,
11198083753,53.550262,10.0958187,Liegende,,,
11198120934,53.536372,10.1184745,Allegorische Figur,,,
11222709668,53.562802,9.9951597,Zwei Kraniche,,,
11222709669,53.5627875,9.9949882,o.T. (Stele zum Thema Justiz),,,
11224731921,53.560127,9.8625476,Zeitstein,,,
11225461414,53.5821684,10.1114822,Reliefsäule,,,
11225461415,53.5817608,10.1115304,Reliefsäule,,,
11231039941,53.5483266,9.8590087,,,,
11250567199,53.5813321,10.0576103,"Reliefs ""Schäfer"" und ""Vogelzug""",,,
11250584685,53.5874563,10.0673583,Murmelstein,,,
11255243343,53.5809768,10.0577073,Bodengestaltung,,,
11261953759,53.5891167,10.0725605,Drachensegler,,,
11284522192,53.606728,10.0587946,Pferde,,,
11284526966,53.612501,10.0475806,Sitzende,,,
11284534985,53.6123833,10.0606857,Skulptur,,,
11297443387,53.5283669,10.1481671,Drei Skulpturen,,,
11298428507,53.6579218,10.0706468,Zwei Marder,,,
11300061448,53.6098782,10.0352932,,,,
11300781567,53.5874589,10.070362,Drei Skulpturen,,,
11337718959,53.5421146,10.0026708,Dear Uwe,,,
11351392247,53.5882694,9.8605551,"Infosäule, Baumstamm, Steine",,,
11355779319,53.5456462,9.9748285,View from studie window,,,
11359734336,53.5959965,9.8694215,Eulenspiegel,,,
11360305789,53.5960301,9.8898114,Liegender,,,
11415031242,53.6072189,10.119713,Große Liegende,,,
11416829490,53.6077861,10.1204886,ohne Titel,,,
11427574816,53.5131833,9.990168,Liegender Bär,,,
11427581932,53.5019108,9.9958472,Storchen-Gruppe,,,
11427587175,53.5036782,9.9864121,Stele (Umarmung Mutter-Kind),,,
11427592086,53.5109656,9.9906808,Lautenspieler,,,
11427599285,53.5113945,9.9915124,"Hirte / Erde, Wasser, Luft",,,
11435284997,53.4949319,10.0097647,Hockende,,,
11435387339,53.4855487,10.0226177,Röhrenensemble,,,
11443991576,53.6162281,10.235165,,,,
11453287249,53.4998413,10.0134243,Kugelbaum Kirchdorf,,,
11456177576,53.6128454,10.1079732,Vögel,,,
11468833547,53.5581018,9.995431,ohne Titel (Sieben Würfel),,,
11470436881,53.5568385,10.0426428,Sitzender Mann,,,
11472648560,53.5538447,10.0288028,Stahlplastik 12/70,,,
11482447995,53.5567002,10.0718263,Rieselbrunnen,,,
11482535464,53.5551235,10.0724401,Bauarbeiter,,,
11486848761,53.5612102,10.0806242,Robbe,,,
11486868772,53.5625278,10.0982675,ohne Titel,,,
11492679377,53.5556919,10.0702109,Sportpyramide,,,
11499552647,53.5424155,10.0951642,Schreitendes Paar,,,
11499624506,53.592053,9.9817672,Tanzende Blumen,,,
11500364288,53.5591437,10.0743287,Liegende Mutter,,,
11500480666,53.5512055,10.0813219,Brunnen-Skulptur,,,
11500985028,53.5291129,9.9738436,hamburgo HD Cotterell,,,
11505544734,53.5516993,10.0953503,Vogelbaum,,,
11523352325,53.5545337,9.9793351,Elefant Anton,,,
11540194859,53.5046878,9.985985,St. Bonifatius hält Ausschau,,,
11540292276,53.5047461,9.9858944,St. Bonifatius mit Schriftrolle,,,
11540296750,53.5045471,9.986022,Boot (Figurengruppe St. Bonifatius),,,
11540318154,53.5044925,9.9856951,St. Bonifatius verzweifelt,,,
11548179140,53.6077136,10.1151018,,,,
11553792776,53.5553829,10.0700212,ohne Titel (drei Glasfenster),,,
11582716821,53.5375315,10.107165,Sitzende,,,
11584371233,53.5608428,9.9896131,,,,
11587877773,53.551158,10.0030116,Direktor (Herrentasche),,,
11605039258,53.5627931,10.1123902,Spielende Kinder,,,
11608795801,53.5344707,10.1314441,Große Sonnenstele,,,
11608817838,53.5365209,10.1268417,Mähnenrobbe,,,
11608826467,53.5320767,10.1199355,Spielende Bären,,,
11608827556,53.534271,10.132491,Gruppe der fünf Sitzenden,,,
11608829436,53.5247732,10.154302,Geburt der Temperamente,,,
11640691170,53.5392931,10.1276351,Plastik mit Kinderzeichnungen,,,
11732334660,53.5981379,9.9945034,Jinas Beet,,,
11738287422,53.5715898,10.1325518,Arche Noah,,,
11738289397,53.5767774,10.1452639,Drehbare Plastik,,,
11738300021,53.5716121,10.1322107,Mutter mit Kind,,,
11738300067,53.5693461,10.138083,Merkzeichen,,,
11738328819,53.577788,10.1339479,Mädchen mit Schirm,,,
11738340136,53.5704395,10.1310452,Stehendes Mädchen,,,
11738384375,53.5767602,10.1360245,Lebensfluss (zwei Reliefs),,,
11738384376,53.5768925,10.1351188,Lebensfluss,,,
11748182065,53.5672528,10.10896,ohne Titel,,,
11764136381,53.6664769,9.9992713,,,,
11764794534,53.5895873,9.9835248,Freie Form,,,
11766090253,53.5885296,9.9835142,Vier Jahreszeiten,,,
11768371094,53.5902064,9.984841,Sich Erhebende,,,
11768806474,53.6062124,10.0815787,Hegholt (Baum),,,
11773869627,53.598911,10.0931234,Rangelnde Jungen,,,
11773900336,53.5997542,10.056005,Tiger,,,
11773919295,53.60473,10.0850044,Liegendes Paar,,,
11773919508,53.5987683,10.092551,Drehbare Plastik,,,
11773932084,53.6147389,10.077024,Reiherkampf,,,
11773955775,53.6133376,10.0833647,Doppelfigur,,,
11775012502,53.6135535,10.0740144,Stehender Jüngling,,,
11775021896,53.5980846,10.0954595,Stehende,,,
11775107949,53.5765295,10.1343081,Panflötenspieler,,,
11776423974,53.5757054,10.1253595,Wo ist eigentlich Hamburg-Fuhlsbüttel?,,,
11799219564,53.6160407,10.0920941,Mosaikfenster,,,
11799502593,53.6303838,10.0861722,Hans im Glück,,,
11799620805,53.6317282,10.0857077,Rummelpott,,,
11800366719,53.6210711,10.0934554,Sitzendes Mädchen,,,
11801412450,53.6237466,10.0910655,Zwei tanzende Mädchen,,,
11806615382,53.6195183,10.1283153,Objekt 84,,,
11806667657,53.6198333,10.1284757,Masken-Stele,,,
11806701331,53.6192596,10.1282253,Picknick,,,
11813295334,53.5738982,10.066097,Gitarrenspielerin,,,
11815077097,53.5738564,9.8570347,Vogel-Relief,,,
11816309543,53.5669278,9.8703216,Mädchen mit Buch,,,
11816971724,53.5702586,10.10922,Angreifender Tiger,,,
11824638926,53.5689643,10.1095849,Helmut-Schmidt-Büste,,,
11829871756,53.4907451,10.2071463,o.T.,,,
11829952671,53.4898234,10.2118455,Löwin,,,
11835177106,53.6341644,10.0136333,Schimpansen,,,
11835191084,53.6283097,10.0175133,Ziegenbock,,,
11836748407,53.6152,10.020404,Pflanzenhaus,,,
11863026912,53.5122579,9.9939024,Knabe mit Flugzeug,,,
11863061149,53.5046888,9.9963987,Rettung einer Familie,,,
11866674209,53.5475744,9.9000914,,,,
11879145122,53.4829522,10.0149256,Fohlengruppe,,,
11879180187,53.4839299,10.0245331,Granitstele,,,
11879184413,53.4837357,10.0265117,Hammonia,,,
11889579667,53.4900959,10.1733034,Windspiel,,,
11889656886,53.489654,10.1793039,Romeo und Julia,,,
11891116631,53.6259283,10.0162742,Flötenspieler und Tänzerin,,,
11893285464,53.587366,10.0830476,Eule,,,
11893289066,53.5749073,10.0692403,Große Lauschende,,,
11893304635,53.5934142,10.0918725,Ziegen mit Mädchen,,,
11893305606,53.5932054,10.0913449,Im Gleichgewicht,,,
11893335099,53.5891396,10.0983965,Kleiner Schnabelkeimling,,,
11895157369,53.5011033,10.1945148,Jungfrau,,,
11895212078,53.5022058,10.1947739,Zwei Füchse,,,
11895221934,53.5020559,10.1951548,Gänse,,,
11896748138,53.5891861,10.0740602,Spielplastik,,,
11919285001,53.5805072,10.0711902,Sitzender Knabe,,,
11919319383,53.580545,10.0712329,Raubkatze,,,
11919411549,53.5748726,10.0556712,Blaue Hose,,,
11921663611,53.6238146,10.0177959,Große Panthea,,,
11930361784,53.4975276,10.0079095,,,,
11930745640,53.5673947,10.0558767,Schimpanse,,,
11933316107,53.571319,10.0476298,Mutter mit Kind,,,
11934356940,53.5725554,10.0549169,Entengruppe,,,
11939007579,53.5973042,10.0373668,Abendstunde,,,
11939372361,53.5894404,10.0861491,Mutter und Kind,,,
11963911264,53.5715877,10.0661467,Löwe,,,
11963911265,53.5715304,10.0661794,Löwe,,,
11974813324,53.5638014,9.9934509,Besinnungslosigkeit,,,
11974819069,53.5618338,9.9939492,Auf der Suche nach dem Echten,,,
11976159454,53.5675255,10.0008703,Iduna,,,
11978042646,53.5692148,9.9926121,Quint,,,
11979111013,53.563679,9.9921931,Hier sollten Rosen blühen,,,
11981000405,53.5596662,9.9958016,"Relief (Herstellung, Lagerung und Transport von Mineralöl)",,,
11982743121,53.5703805,10.1061993,Stele mit Reichsadler,,,
11983831682,53.5676448,9.992471,Zwei Liebende,,,
11985297959,53.5460086,9.9430078,,,,
11985563469,53.5621231,9.9161505,,,,
11990483751,53.5680882,9.9888947,Respekt,,,
11993650588,53.4849084,10.1769721,Spirale mit Tieren,,,
12023005436,53.5402177,9.8546338,Tonne,,,
12023005437,53.5403694,9.854127,Schiffschraube,,,
12029511119,53.5717638,10.0807231,Buchobjekt,,,
12041880197,53.5609117,9.9171303,,,,
12053854959,53.4843228,10.196589,Bronzebaum,,,
12053895556,53.4836235,10.1960362,Zwei Ringe,,,
12059163940,53.4825297,10.1647238,Sei wachsam,,,
12062556950,53.4806184,10.1717352,Titanic,,,
12065718883,53.4860869,10.1794916,Vogel-Relief,,,
12066768112,53.4859807,10.1611786,Flieger,,,
12068301923,53.4868374,10.1655978,Zuversicht,,,
12073904269,53.5455822,9.9438941,,,,
12078139596,53.4836066,10.1760275,Faltelemente,,,
12078139597,53.4836925,10.1761378,Faltelemente,,,
12079142358,53.4852241,10.1783559,Hockende,,,
12079155785,53.4872795,10.1771707,Schäfer,,,
12079158175,53.4796713,10.1711596,Knieende,,,
12079160584,53.4802992,10.1688054,Vierländerin,,,
12079176896,53.4807576,10.1676059,Stier,,,
12079601265,53.4845293,10.1795461,Blumen,,,
12079601266,53.4905264,10.1574037,Zwei Figuren,,,
12079628868,53.4847209,10.1795172,Blumen,,,
12079660769,53.4846626,10.179593,Blumen,,,
12115620107,53.5552584,9.9426865,,,,
12133729763,53.4911101,10.1811333,Biber,,,
12135291825,53.4901585,10.1587844,Allermöher Wand,,,
12135291826,53.4901886,10.1584364,Allermöher Wand,,,
12174500646,53.5697345,10.0100798,,,,
12174500647,53.5592101,10.0084494,,,,
12174500651,53.5727986,10.0024362,,,,
12174500652,53.5730713,10.0023088,,,,
12179085654,53.5889068,9.938556,,,,
12184094849,53.5549513,9.9419559,,,,
12193007680,53.5313901,10.0541651,Lautenspieler,,,
12193012061,53.5314639,10.0531534,Neptun mit Nixen,,,
12193030900,53.5353628,10.0378322,Streetview,,,
12193041518,53.5342917,10.0394394,Tänzerinnen,,,
12193043587,53.5342062,10.0384867,Identität,,,
12193047301,53.5360538,10.0400027,Sitzendes Mädchen,,,
12193070243,53.5345417,10.0449018,Kinder-Baukasten,,,
12209164544,53.5582081,9.8730503,Die Zeitalter des Christianeum,,,
12211786191,53.5539904,9.8762044,Das Gespräch,,,
12216626697,53.5334656,10.0388739,Schipper Jonny,,,
12217516134,53.5299793,10.0453775,Steintor,,,
12222358389,53.5609904,9.9276016,Hahn,,,
12222369439,53.5602094,9.9274404,Tanzende,,,
12222371472,53.5611127,9.9273255,Im Schatten meiner Seele,,,
12222382101,53.5614339,9.9274157,Erde,,,
12222383334,53.5616308,9.9266045,Lux Aeterna,,,
12232372470,53.5391536,10.0616933,ohne Titel,,,
12236055522,53.6668839,10.1575349,Säulen der Begegnung,,,
12248443743,53.5699622,10.0651476,Bärengruppe,,,
12263166945,53.4592343,9.9792787,,,,
12263166954,53.4591721,9.980091,,,,
12270948424,53.5822931,10.1120831,Friedrich von Esmarch,,,
12271470137,53.4554966,9.9514371,ohne Titel,,,
12271477731,53.4573524,9.9592177,Mutter mit Kind,,,
12271479216,53.4570508,9.9443721,Torbogen,,,
12271498233,53.453675,9.9589732,Drei Generationen,,,
12287539845,53.4990276,9.8875869,Raumstele,,,
12288466893,53.5900216,10.1088528,Hauszeichen,,,
12294053414,53.4716514,9.8590375,Zwei Kinder,,,
12296468446,53.4727858,9.8706658,Fünf Reiher,,,
12298923859,53.4711628,9.9069013,Unendlich,,,
12299493022,53.472567,9.8580438,Liegende Ruhe,,,
12299506752,53.4755818,9.8801632,Mutter mit Kind,,,
12299862261,53.4753015,9.8753543,Wandgestaltung,,,
12300027801,53.4747096,9.8742626,Vier Jahreszeiten,,,
12301798695,53.4738972,9.8744326,Bärengruppe,,,
12301835173,53.4740259,9.8694759,Fischotter,,,
12304312156,53.4691784,9.8407393,Frosch und Fisch,,,
12304651968,53.5492215,9.9709862,Untitled History,,,
12305032467,53.5790348,9.9967457,Zwei Charakterstämme in Umarmung,,,
12311684003,53.4698113,9.8638377,Läufergruppe,,,
12328995162,53.4404749,9.9609016,Turm der Vögel,,,
12345568245,53.4690089,9.961887,Obelisk,,,
12348982230,53.4690414,9.9563286,Trichter des Lebens,,,
12386803711,53.4687564,9.9556695,Sphinx,,,
12386814663,53.4603655,9.9496943,Zwei,,,
12441566061,53.5718855,9.9742618,Möwen,,,
12442362180,53.5725486,9.9692618,Kindliche Motive,,,
12514806572,53.5315748,10.3143327,Deutsch Ostafrika Ehrenmal,,,
12549418078,53.5722336,9.9476946,Zwei Flamingos,,,
12591592093,53.472836,9.8190121,Drei Sturmvögel,,,
12592913309,53.4647358,9.8617379,Fünf Mädchen auf der Bank,,,
12606837320,53.5815352,9.9463324,,,,
12610097548,53.5812362,9.9464987,,,,
12628822433,53.5543433,9.9004527,Tropfenförmige Plastik,,,
12630434140,53.4688956,9.9395246,,,,
12650811608,53.5799708,9.8128075,Esel,,,
12650817982,53.5802503,9.8128498,Schüler und Schülerin,,,
12652109819,53.5541723,9.939679,Spare in der Zeit,,,
12699400090,53.5515571,9.9374226,,,,
12714163015,53.5716049,9.9465993,Sportfiguren,,,
12752566061,53.5481701,9.992237,,,,
12759273177,53.5440384,9.9170133,Nashorn,,,
12760000453,53.555347,10.0233989,Kniende,,,
12768978365,53.5542206,9.9397763,,,,
12800615025,53.4746554,9.8282407,,,,
12827696630,53.5562633,10.0441397,Große Panthea,,,
12873562819,53.5601218,10.0562412,Eulenbaum,,,
12876602975,53.5604362,9.912419,,,,
12911177456,53.7239545,9.9144458,,,,
12915190616,53.5146416,9.9840063,,,,
12941096375,53.7172167,10.0031229,Betonguss,,,
12941273273,53.7324432,9.8993582,Brunnenskulptur,,,
