{"version": 0.6, "generator": "Overpass API 0.7.62.1 084b4234", "osm3s": {"timestamp_osm_base": "2024-06-14T12:07:11Z", "copyright": "The data included in this document is from www.openstreetmap.org. The data is made available under ODbL."}, "elements": [{"type": "node", "id": 10864685, "lat": 53.4619867, "lon": 9.8544548, "tags": {"bench": "no", "bin": "no", "bus": "yes", "highway": "bus_stop", "lit": "no", "name": "Ringheide", "network": "Hamburger Verkehrsverbund", "network:short": "HVV", "network:wikidata": "Q896916", "public_transport": "platform", "route_ref": "250", "shelter": "no", "tactile_paving": "no"}}, {"type": "node", "id": 15585299, "lat": 53.6185538, "lon": 10.0731676, "tags": {"bench": "yes", "bin": "yes", "highway": "bus_stop", "lit": "yes", "name": "Bramfeld See", "public_transport": "platform", "shelter": "yes", "tactile_paving": "no", "wheelchair": "limited"}}, {"type": "node", "id": 21421250, "lat": 53.6593957, "lon": 9.8420706, "tags": {"bench": "no", "bin": "yes", "bus": "yes", "check_date:shelter": "2021-04-13", "highway": "bus_stop", "lit": "no", "name": "Rellingen, Jebbenberg", "network": "HVV", "network:wikidata": "Q896916", "network:wikipedia": "de:Hamburger Verkehrsverbund", "public_transport": "platform", "route_ref": "295;781;795", "shelter": "no", "tactile_paving": "no"}}, {"type": "node", "id": 21560119, "lat": 53.4779975, "lon": 10.2394884, "tags": {"bench": "no", "bin": "yes", "bus": "yes", "highway": "bus_stop", "lit": "no", "name": "Holtenklinke", "public_transport": "platform", "shelter": "no", "tactile_paving": "no"}}, {"type": "node", "id": 21665446, "lat": 53.590613, "lon": 10.1786475, "tags": {"bus": "yes", "highway": "bus_stop", "name": "Schimmelreiterweg", "public_transport": "platform", "route_ref": "164", "shelter": "yes"}}, {"type": "node", "id": 21764350, "lat": 53.468268, "lon": 9.9675139, "tags": {"bench": "yes", "bin": "yes", "bus": "yes", "highway": "bus_stop", "lit": "yes", "name": "Grumbrechtstraße", "public_transport": "platform", "shelter": "yes", "tactile_paving": "no"}}, {"type": "node", "id": 25231456, "lat": 53.4651684, "lon": 9.9482737, "tags": {"bench": "no", "bin": "no", "covered": "no", "highway": "bus_stop", "name": "Am Fuchsberg", "public_transport": "platform", "route_ref": "146", "shelter": "no", "tactile_paving": "no", "wheelchair": "yes"}}, {"type": "node", "id": 25447375, "lat": 53.6161635, "lon": 10.1212615, "tags": {"bus": "yes", "highway": "bus_stop", "name": "Hermelinweg", "network": "HVV", "public_transport": "platform", "shelter": "yes"}}, {"type": "node", "id": 25447376, "lat": 53.616286, "lon": 10.1208637, "tags": {"bus": "yes", "highway": "bus_stop", "name": "Hermelinweg", "network": "HVV", "public_transport": "platform", "shelter": "yes"}}, {"type": "node", "id": 25964548, "lat": 53.5210779, "lon": 9.7796666, "tags": {"bench": "no", "highway": "bus_stop", "name": "Seehofring", "public_transport": "platform", "route_ref": "257", "shelter": "no", "tactile_paving": "no"}}, {"type": "node", "id": 26552583, "lat": 53.6109447, "lon": 10.1637856, "tags": {"bus": "yes", "highway": "bus_stop", "name": "Moränenweg", "public_transport": "platform", "shelter": "no"}}, {"type": "node", "id": 27254259, "lat": 53.5938415, "lon": 10.1824916, "tags": {"bus": "yes", "highway": "bus_stop", "name": "Brunskamp", "public_transport": "platform", "shelter": "no"}}, {"type": "node", "id": 27319968, "lat": 53.6458361, "lon": 10.2260634, "tags": {"highway": "bus_stop", "name": "Spechtweg", "public_transport": "platform", "route_ref": "269;769;648", "shelter": "yes"}}, {"type": "node", "id": 27319996, "lat": 53.6455955, "lon": 10.2367309, "tags": {"bench": "no", "bin": "no", "bus": "yes", "fixme": "Haltestelle: Lage der Plattformen ermitteln", "highway": "bus_stop", "lit": "yes", "name": "Meisenweg", "public_transport": "platform", "shelter": "no", "tactile_paving": "no"}}, {"type": "node", "id": 27320008, "lat": 53.6527625, "lon": 10.2372207, "tags": {"bus": "yes", "fixme": "Haltestelle: Lage der Plattformen ermitteln", "highway": "bus_stop", "name": "Am Birkenhain", "network": "HVV", "public_transport": "platform"}}, {"type": "node", "id": 32258875, "lat": 53.6178124, "lon": 9.8705419, "tags": {"bench": "no", "bin": "yes", "bus": "yes", "check_date:shelter": "2024-03-17", "highway": "bus_stop", "lit": "no", "local_ref": "1", "name": "Halstenbek, Seestraße", "public_transport": "platform", "shelter": "no", "tactile_paving": "no"}}, {"type": "node", "id": 32505551, "lat": 53.6192507, "lon": 9.9009184, "tags": {"bench": "no", "bin": "yes", "bus": "yes", "highway": "bus_stop", "lit": "yes", "name": "Rebenacker", "public_transport": "platform", "shelter": "no", "tactile_paving": "no", "wheelchair": "yes"}}, {"type": "node", "id": 47828982, "lat": 53.4708123, "lon": 9.9323986, "tags": {"bench": "yes", "bin": "yes", "bus": "yes", "highway": "bus_stop", "lit": "yes", "name": "Bostelbek", "public_transport": "platform", "shelter": "yes", "tactile_paving": "no"}}, {"type": "node", "id": 48714474, "lat": 53.6782336, "lon": 9.7614713, "tags": {"bench": "no", "bin": "yes", "bus": "yes", "description": "Ersatzhaltestelle für Schienenersatzverkehr", "highway": "bus_stop", "lit": "no", "name": "Bf. Prisdorf (SEV)", "network": "HVV", "public_transport": "platform", "shelter": "yes", "tactile_paving": "no"}}, {"type": "node", "id": 54548382, "lat": 53.6276836, "lon": 10.100182, "tags": {"bench": "no", "bin": "no", "highway": "bus_stop", "lit": "no", "name": "Am Stühm-Süd", "public_transport": "platform", "shelter": "yes", "tactile_paving": "no", "wheelchair": "yes"}}, {"type": "node", "id": 63353504, "lat": 53.4705251, "lon": 9.9527705, "tags": {"bench": "yes", "bin": "yes", "bus": "yes", "highway": "bus_stop", "name": "Berkefeldweg", "public_transport": "platform", "route_ref": "141;241", "shelter": "yes", "tactile_paving": "yes", "wheelchair": "yes"}}, {"type": "node", "id": 63365313, "lat": 53.5030815, "lon": 9.9051875, "tags": {"bench": "no", "bin": "yes", "bus": "yes", "highway": "bus_stop", "lit": "yes", "name": "Hafenbahnhof Alte Süderelbe", "network": "HVV", "public_transport": "platform", "shelter": "yes", "tactile_paving": "no"}}, {"type": "node", "id": 72635962, "lat": 53.5921246, "lon": 10.1736593, "tags": {"bench": "yes", "bin": "yes", "bus": "yes", "highway": "bus_stop", "lit": "yes", "name": "Waldwinkel", "public_transport": "platform", "route_ref": "164", "shelter": "yes", "tactile_paving": "no"}}, {"type": "node", "id": 83563630, "lat": 53.629887, "lon": 9.9396928, "tags": {"bench": "no", "bin": "no", "bus": "yes", "highway": "bus_stop", "lit": "yes", "name": "Wendlohstraße", "public_transport": "platform", "shelter": "no", "tactile_paving": "no"}}, {"type": "node", "id": 91825745, "lat": 53.5899144, "lon": 10.0780441, "tags": {"bench": "yes", "bin": "yes", "bus": "yes", "highway": "bus_stop", "lit": "yes", "name": "Tilsiter Straße", "public_transport": "platform", "shelter": "yes", "tactile_paving": "yes", "wheelchair": "yes"}}, {"type": "node", "id": 91826419, "lat": 53.5887572, "lon": 10.0784592, "tags": {"bench": "yes", "bin": "yes", "bus": "yes", "highway": "bus_stop", "lit": "yes", "name": "Tilsiter Straße", "public_transport": "platform", "shelter": "yes", "tactile_paving": "yes", "wheelchair": "yes"}}, {"type": "node", "id": 91826991, "lat": 53.5906541, "lon": 10.08445, "tags": {"bench": "yes", "bin": "yes", "bus": "yes", "highway": "bus_stop", "lit": "yes", "name": "Tilsiter Straße (Mitte)", "public_transport": "platform", "shelter": "yes", "tactile_paving": "no"}}, {"type": "node", "id": 91828127, "lat": 53.5923185, "lon": 10.075864, "tags": {"bench": "yes", "bin": "yes", "bus": "yes", "highway": "bus_stop", "lit": "yes", "name": "U Wandsbek-Gartenstadt", "passenger_information_display": "yes", "public_transport": "platform", "shelter": "yes", "tactile_paving": "no", "wheelchair": "yes"}}, {"type": "node", "id": 91829629, "lat": 53.5917169, "lon": 10.0751114, "tags": {"bench": "yes", "bin": "yes", "bus": "yes", "highway": "bus_stop", "lit": "no", "name": "U Wandsbek-Gartenstadt", "passenger_information_display": "yes", "public_transport": "platform", "shelter": "yes", "tactile_paving": "yes", "wheelchair": "yes"}}, {"type": "node", "id": 91851124, "lat": 53.5854694, "lon": 10.0782472, "tags": {"bench": "yes", "bin": "yes", "bus": "yes", "highway": "bus_stop", "lit": "yes", "name": "Friedrich-Ebert-Damm (West)", "public_transport": "platform", "shelter": "yes", "tactile_paving": "yes", "wheelchair": "yes"}}, {"type": "node", "id": 91851402, "lat": 53.5850474, "lon": 10.0782349, "tags": {"bench": "yes", "bin": "yes", "bus": "yes", "highway": "bus_stop", "lit": "yes", "name": "Friedrich-Ebert-Damm (West)", "public_transport": "platform", "shelter": "yes", "tactile_paving": "yes", "wheelchair": "yes"}}, {"type": "node", "id": 91851786, "lat": 53.5847437, "lon": 10.0776652, "tags": {"bench": "yes", "bin": "yes", "bus": "yes", "highway": "bus_stop", "lit": "yes", "name": "Friedrich-Ebert-Damm (West)", "public_transport": "platform", "shelter": "yes", "tactile_paving": "no", "wheelchair": "yes"}}, {"type": "node", "id": 91851898, "lat": 53.5848961, "lon": 10.0795237, "tags": {"bench": "yes", "bin": "yes", "bus": "yes", "highway": "bus_stop", "lit": "yes", "name": "Friedrich-Ebert-Damm (West)", "public_transport": "platform", "shelter": "yes", "tactile_paving": "yes", "wheelchair": "yes"}}, {"type": "node", "id": 91854067, "lat": 53.5864552, "lon": 10.0860885, "tags": {"bench": "yes", "bin": "yes", "highway": "bus_stop", "lit": "yes", "name": "Stephanstraße", "public_transport": "platform", "shelter": "yes", "tactile_paving": "yes", "wheelchair": "limited"}}, {"type": "node", "id": 91854533, "lat": 53.5863177, "lon": 10.0864954, "tags": {"bench": "yes", "bin": "yes", "check_date:shelter": "2021-09-17", "highway": "bus_stop", "lit": "yes", "name": "Stephanstraße", "public_transport": "platform", "shelter": "yes", "tactile_paving": "yes", "wheelchair": "yes"}}, {"type": "node", "id": 91854715, "lat": 53.5878613, "lon": 10.0928904, "tags": {"bench": "yes", "bin": "yes", "bus": "yes", "highway": "bus_stop", "lit": "yes", "name": "Helbingtwiete", "public_transport": "platform", "shelter": "yes", "tactile_paving": "yes", "wheelchair": "yes"}}, {"type": "node", "id": 91854785, "lat": 53.58767, "lon": 10.0931445, "tags": {"bench": "yes", "bin": "yes", "bus": "yes", "highway": "bus_stop", "lit": "yes", "name": "Helbingtwiete", "public_transport": "platform", "shelter": "yes", "tactile_paving": "no", "wheelchair": "yes"}}, {"type": "node", "id": 91855922, "lat": 53.5889053, "lon": 10.0979217, "tags": {"bench": "yes", "bin": "yes", "bus": "yes", "highway": "bus_stop", "lit": "yes", "name": "Am Stadtrand", "public_transport": "platform", "route_ref": "36;171;271", "shelter": "yes", "tactile_paving": "no", "wheelchair": "yes"}}, {"type": "node", "id": 91856615, "lat": 53.5890088, "lon": 10.099685, "tags": {"bench": "yes", "bin": "yes", "bus": "yes", "highway": "bus_stop", "lit": "yes", "name": "Am Stadtrand", "public_transport": "platform", "route_ref": "36;171;271", "shelter": "yes", "tactile_paving": "no"}}, {"type": "node", "id": 92698761, "lat": 53.6263448, "lon": 9.9371248, "tags": {"bench": "yes", "bin": "yes", "bus": "yes", "check_date:shelter": "2020-11-28", "highway": "bus_stop", "lit": "yes", "name": "Freizeitbad Bondenwald", "network": "Hamburger Verkehrsverbund", "network:short": "HVV", "network:wikidata": "Q896916", "public_transport": "platform", "shelter": "yes", "source": "survey", "tactile_paving": "yes", "wheelchair": "yes"}}, {"type": "node", "id": 94075205, "lat": 53.6608283, "lon": 10.1990427, "tags": {"bench": "no", "bin": "no", "highway": "bus_stop", "name": "Wulfsdorf, Feuerwache", "public_transport": "platform", "shelter": "no", "tactile_paving": "no", "wheelchair": "yes"}}, {"type": "node", "id": 94075213, "lat": 53.6599699, "lon": 10.2131849, "tags": {"highway": "bus_stop", "name": "Ahrensburg, Bornkampsweg (Ost)", "public_transport": "platform", "route_ref": "576;769", "shelter": "no"}}, {"type": "node", "id": 94170384, "lat": 53.4262123, "lon": 9.9615301, "tags": {"bench": "yes", "highway": "bus_stop", "name": "Hirschkäferweg", "public_transport": "platform", "route_ref": "143", "shelter": "yes", "tactile_paving": "no"}}, {"type": "node", "id": 95043595, "lat": 53.6608121, "lon": 10.1965912, "tags": {"bench": "yes", "bin": "yes", "highway": "bus_stop", "name": "Wulfsdorf, Allmende", "public_transport": "platform", "route_ref": "576;769", "shelter": "no", "wheelchair": "yes"}}, {"type": "node", "id": 103703784, "lat": 53.7086408, "lon": 10.2517459, "tags": {"check_date:shelter": "2023-09-07", "highway": "bus_stop", "name": "Delingsdorf, Dorfstraße", "public_transport": "platform", "route_ref": "8110;8118;627", "shelter": "yes"}}, {"type": "node", "id": 103703797, "lat": 53.7081922, "lon": 10.2517675, "tags": {"bench": "yes", "bin": "yes", "check_date:shelter": "2023-09-07", "highway": "bus_stop", "lit": "no", "name": "Delingsdorf, Dorfstraße", "public_transport": "platform", "route_ref": "8110;627", "shelter": "yes", "tactile_paving": "no"}}, {"type": "node", "id": 105302373, "lat": 53.4697266, "lon": 9.9621947, "tags": {"bench": "yes", "bin": "yes", "bus": "yes", "highway": "bus_stop", "lit": "yes", "name": "Bissingstraße", "network": "Hamburger Verkehrsverbund", "network:short": "HVV", "network:wikidata": "Q896916", "public_transport": "platform", "shelter": "yes", "tactile_paving": "no"}}, {"type": "node", "id": 105303687, "lat": 53.4692085, "lon": 9.9637233, "tags": {"bench": "yes", "bin": "yes", "bus": "yes", "highway": "bus_stop", "lit": "yes", "name": "Bissingstraße", "public_transport": "platform", "shelter": "yes", "tactile_paving": "no"}}, {"type": "node", "id": 107436894, "lat": 53.667826, "lon": 10.2221156, "tags": {"bus": "yes", "highway": "bus_stop", "name": "Theodor-Storm-Stieg", "network": "Hamburger Verkehrsverbund", "network:short": "HVV", "network:wikidata": "Q896916", "public_transport": "platform"}}, {"type": "node", "id": 130615615, "lat": 53.6862427, "lon": 10.2425261, "tags": {"bench": "no", "highway": "bus_stop", "name": "Ahrensburg, Helgolandring", "public_transport": "platform", "route_ref": "569;648;769", "shelter": "no", "tactile_paving": "no", "wheelchair": "yes"}}, {"type": "node", "id": 130629166, "lat": 53.6495657, "lon": 10.2362557, "tags": {"bench": "no", "bin": "yes", "bus": "yes", "fixme": "Haltestelle: Lage der Plattformen ermitteln", "highway": "bus_stop", "name": "Hinterm Vogelherd", "network": "HVV", "public_transport": "platform", "shelter": "no", "tactile_paving": "no"}}, {"type": "node", "id": 187232623, "lat": 53.5123891, "lon": 10.1781801, "tags": {"bus": "yes", "highway": "bus_stop", "name": "Rudorffweg", "public_transport": "platform"}}, {"type": "node", "id": 187232631, "lat": 53.5125066, "lon": 10.1786359, "tags": {"bench": "yes", "bin": "yes", "bus": "yes", "highway": "bus_stop", "name": "Rudorffweg", "public_transport": "platform", "shelter": "yes"}}, {"type": "node", "id": 187232638, "lat": 53.5113457, "lon": 10.1861002, "tags": {"bench": "yes", "bin": "yes", "highway": "bus_stop", "lit": "yes", "name": "Mendelstraße", "public_transport": "platform", "shelter": "yes", "tactile_paving": "no", "wheelchair": "yes"}}, {"type": "node", "id": 187232642, "lat": 53.5115096, "lon": 10.1866254, "tags": {"bench": "yes", "bin": "yes", "highway": "bus_stop", "lit": "yes", "name": "Mendelstraße", "public_transport": "platform", "shelter": "yes", "tactile_paving": "no", "wheelchair": "yes"}}, {"type": "node", "id": 187232650, "lat": 53.5099538, "lon": 10.1855346, "tags": {"bench": "yes", "bin": "yes", "highway": "bus_stop", "lit": "yes", "name": "Fritz-Lindemann-Weg", "public_transport": "platform", "shelter": "yes", "tactile_paving": "no"}}, {"type": "node", "id": 187232656, "lat": 53.5107093, "lon": 10.1979068, "tags": {"bench": "yes", "bin": "yes", "check_date:bench": "2022-06-06", "covered": "no", "highway": "bus_stop", "lit": "yes", "name": "Korachstraße", "public_transport": "platform", "shelter": "yes", "tactile_paving": "no", "wheelchair": "yes"}}, {"type": "node", "id": 187232661, "lat": 53.5107231, "lon": 10.1973308, "tags": {"bench": "no", "bin": "yes", "check_date:shelter": "2022-06-06", "highway": "bus_stop", "lit": "no", "name": "Korachstraße", "public_transport": "platform", "shelter": "no", "tactile_paving": "no"}}, {"type": "node", "id": 187232665, "lat": 53.5108125, "lon": 10.1979844, "tags": {"bench": "yes", "bin": "yes", "check_date:bench": "2022-06-06", "covered": "no", "highway": "bus_stop", "lit": "yes", "name": "Korachstraße", "public_transport": "platform", "shelter": "yes", "tactile_paving": "no", "wheelchair": "yes"}}, {"type": "node", "id": 187232675, "lat": 53.5045564, "lon": 10.191354, "tags": {"highway": "bus_stop", "name": "Grandkoppel", "public_transport": "platform", "wheelchair": "yes"}}, {"type": "node", "id": 187394817, "lat": 53.5118295, "lon": 10.1928384, "tags": {"bench": "yes", "bin": "yes", "bus": "yes", "highway": "bus_stop", "name": "Haempten", "public_transport": "platform", "shelter": "yes"}}, {"type": "node", "id": 187394843, "lat": 53.5081063, "lon": 10.1868629, "tags": {"highway": "bus_stop", "name": "Schulenburgring", "public_transport": "platform"}}, {"type": "node", "id": 187394850, "lat": 53.5079488, "lon": 10.1870609, "tags": {"highway": "bus_stop", "name": "Schulenburgring", "public_transport": "platform"}}, {"type": "node", "id": 188548666, "lat": 53.5117231, "lon": 10.1929157, "tags": {"bench": "yes", "bin": "yes", "bus": "yes", "highway": "bus_stop", "name": "Haempten", "public_transport": "platform", "shelter": "yes"}}, {"type": "node", "id": 188548673, "lat": 53.5098449, "lon": 10.210194, "tags": {"highway": "bus_stop", "name": "Röpraredder", "passenger_information_display": "yes", "public_transport": "platform"}}, {"type": "node", "id": 188548679, "lat": 53.5075796, "lon": 10.2107627, "tags": {"bench": "yes", "bin": "yes", "highway": "bus_stop", "name": "Harnackring", "public_transport": "platform", "shelter": "yes", "wheelchair": "yes"}}, {"type": "node", "id": 188548697, "lat": 53.5080969, "lon": 10.2109198, "tags": {"bench": "yes", "bin": "yes", "highway": "bus_stop", "name": "Harnackring", "public_transport": "platform", "shelter": "yes"}}, {"type": "node", "id": 188548708, "lat": 53.5103851, "lon": 10.2103431, "tags": {"highway": "bus_stop", "name": "Röpraredder", "public_transport": "platform"}}, {"type": "node", "id": 188548716, "lat": 53.513014, "lon": 10.2089754, "tags": {"highway": "bus_stop", "name": "Havighorster Weg", "network": "HVV", "public_transport": "platform", "shelter": "no"}}, {"type": "node", "id": 188548720, "lat": 53.5101628, "lon": 10.2096678, "tags": {"highway": "bus_stop", "name": "Röpraredder", "public_transport": "platform"}}, {"type": "node", "id": 188548731, "lat": 53.5046028, "lon": 10.2118651, "tags": {"bus": "yes", "highway": "bus_stop", "name": "Binnenfeldredder", "public_transport": "platform", "wheelchair": "yes"}}, {"type": "node", "id": 188548746, "lat": 53.5062359, "lon": 10.1993575, "tags": {"bench": "yes", "highway": "bus_stop", "name": "Heidkampsredder", "public_transport": "platform", "shelter": "yes"}}, {"type": "node", "id": 188596194, "lat": 53.5046443, "lon": 10.203787, "tags": {"bench": "yes", "bin": "yes", "bus": "yes", "highway": "bus_stop", "lit": "yes", "name": "Plettenbergstraße", "network": "HVV", "network:wikidata": "Q896916", "network:wikipedia": "de:Hamburger Verkehrsverbund", "public_transport": "platform", "shelter": "yes", "tactile_paving": "no"}}, {"type": "node", "id": 188596197, "lat": 53.5073079, "lon": 10.199188, "tags": {"bench": "yes", "highway": "bus_stop", "name": "Heidkampsredder", "public_transport": "platform", "shelter": "yes"}}, {"type": "node", "id": 198601198, "lat": 53.5025187, "lon": 9.8776822, "tags": {"bench": "yes", "highway": "bus_stop", "name": "Hohenwisch (Kehre)", "public_transport": "platform", "route_ref": "157;257", "shelter": "yes", "tactile_paving": "no"}}, {"type": "node", "id": 199241103, "lat": 53.6730902, "lon": 10.2221461, "tags": {"highway": "bus_stop", "name": "Selma-Lagerlöf-Schule", "public_transport": "platform", "route_ref": "576;769", "shelter": "no"}}, {"type": "node", "id": 211434009, "lat": 53.5298516, "lon": 9.8054176, "tags": {"bench": "yes", "bin": "yes", "highway": "bus_stop", "name": "Neuenfelder Damm", "public_transport": "platform", "shelter": "yes", "tactile_paving": "no"}}, {"type": "node", "id": 234736579, "lat": 53.5474199, "lon": 10.0851071, "tags": {"bench": "yes", "bin": "yes", "bus": "yes", "highway": "bus_stop", "lit": "yes", "name": "Horner Rampe", "public_transport": "platform", "shelter": "yes", "tactile_paving": "no"}}, {"type": "node", "id": 234741403, "lat": 53.5475553, "lon": 10.0842941, "tags": {"bench": "yes", "bin": "yes", "bus": "yes", "highway": "bus_stop", "lit": "yes", "name": "Horner Rampe", "public_transport": "platform", "shelter": "yes", "tactile_paving": "no", "wheelchair": "no"}}, {"type": "node", "id": 234741594, "lat": 53.5478158, "lon": 10.0851153, "tags": {"bench": "no", "bin": "yes", "bus": "yes", "highway": "bus_stop", "lit": "yes", "name": "Horner Rampe", "public_transport": "platform", "shelter": "yes", "tactile_paving": "yes"}}, {"type": "node", "id": 234748816, "lat": 53.7096012, "lon": 10.2474255, "tags": {"highway": "bus_stop", "name": "Delingsdorf, Timmerhorner Straße", "public_transport": "platform", "route_ref": "8118", "shelter": "yes", "wheelchair": "yes"}}, {"type": "node", "id": 243730990, "lat": 53.6929755, "lon": 9.7906916, "tags": {"bench": "yes", "bin": "yes", "bus": "yes", "highway": "bus_stop", "lit": "no", "name": "Kummerfeld, Gemeindehaus", "network": "Hamburger Verkehrsverbund", "network:short": "HVV", "network:wikidata": "Q896916", "public_transport": "platform", "route_ref": "185", "shelter": "yes", "tactile_paving": "yes"}}, {"type": "node", "id": 244036718, "lat": 53.5917301, "lon": 10.0875917, "tags": {"bench": "yes", "bin": "yes", "bus": "yes", "highway": "bus_stop", "lit": "yes", "name": "Angerburger Straße", "public_transport": "platform", "shelter": "yes", "tactile_paving": "no"}}, {"type": "node", "id": 244036835, "lat": 53.5939304, "lon": 10.0862837, "tags": {"bench": "yes", "bin": "yes", "bus": "yes", "highway": "bus_stop", "lit": "yes", "name": "Voßkulen", "public_transport": "platform", "shelter": "yes", "tactile_paving": "no", "wheelchair": "yes"}}, {"type": "node", "id": 244036887, "lat": 53.5949051, "lon": 10.0857, "tags": {"bench": "yes", "bin": "yes", "bus": "yes", "highway": "bus_stop", "lit": "yes", "name": "Voßkulen", "public_transport": "platform", "shelter": "yes", "tactile_paving": "no", "wheelchair": "yes"}}, {"type": "node", "id": 244037147, "lat": 53.595304, "lon": 10.0913288, "tags": {"bench": "yes", "bin": "yes", "bus": "yes", "highway": "bus_stop", "lit": "yes", "name": "Bullenkoppel", "public_transport": "platform", "shelter": "yes", "tactile_paving": "no", "wheelchair": "yes"}}, {"type": "node", "id": 244647693, "lat": 53.5231993, "lon": 10.2310569, "tags": {"bench": "yes", "bin": "yes", "bus": "yes", "highway": "bus_stop", "lit": "yes", "name": "Reinbek, Liebigstraße", "public_transport": "platform", "route_ref": "137;237", "shelter": "yes", "tactile_paving": "yes"}}, {"type": "node", "id": 244985131, "lat": 53.4955892, "lon": 9.7799515, "tags": {"bench": "yes", "bin": "yes", "bus": "yes", "highway": "bus_stop", "lit": "no", "name": "Rübke, Nincoper Deich 29-33", "public_transport": "platform", "route_ref": "4682", "shelter": "yes", "tactile_paving": "no"}}, {"type": "node", "id": 249284526, "lat": 53.6181205, "lon": 10.0900203, "tags": {"highway": "bus_stop", "name": "Hohnerkamp", "public_transport": "platform", "shelter": "yes", "tactile_paving": "no"}}, {"type": "node", "id": 249284591, "lat": 53.6178619, "lon": 10.0889753, "tags": {"highway": "bus_stop", "name": "Hohnerkamp", "public_transport": "platform", "shelter": "yes", "tactile_paving": "no"}}, {"type": "node", "id": 249284715, "lat": 53.6149271, "lon": 10.0764836, "tags": {"bench": "yes", "bin": "yes", "bus": "yes", "highway": "bus_stop", "lit": "yes", "name": "Bramfelder Dorfplatz", "public_transport": "platform", "shelter": "yes", "tactile_paving": "yes", "wheelchair": "yes"}}, {"type": "node", "id": 249284893, "lat": 53.6090495, "lon": 10.0730826, "tags": {"bench": "yes", "bin": "yes", "bus": "yes", "highway": "bus_stop", "lit": "yes", "name": "Steilshooper Allee", "passenger_information_display": "yes", "public_transport": "platform", "shelter": "yes", "tactile_paving": "no", "wheelchair": "yes"}}, {"type": "node", "id": 249285422, "lat": 53.6081209, "lon": 10.0719078, "tags": {"bench": "yes", "bin": "yes", "bus": "yes", "highway": "bus_stop", "lit": "yes", "name": "Steilshooper Allee", "public_transport": "platform", "shelter": "yes", "tactile_paving": "no", "wheelchair": "yes"}}, {"type": "node", "id": 249285426, "lat": 53.6087803, "lon": 10.0712371, "tags": {"bench": "yes", "bin": "yes", "bus": "yes", "highway": "bus_stop", "lit": "yes", "name": "Steilshooper Allee", "network": "HVV", "passenger_information_display": "yes", "public_transport": "platform", "shelter": "yes", "tactile_paving": "no", "wheelchair": "yes"}}, {"type": "node", "id": 249285578, "lat": 53.6085838, "lon": 10.0730438, "tags": {"bench": "yes", "bin": "yes", "bus": "yes", "highway": "bus_stop", "lit": "yes", "name": "Steilshooper Allee", "public_transport": "platform", "shelter": "yes", "tactile_paving": "no", "wheelchair": "yes"}}, {"type": "node", "id": 249286001, "lat": 53.6023112, "lon": 10.0696354, "tags": {"bench": "yes", "bin": "yes", "bus": "yes", "highway": "bus_stop", "lit": "yes", "name": "Werner-Otto-Straße", "public_transport": "platform", "shelter": "yes", "tactile_paving": "no", "wheelchair": "yes"}}, {"type": "node", "id": 249286083, "lat": 53.6006777, "lon": 10.0680792, "tags": {"bench": "yes", "bin": "yes", "bus": "yes", "highway": "bus_stop", "lit": "yes", "name": "Werner-Otto-Straße", "public_transport": "platform", "shelter": "yes", "tactile_paving": "yes", "wheelchair": "yes"}}, {"type": "node", "id": 249286120, "lat": 53.5998885, "lon": 10.0697275, "tags": {"bench": "yes", "bin": "yes", "bus": "yes", "highway": "bus_stop", "lit": "yes", "name": "Werner-Otto-Straße (Mitte)", "passenger_information_display": "yes", "public_transport": "platform", "shelter": "yes", "tactile_paving": "no", "wheelchair": "limited"}}, {"type": "node", "id": 249286129, "lat": 53.5999958, "lon": 10.0699107, "tags": {"bench": "yes", "bin": "yes", "bus": "yes", "highway": "bus_stop", "lit": "yes", "name": "Werner-Otto-Straße (Mitte)", "public_transport": "platform", "shelter": "yes", "tactile_paving": "no", "wheelchair": "limited"}}, {"type": "node", "id": 249286144, "lat": 53.5968754, "lon": 10.0719872, "tags": {"bench": "yes", "bin": "yes", "check_date:shelter": "2021-09-03", "highway": "bus_stop", "lit": "yes", "name": "Haldesdorfer Straße", "public_transport": "platform", "shelter": "no", "tactile_paving": "no", "wheelchair": "yes"}}, {"type": "node", "id": 249286272, "lat": 53.5966257, "lon": 10.0724277, "tags": {"bench": "no", "bin": "yes", "bus": "yes", "check_date:shelter": "2021-09-03", "highway": "bus_stop", "lit": "yes", "name": "Haldesdorfer Straße", "public_transport": "platform", "shelter": "no", "tactile_paving": "no", "wheelchair": "yes"}}, {"type": "node", "id": 249286420, "lat": 53.5803773, "lon": 10.0811237, "tags": {"bench": "yes", "bin": "yes", "bus": "yes", "highway": "bus_stop", "lit": "yes", "name": "Walddörferstraße", "public_transport": "platform", "shelter": "yes", "tactile_paving": "no", "wheelchair": "yes"}}, {"type": "node", "id": 249286742, "lat": 53.5802074, "lon": 10.0809969, "tags": {"bench": "yes", "bin": "yes", "bus": "yes", "highway": "bus_stop", "lit": "yes", "name": "Walddörferstraße", "public_transport": "platform", "shelter": "yes", "tactile_paving": "no", "wheelchair": "yes"}}, {"type": "node", "id": 249286799, "lat": 53.5793421, "lon": 10.0756171, "tags": {"bench": "yes", "bin": "yes", "bus": "yes", "highway": "bus_stop", "name": "Gladowstraße", "public_transport": "platform", "shelter": "yes", "tactile_paving": "no", "wheelchair": "yes"}}, {"type": "node", "id": 249286857, "lat": 53.5794948, "lon": 10.0740479, "tags": {"bench": "yes", "bin": "yes", "bus": "yes", "highway": "bus_stop", "lit": "yes", "name": "Gladowstraße", "public_transport": "platform", "shelter": "yes", "tactile_paving": "no", "wheelchair": "yes"}}, {"type": "node", "id": 249287064, "lat": 53.5743629, "lon": 10.0736418, "tags": {"bench": "yes", "bin": "yes", "bus": "yes", "check_date:shelter": "2024-05-28", "highway": "bus_stop", "lit": "yes", "name": "Wendemuthstraße", "public_transport": "platform", "shelter": "yes", "tactile_paving": "no", "wheelchair": "yes"}}, {"type": "node", "id": 249287065, "lat": 53.5749507, "lon": 10.0745742, "tags": {"bench": "yes", "bin": "yes", "bus": "yes", "highway": "bus_stop", "lit": "yes", "name": "Wendemuthstraße", "public_transport": "platform", "shelter": "yes", "tactile_paving": "no", "wheelchair": "yes"}}, {"type": "node", "id": 249287067, "lat": 53.5749137, "lon": 10.0759903, "tags": {"bench": "yes", "bin": "yes", "bus": "yes", "highway": "bus_stop", "lit": "yes", "name": "Wendemuthstraße", "public_transport": "platform", "route_ref": "9;608", "shelter": "yes", "tactile_paving": "no", "wheelchair": "yes"}}, {"type": "node", "id": 249287531, "lat": 53.57102, "lon": 10.0828218, "tags": {"bench": "yes", "bin": "yes", "bus": "yes", "highway": "bus_stop", "lit": "no", "name": "Gustav-Adolf-Straße", "network": "Hamburger Verkehrsverbund", "network:short": "HVV", "network:wikidata": "Q896916", "operator": "Hamburger Hochbahn AG", "public_transport": "platform", "shelter": "no", "tactile_paving": "no", "wheelchair": "yes"}}, {"type": "node", "id": 249317063, "lat": 53.5477574, "lon": 10.0854319, "tags": {"bench": "yes", "bin": "yes", "bus": "yes", "highway": "bus_stop", "lit": "yes", "name": "Horner Rampe", "passenger_information_display": "no", "public_transport": "platform", "shelter": "yes", "tactile_paving": "no", "wheelchair": "yes"}}, {"type": "node", "id": 251002162, "lat": 53.7154902, "lon": 10.0098248, "tags": {"bench": "yes", "bin": "yes", "bus": "yes", "highway": "bus_stop", "lit": "no", "name": "Harksheide, Grootkoppelstraße", "public_transport": "platform", "route_ref": "293;393;378;626", "shelter": "yes", "tactile_paving": "no"}}, {"type": "node", "id": 251469807, "lat": 53.5797926, "lon": 10.1446881, "tags": {"bench": "no", "bin": "yes", "bus": "yes", "highway": "bus_stop", "lit": "yes", "name": "Glatzer Straße", "public_transport": "platform", "shelter": "no", "tactile_paving": "no"}}, {"type": "node", "id": 251471538, "lat": 53.5929144, "lon": 10.171247, "tags": {"highway": "bus_stop", "name": "Seniorensitz Am Hegen", "public_transport": "platform", "route_ref": "164", "shelter": "yes"}}, {"type": "node", "id": 253394988, "lat": 53.5952334, "lon": 10.0914579, "tags": {"bench": "yes", "bin": "yes", "bus": "yes", "highway": "bus_stop", "lit": "yes", "name": "Bullenkoppel", "public_transport": "platform", "shelter": "yes", "tactile_paving": "no", "wheelchair": "yes"}}, {"type": "node", "id": 253395082, "lat": 53.5968665, "lon": 10.0916585, "tags": {"bench": "yes", "bin": "yes", "bus": "yes", "highway": "bus_stop", "lit": "yes", "name": "Barmwisch", "public_transport": "platform", "shelter": "yes", "tactile_paving": "no"}}, {"type": "node", "id": 253395139, "lat": 53.5971614, "lon": 10.0919163, "tags": {"bench": "yes", "bin": "yes", "bus": "yes", "highway": "bus_stop", "lit": "yes", "name": "Barmwisch", "public_transport": "platform", "shelter": "yes", "tactile_paving": "no"}}, {"type": "node", "id": 253395432, "lat": 53.6002083, "lon": 10.091325, "tags": {"bench": "yes", "bin": "yes", "bus": "yes", "highway": "bus_stop", "name": "Turnierstieg", "public_transport": "platform", "shelter": "yes"}}, {"type": "node", "id": 253395486, "lat": 53.5993798, "lon": 10.0914666, "tags": {"bench": "yes", "bin": "yes", "bus": "yes", "highway": "bus_stop", "name": "Turnierstieg", "public_transport": "platform", "shelter": "yes", "tactile_paving": "no"}}, {"type": "node", "id": 253619869, "lat": 53.5824217, "lon": 10.0686422, "tags": {"bench": "no", "bin": "yes", "bus": "yes", "highway": "bus_stop", "lit": "yes", "name": "U Straßburger Straße", "network": "Hamburger Verkehrsverbund", "network:short": "HVV", "network:wikidata": "Q896916", "passenger_information_display": "yes", "public_transport": "platform", "shelter": "no", "tactile_paving": "yes", "wheelchair": "yes"}}, {"type": "node", "id": 253619955, "lat": 53.5822702, "lon": 10.0663088, "tags": {"bench": "yes", "bin": "yes", "bus": "yes", "check_date:shelter": "2024-02-05", "highway": "bus_stop", "lit": "yes", "name": "U Straßburger Straße", "network": "Hamburger Verkehrsverbund", "network:short": "HVV", "network:wikidata": "Q896916", "public_transport": "platform", "shelter": "no", "tactile_paving": "yes", "wheelchair": "yes"}}, {"type": "node", "id": 253659938, "lat": 53.5829804, "lon": 10.0675529, "tags": {"bench": "yes", "bin": "yes", "bus": "yes", "highway": "bus_stop", "lit": "yes", "name": "U Straßburger Straße", "network": "Hamburger Verkehrsverbund", "network:short": "HVV", "network:wikidata": "Q896916", "public_transport": "platform", "shelter": "yes", "tactile_paving": "yes", "wheelchair": "yes"}}, {"type": "node", "id": 253659939, "lat": 53.5817759, "lon": 10.0678128, "tags": {"bench": "no", "bin": "yes", "bus": "yes", "highway": "bus_stop", "lit": "yes", "name": "U Straßburger Straße", "network": "Hamburger Verkehrsverbund", "network:short": "HVV", "network:wikidata": "Q896916", "public_transport": "platform", "shelter": "yes", "tactile_paving": "yes", "wheelchair": "no"}}, {"type": "node", "id": 254854426, "lat": 53.4897646, "lon": 10.1531608, "tags": {"bench": "yes", "bin": "yes", "bus": "yes", "departures_board": "yes", "highway": "bus_stop", "name": "Karl-Rüther-Stieg", "public_transport": "platform", "shelter": "yes", "tactile_paving": "yes", "wheelchair": "yes"}}, {"type": "node", "id": 257726462, "lat": 53.5842074, "lon": 10.0537719, "tags": {"bench": "yes", "bin": "yes", "highway": "bus_stop", "lit": "yes", "name": "Lämmersieth (Mitte)", "public_transport": "platform", "shelter": "no", "tactile_paving": "no", "wheelchair": "yes"}}, {"type": "node", "id": 257726463, "lat": 53.5851315, "lon": 10.0530258, "tags": {"bench": "yes", "bin": "yes", "highway": "bus_stop", "lit": "yes", "name": "Lämmersieth (Mitte)", "public_transport": "platform", "shelter": "yes", "tactile_paving": "no", "wheelchair": "yes"}}, {"type": "node", "id": 265568835, "lat": 53.5770224, "lon": 10.0247978, "tags": {"bench": "yes", "bin": "yes", "highway": "bus_stop", "lit": "yes", "name": "Bachstraße", "public_transport": "platform", "shelter": "yes", "tactile_paving": "no", "wheelchair": "yes"}}, {"type": "node", "id": 265568838, "lat": 53.5788229, "lon": 10.0227808, "tags": {"bench": "yes", "bin": "yes", "bus": "yes", "highway": "bus_stop", "lit": "yes", "name": "Mozartstraße", "network": "HVV", "public_transport": "platform", "shelter": "yes", "tactile_paving": "no", "wheelchair": "yes"}}, {"type": "node", "id": 265976181, "lat": 53.4500443, "lon": 9.937463, "tags": {"bench": "no", "bin": "yes", "description": "Nur zum Aussteigen!", "highway": "bus_stop", "name": "Strucksbarg", "public_transport": "platform", "shelter": "no", "tactile_paving": "no", "wheelchair": "no"}}, {"type": "node", "id": 266679447, "lat": 53.5532726, "lon": 10.2531847, "tags": {"bench": "yes", "bin": "yes", "bus": "yes", "highway": "bus_stop", "lit": "yes", "name": "Neuschönningstedt, Haidkrug", "public_transport": "platform", "shelter": "yes", "tactile_paving": "no"}}, {"type": "node", "id": 267026751, "lat": 53.5583683, "lon": 9.8614695, "tags": {"bench": "yes", "bin": "yes", "highway": "bus_stop", "lit": "yes", "name": "S Klein Flottbek", "passenger_information_display": "yes", "public_transport": "platform", "route_ref": "21;115", "shelter": "yes", "tactile_paving": "no", "wheelchair": "yes"}}, {"type": "node", "id": 267029437, "lat": 53.5663172, "lon": 9.8662215, "tags": {"bench": "yes", "bin": "yes", "bus": "yes", "check_date:shelter": "2023-08-29", "highway": "bus_stop", "lit": "yes", "name": "Hemmingstedter Weg", "public_transport": "platform", "shelter": "yes", "tactile_paving": "no"}}, {"type": "node", "id": 268077576, "lat": 53.6391661, "lon": 10.2861155, "tags": {"bench": "yes", "bin": "yes", "highway": "bus_stop", "name": "Siek, Bültbek", "public_transport": "platform", "route_ref": "376;537;776;869;658", "shelter": "yes"}}, {"type": "node", "id": 268078541, "lat": 53.6337118, "lon": 10.2982046, "tags": {"bus": "yes", "highway": "bus_stop", "name": "Siek, Kirche", "public_transport": "platform", "route_ref": "376;537;776;869", "shelter": "yes", "wheelchair": "limited"}}, {"type": "node", "id": 268400690, "lat": 53.6355167, "lon": 10.3137385, "tags": {"bench": "no", "bin": "no", "bus": "yes", "check_date:shelter": "2022-12-30", "highway": "bus_stop", "name": "Hoisdorf, Sieker Berg", "public_transport": "platform", "route_ref": "764", "shelter": "no", "tactile_paving": "no"}}, {"type": "node", "id": 268400691, "lat": 53.6354747, "lon": 10.313438, "tags": {"bench": "no", "bin": "no", "check_date:shelter": "2022-12-30", "highway": "bus_stop", "name": "Hoisdorf, Sieker Berg", "public_transport": "platform", "route_ref": "764 (nur Ausstieg)", "shelter": "no", "tactile_paving": "no"}}, {"type": "node", "id": 268400732, "lat": 53.6355722, "lon": 10.2968552, "tags": {"bench": "no", "bin": "no", "bus": "yes", "highway": "bus_stop", "lit": "no", "name": "Siek, Amtsverwaltung", "public_transport": "platform", "route_ref": "376;537;776;869", "shelter": "no", "tactile_paving": "no", "wheelchair": "yes"}}, {"type": "node", "id": 268400758, "lat": 53.6367169, "lon": 10.2925315, "tags": {"bench": "no", "bin": "no", "bus": "yes", "highway": "bus_stop", "name": "Siek, Hansdorfer Weg", "public_transport": "platform", "route_ref": "376;537;776;869;658", "shelter": "no", "tactile_paving": "yes"}}, {"type": "node", "id": 268400759, "lat": 53.6365819, "lon": 10.2927493, "tags": {"bench": "no", "bin": "no", "bus": "yes", "highway": "bus_stop", "name": "Siek, Hansdorfer Weg", "public_transport": "platform", "route_ref": "376;537;776;869", "shelter": "no", "tactile_paving": "yes", "wheelchair": "yes"}}, {"type": "node", "id": 268400855, "lat": 53.638677, "lon": 10.2868167, "tags": {"bench": "no", "bin": "yes", "highway": "bus_stop", "name": "Siek, Bültbek", "public_transport": "platform", "route_ref": "376;537;776;869", "shelter": "no", "tactile_paving": "no"}}, {"type": "node", "id": 268553215, "lat": 53.6819793, "lon": 10.2575461, "tags": {"highway": "bus_stop", "name": "Ahrensburg, Kornkamp (Süd)", "public_transport": "platform", "route_ref": "169", "shelter": "yes"}}, {"type": "node", "id": 268553473, "lat": 53.6804473, "lon": 10.2526307, "tags": {"highway": "bus_stop", "name": "Ahrensburg, Beimoorweg", "public_transport": "platform", "route_ref": "169;469;8730", "shelter": "yes"}}, {"type": "node", "id": 268553489, "lat": 53.6802464, "lon": 10.252324, "tags": {"bench": "no", "highway": "bus_stop", "name": "Ahrensburg, Beimoorweg", "public_transport": "platform", "route_ref": "169;469;8730", "shelter": "no"}}, {"type": "node", "id": 269340230, "lat": 53.6864092, "lon": 10.2563829, "tags": {"highway": "bus_stop", "name": "Ahrensburg, Kornkamp (Springer)", "public_transport": "platform", "route_ref": "169", "shelter": "yes"}}, {"type": "node", "id": 269431316, "lat": 53.6033072, "lon": 9.8930386, "tags": {"bench": "yes", "bin": "yes", "bus": "yes", "covered": "no", "highway": "bus_stop", "lit": "yes", "local_ref": "B", "name": "S Elbgaustraße", "public_transport": "platform", "shelter": "yes", "tactile_paving": "no", "wheelchair": "limited"}}, {"type": "node", "id": 269431317, "lat": 53.6033862, "lon": 9.8925666, "tags": {"bench": "yes", "bin": "yes", "bus": "yes", "covered": "no", "highway": "bus_stop", "lit": "yes", "local_ref": "C", "name": "S Elbgaustraße", "public_transport": "platform", "shelter": "yes", "tactile_paving": "no", "wheelchair": "limited"}}, {"type": "node", "id": 270724665, "lat": 53.644261, "lon": 9.8414225, "tags": {"highway": "bus_stop", "name": "Rellingen, Mühlenstraße", "public_transport": "platform", "route_ref": "185;781", "shelter": "yes"}}, {"type": "node", "id": 271279731, "lat": 53.5267786, "lon": 9.8230436, "tags": {"bus": "yes", "highway": "bus_stop", "name": "Am Rosengarten", "network": "HVV", "public_transport": "platform", "shelter": "yes", "tactile_paving": "no"}}, {"type": "node", "id": 271350390, "lat": 53.5245992, "lon": 10.2974572, "tags": {"bench": "no", "bin": "yes", "check_date:shelter": "2022-05-11", "highway": "bus_stop", "lit": "no", "name": "Krabbenkamp", "public_transport": "platform", "route_ref": "336;8820", "shelter": "no", "tactile_paving": "no"}}, {"type": "node", "id": 271784863, "lat": 53.5866621, "lon": 10.0332058, "tags": {"bench": "yes", "bin": "yes", "bus": "yes", "highway": "bus_stop", "lit": "yes", "name": "U Saarlandstraße (Süd)", "public_transport": "platform", "shelter": "yes", "tactile_paving": "no"}}, {"type": "node", "id": 272827324, "lat": 53.6605556, "lon": 9.8310423, "tags": {"bus": "yes", "bus_lines": "595", "highway": "bus_stop", "name": "Theodor-Storm-Straße", "network": "HVV", "public_transport": "stop_position"}}, {"type": "node", "id": 272859923, "lat": 53.5016061, "lon": 10.205673, "tags": {"bench": "yes", "bin": "yes", "highway": "bus_stop", "lit": "yes", "name": "Lohbrügger Weg", "public_transport": "platform", "shelter": "yes", "tactile_paving": "no", "wheelchair": "yes"}}, {"type": "node", "id": 273106231, "lat": 53.4673414, "lon": 10.2876696, "tags": {"bench": "yes", "bin": "yes", "bus": "yes", "highway": "bus_stop", "lit": "yes", "name": "Börnsen, Dänenweg", "public_transport": "platform", "route_ref": "8811;8890;8894;8895", "shelter": "yes", "tactile_paving": "no"}}, {"type": "node", "id": 273106248, "lat": 53.4692526, "lon": 10.2786192, "tags": {"bench": "no", "bin": "yes", "highway": "bus_stop", "lit": "no", "name": "Börnsen, Bahnstraße", "public_transport": "platform", "route_ref": "8890;8894;8895", "shelter": "no", "tactile_paving": "no"}}, {"type": "node", "id": 273106288, "lat": 53.469194, "lon": 10.2797917, "tags": {"bench": "yes", "bicycle_parking": "yes", "bin": "yes", "highway": "bus_stop", "lit": "yes", "name": "Börnsen, Bahnstraße", "public_transport": "platform", "route_ref": "8811;8890;8895", "shelter": "yes", "tactile_paving": "no"}}, {"type": "node", "id": 273107296, "lat": 53.471704, "lon": 9.9314053, "tags": {"bench": "no", "bin": "no", "highway": "bus_stop", "lit": "yes", "name": "Zum Fürstenmoor", "public_transport": "platform", "route_ref": "241", "shelter": "no", "tactile_paving": "no", "wheelchair": "limited"}}, {"type": "node", "id": 273117805, "lat": 53.4880679, "lon": 10.2842411, "tags": {"bench": "yes", "bin": "yes", "bus": "yes", "covered": "no", "highway": "bus_stop", "lit": "yes", "name": "Neu Börnsen, Steinredder", "public_transport": "platform", "route_ref": "8810;8811", "shelter": "yes", "tactile_paving": "no", "wheelchair": "no"}}, {"type": "node", "id": 273117885, "lat": 53.4876043, "lon": 10.285891, "tags": {"bench": "yes", "bin": "yes", "bus": "yes", "highway": "bus_stop", "lit": "yes", "name": "Neu Börnsen, Steinredder", "public_transport": "platform", "route_ref": "8810;8811", "shelter": "yes", "tactile_paving": "no"}}, {"type": "node", "id": 273118148, "lat": 53.4866575, "lon": 10.2910178, "tags": {"bench": "yes", "bin": "yes", "covered": "no", "highway": "bus_stop", "lit": "yes", "name": "Neu Börnsen, Mühlenweg", "public_transport": "platform", "route_ref": "8810;8811;8895", "shelter": "yes", "tactile_paving": "no", "wheelchair": "limited"}}, {"type": "node", "id": 273427045, "lat": 53.5824931, "lon": 9.8576608, "tags": {"bench": "yes", "bin": "yes", "bus": "yes", "highway": "bus_stop", "lit": "yes", "name": "Grubenstieg", "public_transport": "platform", "shelter": "yes", "tactile_paving": "yes"}}, {"type": "node", "id": 273427080, "lat": 53.5819121, "lon": 9.8570213, "tags": {"bench": "yes", "bin": "yes", "bus": "yes", "highway": "bus_stop", "lit": "yes", "name": "Grubenstieg", "public_transport": "platform", "shelter": "yes", "tactile_paving": "no"}}, {"type": "node", "id": 274121157, "lat": 53.5513731, "lon": 9.953676, "tags": {"bench": "no", "bin": "no", "bus": "yes", "check_date:bench": "2021-04-27", "check_date:shelter": "2021-04-27", "highway": "bus_stop", "lit": "yes", "name": "Kleine Marienstraße", "public_transport": "platform", "shelter": "no", "tactile_paving": "no"}}, {"type": "node", "id": 274354730, "lat": 53.5843059, "lon": 9.8528219, "tags": {"bench": "yes", "bin": "yes", "bus": "yes", "highway": "bus_stop", "lit": "yes", "name": "Immenbusch", "passenger_information_display": "yes", "public_transport": "platform", "shelter": "yes", "tactile_paving": "yes"}}, {"type": "node", "id": 275033289, "lat": 53.4171521, "lon": 9.9827822, "tags": {"bench": "yes", "bus": "yes", "highway": "bus_stop", "name": "Rüstweg", "network": "Hamburger Verkehrsverbund", "network:short": "HVV", "network:wikidata": "Q896916", "public_transport": "platform", "route_ref": "M14;146;247;4661;4624", "shelter": "yes", "tactile_paving": "no", "wheelchair": "yes"}}, {"type": "node", "id": 276666347, "lat": 53.4457765, "lon": 9.9911735, "tags": {"bench": "yes", "bin": "yes", "bus": "yes", "highway": "bus_stop", "lit": "yes", "name": "Winsener Straße (Nord)", "public_transport": "platform", "shelter": "yes", "tactile_paving": "no"}}, {"type": "node", "id": 276666350, "lat": 53.4469115, "lon": 9.9908866, "tags": {"bench": "yes", "bin": "yes", "bus": "yes", "highway": "bus_stop", "lit": "yes", "name": "Winsener Straße (Nord)", "public_transport": "platform", "shelter": "yes", "tactile_paving": "yes"}}, {"type": "node", "id": 276666356, "lat": 53.4506421, "lon": 9.9877066, "tags": {"bench": "no", "bin": "no", "bus": "yes", "check_date:shelter": "2022-07-07", "highway": "bus_stop", "lit": "no", "name": "Reeseberg", "public_transport": "platform", "shelter": "no", "tactile_paving": "no", "wheelchair": "limited"}}, {"type": "node", "id": 276666359, "lat": 53.4513075, "lon": 9.9873239, "tags": {"bench": "yes", "bin": "yes", "bus": "yes", "highway": "bus_stop", "lit": "yes", "name": "Reeseberg", "public_transport": "platform", "route_ref": "14;141;242;143;443;543;146;148;4148;643", "shelter": "yes", "tactile_paving": "yes", "wheelchair": "yes"}}, {"type": "node", "id": 276794113, "lat": 53.6551996, "lon": 10.1255287, "tags": {"bench": "yes", "bin": "yes", "bus": "yes", "check_date:shelter": "2022-10-09", "highway": "bus_stop", "lit": "yes", "name": "Steinwegel", "network": "HVV", "public_transport": "platform", "shelter": "yes", "tactile_paving": "no", "wheelchair": "yes"}}, {"type": "node", "id": 276794114, "lat": 53.6556857, "lon": 10.1327226, "tags": {"bench": "yes", "bin": "yes", "bus": "yes", "highway": "bus_stop", "lit": "yes", "name": "Saselbekstraße", "network": "HVV", "public_transport": "platform", "shelter": "yes", "tactile_paving": "no", "wheelchair": "yes"}}, {"type": "node", "id": 277061564, "lat": 53.5653241, "lon": 9.9123106, "tags": {"bench": "yes", "bin": "yes", "bus": "yes", "highway": "bus_stop", "lit": "yes", "name": "Von-Sauer-Straße", "passenger_information_display": "yes", "public_transport": "platform", "shelter": "yes", "tactile_paving": "yes", "wheelchair": "yes"}}, {"type": "node", "id": 277531542, "lat": 53.46599, "lon": 10.2975445, "tags": {"bench": "yes", "bin": "yes", "highway": "bus_stop", "lit": "yes", "name": "Escheburg, Götensberg", "public_transport": "platform", "route_ref": "8811;8890;8894;8895", "shelter": "yes", "tactile_paving": "yes"}}, {"type": "node", "id": 277790155, "lat": 53.5980935, "lon": 10.0419976, "tags": {"bench": "yes", "bin": "yes", "bus": "yes", "highway": "bus_stop", "lit": "yes", "name": "Neue Wöhr", "passenger_information_display": "yes", "public_transport": "platform", "shelter": "yes", "tactile_paving": "yes", "wheelchair": "yes"}}, {"type": "node", "id": 277790172, "lat": 53.5992053, "lon": 10.0415709, "tags": {"bench": "yes", "bin": "yes", "bus": "yes", "highway": "bus_stop", "lit": "yes", "name": "Neue Wöhr", "passenger_information_display": "yes", "public_transport": "platform", "shelter": "yes", "tactile_paving": "yes", "wheelchair": "yes"}}, {"type": "node", "id": 277800977, "lat": 53.6548333, "lon": 10.1178029, "tags": {"bench": "yes", "bin": "yes", "bus": "yes", "check_date:shelter": "2022-10-09", "highway": "bus_stop", "lit": "yes", "name": "Op de Elg", "network": "HVV", "public_transport": "platform", "shelter": "yes", "tactile_paving": "no", "wheelchair": "yes"}}, {"type": "node", "id": 277800982, "lat": 53.6437623, "lon": 10.1206688, "tags": {"bench": "no", "bin": "yes", "highway": "bus_stop", "lit": "yes", "name": "Alter Berner Weg", "network": "HVV", "public_transport": "platform", "route_ref": "168;368", "shelter": "no", "tactile_paving": "no"}}, {"type": "node", "id": 277958320, "lat": 53.6366086, "lon": 9.8380933, "tags": {"bench": "yes", "bin": "yes", "bus": "yes", "highway": "bus_stop", "name": "Halstenbek, Friedenstraße", "public_transport": "platform", "route_ref": "185", "shelter": "yes", "tactile_paving": "no"}}, {"type": "node", "id": 277969865, "lat": 53.5786401, "lon": 10.0498553, "tags": {"bench": "yes", "bin": "yes", "bus": "yes", "highway": "bus_stop", "lit": "yes", "name": "Schön Klinik Eilbek", "public_transport": "platform", "shelter": "yes", "tactile_paving": "no", "wheelchair": "yes"}}, {"type": "node", "id": 277969866, "lat": 53.5787755, "lon": 10.0497166, "tags": {"bench": "yes", "bin": "yes", "bus": "yes", "check_date:shelter": "2023-02-11", "highway": "bus_stop", "lit": "yes", "name": "Schön Klinik Eilbek", "public_transport": "platform", "shelter": "yes", "tactile_paving": "no", "wheelchair": "yes"}}, {"type": "node", "id": 278201039, "lat": 53.5795792, "lon": 9.8300091, "tags": {"bench": "yes", "bin": "yes", "highway": "bus_stop", "lit": "yes", "name": "Heerbrook", "public_transport": "platform", "shelter": "yes", "tactile_paving": "yes"}}, {"type": "node", "id": 278201040, "lat": 53.579794, "lon": 9.8301239, "tags": {"bench": "yes", "bin": "yes", "highway": "bus_stop", "lit": "yes", "name": "Heerbrook", "public_transport": "platform", "shelter": "yes", "tactile_paving": "yes"}}, {"type": "node", "id": 278242428, "lat": 53.4341061, "lon": 10.0108613, "tags": {"bench": "yes", "bin": "yes", "highway": "bus_stop", "name": "An der Eiche", "public_transport": "platform", "route_ref": "141", "shelter": "yes", "tactile_paving": "no"}}, {"type": "node", "id": 278242431, "lat": 53.4342452, "lon": 10.0102306, "tags": {"bench": "no", "bin": "no", "highway": "bus_stop", "name": "An der Eiche", "public_transport": "platform", "route_ref": "141", "shelter": "no", "tactile_paving": "no"}}, {"type": "node", "id": 278242435, "lat": 53.4374749, "lon": 10.0041248, "tags": {"bench": "yes", "bin": "yes", "highway": "bus_stop", "name": "Küstersweg", "public_transport": "platform", "shelter": "yes", "tactile_paving": "no", "wheelchair": "yes"}}, {"type": "node", "id": 278242437, "lat": 53.4375669, "lon": 10.0037892, "tags": {"bench": "no", "bin": "no", "highway": "bus_stop", "name": "Küstersweg", "public_transport": "platform", "shelter": "no", "tactile_paving": "no", "wheelchair": "yes"}}, {"type": "node", "id": 278242441, "lat": 53.4398846, "lon": 10.0018179, "tags": {"bench": "yes", "bin": "yes", "highway": "bus_stop", "lit": "yes", "name": "Radickestraße", "public_transport": "platform", "shelter": "yes", "tactile_paving": "yes", "wheelchair": "yes"}}, {"type": "node", "id": 278242444, "lat": 53.440013, "lon": 10.0013853, "tags": {"bench": "no", "bin": "yes", "highway": "bus_stop", "lit": "yes", "name": "Radickestraße", "public_transport": "platform", "shelter": "no", "tactile_paving": "yes", "wheelchair": "yes"}}, {"type": "node", "id": 278242448, "lat": 53.4427442, "lon": 9.9971391, "tags": {"bench": "yes", "bin": "yes", "bus": "yes", "highway": "bus_stop", "name": "Mensingstraße", "network": "Hamburger Verkehrsverbund", "network:short": "HVV", "network:wikidata": "Q896916", "network:wikipedia": "de:Hamburger Verkehrsverbund", "public_transport": "platform", "shelter": "yes", "tactile_paving": "no", "wheelchair": "limited"}}, {"type": "node", "id": 278242450, "lat": 53.4426163, "lon": 9.9971115, "tags": {"bench": "no", "bin": "yes", "bus": "yes", "highway": "bus_stop", "name": "Mensingstraße", "network": "Hamburger Verkehrsverbund", "network:short": "HVV", "network:wikidata": "Q896916", "network:wikipedia": "de:Hamburger Verkehrsverbund", "public_transport": "platform", "shelter": "no", "tactile_paving": "no", "wheelchair": "limited"}}, {"type": "node", "id": 278325617, "lat": 53.5732721, "lon": 9.8469399, "tags": {"bench": "no", "bin": "yes", "bus": "yes", "highway": "bus_stop", "lit": "yes", "name": "Langelohstraße (Nord)", "public_transport": "platform", "route_ref": "21", "shelter": "yes", "tactile_paving": "no"}}, {"type": "node", "id": 278487908, "lat": 53.5944431, "lon": 10.0441399, "tags": {"bench": "yes", "bin": "yes", "bus": "yes", "check_date:shelter": "2023-10-12", "highway": "bus_stop", "lit": "yes", "name": "Hermann-Kauffmann-Straße", "passenger_information_display": "yes", "public_transport": "platform", "shelter": "yes", "tactile_paving": "yes", "wheelchair": "yes"}}, {"type": "node", "id": 278487917, "lat": 53.5940619, "lon": 10.0440401, "tags": {"bench": "yes", "bin": "yes", "bus": "yes", "check_date:shelter": "2023-10-12", "highway": "bus_stop", "lit": "yes", "name": "Hermann-Kauffmann-Straße", "passenger_information_display": "yes", "public_transport": "platform", "shelter": "yes", "tactile_paving": "yes", "wheelchair": "yes"}}, {"type": "node", "id": 278844612, "lat": 53.5515032, "lon": 10.0041463, "tags": {"bench": "yes", "bin": "yes", "bus": "yes", "check_date:shelter": "2024-02-17", "highway": "bus_stop", "lit": "yes", "name": "Hauptbahnhof/Mönckebergstraße", "passenger_information_display": "yes", "public_transport": "platform", "shelter": "yes", "tactile_paving": "no", "wheelchair": "yes"}}, {"type": "node", "id": 278844726, "lat": 53.5515913, "lon": 10.0037825, "tags": {"bench": "yes", "bin": "yes", "bus": "yes", "highway": "bus_stop", "lit": "yes", "name": "Hauptbahnhof/Mönckebergstraße", "passenger_information_display": "yes", "public_transport": "platform", "route_ref": "3;5;19;6xx", "shelter": "no", "tactile_paving": "no", "wheelchair": "yes"}}, {"type": "node", "id": 279023057, "lat": 53.5788449, "lon": 10.0138237, "tags": {"bench": "yes", "bin": "yes", "highway": "bus_stop", "lit": "yes", "name": "Hans-Henny-Jahnn-Weg", "passenger_information_display": "yes", "public_transport": "platform", "shelter": "yes", "tactile_paving": "no", "wheelchair": "yes"}}, {"type": "node", "id": 279023058, "lat": 53.5786675, "lon": 10.0137252, "tags": {"bench": "yes", "bin": "yes", "highway": "bus_stop", "lit": "yes", "name": "Hans-Henny-Jahnn-Weg", "passenger_information_display": "yes", "public_transport": "platform", "shelter": "yes", "tactile_paving": "no", "wheelchair": "yes"}}, {"type": "node", "id": 279023065, "lat": 53.580395, "lon": 10.0195394, "tags": {"bench": "yes", "bin": "yes", "highway": "bus_stop", "lit": "yes", "name": "Herderstraße", "public_transport": "platform", "shelter": "yes", "tactile_paving": "no"}}, {"type": "node", "id": 279023067, "lat": 53.5808123, "lon": 10.0204696, "tags": {"bench": "no", "bin": "yes", "bus": "yes", "highway": "bus_stop", "lit": "yes", "name": "Herderstraße", "public_transport": "platform", "shelter": "no", "tactile_paving": "no"}}, {"type": "node", "id": 279023068, "lat": 53.5784072, "lon": 10.0218767, "tags": {"bench": "yes", "bin": "yes", "highway": "bus_stop", "lit": "yes", "name": "Mozartstraße", "public_transport": "platform", "shelter": "yes", "tactile_paving": "no"}}, {"type": "node", "id": 279023077, "lat": 53.5766365, "lon": 10.0239005, "tags": {"bench": "no", "bin": "yes", "highway": "bus_stop", "lit": "yes", "name": "Schumannstraße", "public_transport": "platform", "shelter": "yes", "tactile_paving": "no", "wheelchair": "yes"}}, {"type": "node", "id": 279129935, "lat": 53.5747722, "lon": 10.0219395, "tags": {"bench": "yes", "bin": "yes", "bus": "yes", "check_date:shelter": "2023-09-03", "highway": "bus_stop", "lit": "yes", "name": "Beethovenstraße", "network": "Hamburger Verkehrsverbund", "network:short": "HVV", "network:wikidata": "Q896916", "public_transport": "platform", "route_ref": "172;173", "shelter": "yes", "tactile_paving": "yes"}}, {"type": "node", "id": 279129936, "lat": 53.5745699, "lon": 10.0217767, "tags": {"bench": "yes", "bin": "yes", "bus": "yes", "highway": "bus_stop", "lit": "yes", "name": "Beethovenstraße", "network": "Hamburger Verkehrsverbund", "network:short": "HVV", "network:wikidata": "Q896916", "passenger_information_display": "yes", "public_transport": "platform", "route_ref": "172;173", "shelter": "yes", "tactile_paving": "yes", "wheelchair": "yes"}}, {"type": "node", "id": 279129964, "lat": 53.5788312, "lon": 10.0322302, "tags": {"bench": "yes", "bin": "yes", "bus": "yes", "check_date:shelter": "2023-06-23", "highway": "bus_stop", "lit": "yes", "name": "Biedermannplatz", "public_transport": "platform", "shelter": "yes", "tactile_paving": "no", "wheelchair": "yes"}}, {"type": "node", "id": 279139241, "lat": 53.6562866, "lon": 10.1600058, "tags": {"bench": "yes", "bin": "yes", "bus": "yes", "check_date:shelter": "2021-06-24", "highway": "bus_stop", "lit": "yes", "name": "Rögenweg", "network": "HVV", "public_transport": "platform", "shelter": "yes", "tactile_paving": "yes", "wheelchair": "yes"}}, {"type": "node", "id": 279139265, "lat": 53.653333, "lon": 10.1510159, "tags": {"bench": "yes", "bin": "yes", "bus": "yes", "highway": "bus_stop", "lit": "yes", "name": "Rögenfeld", "network": "HVV", "public_transport": "platform", "shelter": "yes", "tactile_paving": "no"}}, {"type": "node", "id": 279139270, "lat": 53.6560678, "lon": 10.1345964, "tags": {"bench": "yes", "bin": "yes", "bus": "yes", "highway": "bus_stop", "lit": "yes", "name": "Saselbekstraße", "network": "HVV", "public_transport": "platform", "shelter": "yes", "tactile_paving": "no", "wheelchair": "yes"}}, {"type": "node", "id": 279463433, "lat": 53.4721768, "lon": 10.2618558, "tags": {"bench": "yes", "bicycle_parking": "yes", "bin": "yes", "highway": "bus_stop", "lit": "yes", "name": "Speckenweg", "public_transport": "platform", "route_ref": "228;8890", "shelter": "yes", "tactile_paving": "no"}}, {"type": "node", "id": 279463969, "lat": 53.4725894, "lon": 10.2604537, "tags": {"bench": "no", "bin": "yes", "highway": "bus_stop", "lit": "no", "name": "Speckenweg", "passenger_information_display": "no", "public_transport": "platform", "route_ref": "228;328;8890", "shelter": "no", "tactile_paving": "yes", "wheelchair": "yes"}}, {"type": "node", "id": 279559097, "lat": 53.4776963, "lon": 10.2416583, "tags": {"bench": "yes", "bin": "yes", "bus": "yes", "highway": "bus_stop", "lit": "yes", "name": "Holtenklinke", "public_transport": "platform", "shelter": "yes", "tactile_paving": "no"}}, {"type": "node", "id": 279890311, "lat": 53.5692398, "lon": 9.8663075, "tags": {"bench": "yes", "bin": "yes", "bus": "yes", "check_date:shelter": "2023-08-29", "highway": "bus_stop", "lit": "yes", "name": "Ostermeyerstraße", "public_transport": "platform", "shelter": "yes", "tactile_paving": "no"}}, {"type": "node", "id": 279903074, "lat": 53.5713749, "lon": 9.8684508, "tags": {"bench": "yes", "bin": "yes", "bus": "yes", "highway": "bus_stop", "lit": "yes", "name": "Windmühlenweg", "public_transport": "platform", "shelter": "yes", "tactile_paving": "yes"}}, {"type": "node", "id": 279903093, "lat": 53.5710854, "lon": 9.870117, "tags": {"bench": "yes", "bin": "yes", "bus": "yes", "highway": "bus_stop", "lit": "yes", "name": "Windmühlenweg", "public_transport": "platform", "route_ref": "1;186;601;621", "shelter": "yes", "tactile_paving": "yes"}}, {"type": "node", "id": 280362980, "lat": 53.4722361, "lon": 9.882688, "tags": {"bench": "yes", "bin": "yes", "bus": "yes", "highway": "bus_stop", "lit": "yes", "name": "Talweg", "public_transport": "platform", "shelter": "yes", "tactile_paving": "no", "wheelchair": "yes"}}, {"type": "node", "id": 280785142, "lat": 53.5561822, "lon": 9.9773358, "tags": {"bench": "yes", "bin": "yes", "bus": "yes", "highway": "bus_stop", "lit": "yes", "name": "Sievekingplatz", "network": "Hamburger Verkehrsverbund", "network:short": "HVV", "network:wikidata": "Q896916", "network:wikipedia": "de:Hamburger Verkehrsverbund", "passenger_information_display": "yes", "public_transport": "platform", "shelter": "yes", "tactile_paving": "no", "wheelchair": "limited"}}, {"type": "node", "id": 280785143, "lat": 53.5559036, "lon": 9.9774258, "tags": {"bench": "yes", "bin": "yes", "bus": "yes", "check_date:shelter": "2021-09-12", "highway": "bus_stop", "lit": "yes", "name": "Sievekingplatz", "network": "Hamburger Verkehrsverbund", "network:short": "HVV", "network:wikidata": "Q896916", "network:wikipedia": "de:Hamburger Verkehrsverbund", "passenger_information_display": "yes", "public_transport": "platform", "shelter": "yes", "tactile_paving": "no", "wheelchair": "limited"}}, {"type": "node", "id": 280785145, "lat": 53.5547806, "lon": 9.9813267, "tags": {"bench": "yes", "bin": "yes", "bus": "yes", "check_date:shelter": "2023-09-16", "highway": "bus_stop", "lit": "yes", "name": "Johannes-Brahms-Platz", "network": "HVV", "passenger_information_display": "yes", "public_transport": "platform", "shelter": "yes", "tactile_paving": "no", "wheelchair": "yes"}}, {"type": "node", "id": 280785146, "lat": 53.5544136, "lon": 9.9816403, "tags": {"bus": "yes", "check_date:shelter": "2021-03-06", "highway": "bus_stop", "name": "Johannes-Brahms-Platz", "network": "HVV", "passenger_information_display": "yes", "public_transport": "platform", "shelter": "yes", "wheelchair": "yes"}}, {"type": "node", "id": 280785148, "lat": 53.5523907, "lon": 9.9852323, "tags": {"bench": "yes", "bin": "yes", "bus": "yes", "highway": "bus_stop", "lit": "yes", "name": "Axel-Springer-Platz", "passenger_information_display": "yes", "public_transport": "platform", "shelter": "yes", "tactile_paving": "yes"}}, {"type": "node", "id": 280785149, "lat": 53.5514287, "lon": 9.9856411, "tags": {"bench": "yes", "bin": "yes", "bus": "yes", "highway": "bus_stop", "lit": "yes", "name": "Axel-Springer-Platz", "public_transport": "platform", "shelter": "yes", "tactile_paving": "yes"}}, {"type": "node", "id": 280785152, "lat": 53.5503904, "lon": 9.993798, "tags": {"bench": "no", "bin": "yes", "bus": "yes", "highway": "bus_stop", "lit": "yes", "local_ref": "A", "name": "Rathausmarkt", "passenger_information_display": "yes", "public_transport": "platform", "route_ref": "3;17;31;34;35;37;601;607;608;609", "shelter": "no", "tactile_paving": "no", "wheelchair": "yes"}}, {"type": "node", "id": 280785154, "lat": 53.5503215, "lon": 9.9940737, "tags": {"bench": "yes", "bin": "yes", "bus": "yes", "check_date:shelter": "2022-10-30", "highway": "bus_stop", "lit": "yes", "local_ref": "F", "name": "Rathausmarkt", "passenger_information_display": "yes", "public_transport": "platform", "shelter": "yes", "tactile_paving": "no", "wheelchair": "yes"}}, {"type": "node", "id": 280810387, "lat": 53.5470248, "lon": 10.0612712, "tags": {"bench": "yes", "bin": "yes", "bus": "yes", "check_date:shelter": "2023-09-24", "highway": "bus_stop", "lit": "yes", "name": "Braune Brücke", "public_transport": "platform", "shelter": "yes", "tactile_paving": "no", "wheelchair": "yes"}}, {"type": "node", "id": 280810444, "lat": 53.5464236, "lon": 10.0608406, "tags": {"bench": "yes", "bin": "yes", "bus": "yes", "highway": "bus_stop", "lit": "yes", "name": "Braune Brücke", "public_transport": "platform", "shelter": "yes", "tactile_paving": "no", "wheelchair": "yes"}}, {"type": "node", "id": 280810722, "lat": 53.5471562, "lon": 10.0572752, "tags": {"bench": "yes", "bin": "yes", "bus": "yes", "highway": "bus_stop", "lit": "yes", "name": "Osterbrookplatz", "public_transport": "platform", "ref": "100019", "shelter": "yes", "tactile_paving": "yes", "wheelchair": "yes"}}, {"type": "node", "id": 280810748, "lat": 53.5470458, "lon": 10.0576027, "tags": {"bench": "no", "bin": "yes", "bus": "yes", "description:de": "Nur zum Austeigen!", "highway": "bus_stop", "lit": "yes", "name": "Osterbrookplatz", "public_transport": "platform", "ref": "100017", "shelter": "no", "tactile_paving": "no", "wheelchair": "yes"}}, {"type": "node", "id": 280954828, "lat": 53.6322377, "lon": 10.1052861, "tags": {"bench": "yes", "highway": "bus_stop", "name": "Grootmoor", "public_transport": "platform", "shelter": "yes", "tactile_paving": "yes", "wheelchair": "yes"}}, {"type": "node", "id": 281303535, "lat": 53.4719931, "lon": 9.8844338, "tags": {"bench": "yes", "bin": "yes", "bus": "yes", "highway": "bus_stop", "lit": "yes", "name": "Talweg", "public_transport": "platform", "shelter": "yes", "tactile_paving": "no"}}, {"type": "node", "id": 282029163, "lat": 53.5552085, "lon": 9.9513929, "tags": {"bench": "yes", "bin": "yes", "highway": "bus_stop", "lit": "yes", "name": "Thadenstraße (West)", "public_transport": "platform", "shelter": "yes", "tactile_paving": "no"}}, {"type": "node", "id": 282860675, "lat": 53.5840675, "lon": 10.0207113, "tags": {"bench": "no", "bin": "yes", "highway": "bus_stop", "lit": "yes", "name": "Jarrestraße (Kampnagel)", "public_transport": "platform", "shelter": "no", "tactile_paving": "no", "wheelchair": "yes"}}, {"type": "node", "id": 282860677, "lat": 53.5838648, "lon": 10.0203806, "tags": {"bench": "yes", "bin": "yes", "highway": "bus_stop", "lit": "yes", "name": "Jarrestraße (Kampnagel)", "public_transport": "platform", "shelter": "yes", "tactile_paving": "no", "wheelchair": "yes"}}, {"type": "node", "id": 282860685, "lat": 53.5869284, "lon": 10.0175085, "tags": {"bench": "no", "bin": "yes", "highway": "bus_stop", "lit": "yes", "name": "Semperstraße", "public_transport": "platform", "shelter": "yes", "tactile_paving": "no", "wheelchair": "yes"}}, {"type": "node", "id": 282860686, "lat": 53.5863188, "lon": 10.016876, "tags": {"bench": "yes", "bin": "yes", "bus": "yes", "check_date:shelter": "2023-08-09", "highway": "bus_stop", "lit": "yes", "name": "Semperstraße", "passenger_information_display": "yes", "public_transport": "platform", "route_ref": "6;17", "shelter": "yes", "tactile_paving": "no", "wheelchair": "yes"}}, {"type": "node", "id": 283641973, "lat": 53.4846234, "lon": 10.2897052, "tags": {"bench": "no", "bin": "yes", "highway": "bus_stop", "name": "Neu Börnsen, Börnsener Straße", "public_transport": "platform", "route_ref": "8811;8890;8895", "shelter": "no", "tactile_paving": "no", "wheelchair": "limited"}}, {"type": "node", "id": 285612065, "lat": 53.5950926, "lon": 9.9854373, "tags": {"bench": "yes", "bin": "yes", "bus": "yes", "highway": "bus_stop", "lit": "yes", "name": "Lokstedter Weg", "network": "HVV", "public_transport": "platform", "shelter": "yes", "tactile_paving": "no", "wheelchair": "yes"}}, {"type": "node", "id": 285618307, "lat": 53.6011138, "lon": 9.9847885, "tags": {"bench": "yes", "bin": "yes", "highway": "bus_stop", "lit": "yes", "name": "Nedderfeld (Anscharhöhe)", "public_transport": "platform", "shelter": "yes", "tactile_paving": "no", "wheelchair": "yes"}}, {"type": "node", "id": 285618314, "lat": 53.5998394, "lon": 9.9837472, "tags": {"bench": "yes", "bin": "yes", "highway": "bus_stop", "lit": "yes", "name": "Nedderfeld (Anscharhöhe)", "public_transport": "platform", "shelter": "yes", "tactile_paving": "no", "wheelchair": "yes"}}, {"type": "node", "id": 285624308, "lat": 53.6126269, "lon": 10.0164746, "tags": {"bench": "yes", "bin": "yes", "bus_lines": "26;179", "highway": "bus_stop", "lit": "yes", "name": "Knappe Böge", "public_transport": "platform", "shelter": "yes", "tactile_paving": "no", "wheelchair": "yes"}}, {"type": "node", "id": 285624313, "lat": 53.6148367, "lon": 10.0219826, "tags": {"bench": "yes", "bin": "yes", "highway": "bus_stop", "lit": "yes", "name": "Stiftung Alsterdorf", "public_transport": "platform", "shelter": "yes", "tactile_paving": "no"}}, {"type": "node", "id": 285629444, "lat": 53.6171653, "lon": 10.0267012, "tags": {"bench": "yes", "bin": "yes", "highway": "bus_stop", "lit": "yes", "name": "Alsterdorfer Straße/Überseekolleg", "public_transport": "platform", "shelter": "yes", "tactile_paving": "no", "wheelchair": "limited"}}, {"type": "node", "id": 286214614, "lat": 53.6168229, "lon": 10.0257139, "tags": {"bench": "yes", "bin": "yes", "highway": "bus_stop", "lit": "yes", "name": "Alsterdorfer Straße/Überseekolleg", "public_transport": "platform", "shelter": "yes", "tactile_paving": "no", "wheelchair": "limited"}}, {"type": "node", "id": 286216024, "lat": 53.6145574, "lon": 10.0211885, "tags": {"bench": "yes", "bin": "yes", "bus": "yes", "highway": "bus_stop", "lit": "yes", "name": "Stiftung Alsterdorf", "network": "Hamburger Verkehrsverbund", "network:short": "HVV", "network:wikidata": "Q896916", "public_transport": "platform", "shelter": "yes", "tactile_paving": "no"}}, {"type": "node", "id": 286216029, "lat": 53.6124616, "lon": 10.0156048, "tags": {"bench": "yes", "bin": "yes", "bus_lines": "26;179", "highway": "bus_stop", "lit": "yes", "name": "Knappe Böge", "public_transport": "platform", "shelter": "yes", "tactile_paving": "no"}}, {"type": "node", "id": 286216942, "lat": 53.6067327, "lon": 9.9930841, "tags": {"bench": "no", "bin": "yes", "bus": "yes", "highway": "bus_stop", "lit": "yes", "name": "Inselstraße", "public_transport": "platform", "shelter": "no", "tactile_paving": "no"}}, {"type": "node", "id": 286216948, "lat": 53.6056542, "lon": 9.9962445, "tags": {"bench": "yes", "bin": "no", "bus": "yes", "highway": "bus_stop", "lit": "yes", "name": "Bebelallee", "public_transport": "platform", "shelter": "yes", "tactile_paving": "no"}}, {"type": "node", "id": 286523639, "lat": 53.6089149, "lon": 10.0109192, "tags": {"bench": "yes", "bin": "yes", "check_date:shelter": "2021-04-01", "highway": "bus_stop", "lit": "yes", "name": "Hindenburgstraße", "public_transport": "platform", "shelter": "yes", "tactile_paving": "no", "wheelchair": "yes"}}, {"type": "node", "id": 286523646, "lat": 53.6085064, "lon": 10.0099521, "tags": {"bench": "no", "bin": "yes", "bus": "yes", "check_date:shelter": "2021-04-01", "highway": "bus_stop", "lit": "yes", "name": "Hindenburgstraße", "public_transport": "platform", "shelter": "no", "tactile_paving": "no", "wheelchair": "yes"}}, {"type": "node", "id": 286523846, "lat": 53.6073966, "lon": 10.0054328, "tags": {"bench": "yes", "bin": "yes", "highway": "bus_stop", "lit": "yes", "name": "Carl-Cohn-Straße", "public_transport": "platform", "shelter": "yes", "tactile_paving": "yes", "wheelchair": "yes"}}, {"type": "node", "id": 286523852, "lat": 53.6068624, "lon": 10.0039571, "tags": {"bench": "no", "bin": "yes", "highway": "bus_stop", "lit": "yes", "name": "Carl-Cohn-Straße", "public_transport": "platform", "shelter": "no", "tactile_paving": "no", "wheelchair": "limited"}}, {"type": "node", "id": 286524385, "lat": 53.604798, "lon": 9.9996081, "tags": {"bench": "yes", "bin": "yes", "bus": "yes", "highway": "bus_stop", "lit": "yes", "name": "Wilhelm-Metzger-Straße", "public_transport": "platform", "shelter": "yes", "tactile_paving": "no", "wheelchair": "yes"}}, {"type": "node", "id": 286525325, "lat": 53.6015545, "lon": 9.9966698, "tags": {"bench": "yes", "bin": "yes", "bus": "yes", "highway": "bus_stop", "lit": "yes", "name": "Braamkamp", "public_transport": "platform", "shelter": "yes", "tactile_paving": "no"}}, {"type": "node", "id": 286525327, "lat": 53.6016111, "lon": 9.9969411, "tags": {"bench": "yes", "bin": "yes", "bus": "yes", "highway": "bus_stop", "lit": "yes", "name": "Braamkamp", "public_transport": "platform", "shelter": "yes", "tactile_paving": "no"}}, {"type": "node", "id": 286525437, "lat": 53.5972443, "lon": 9.9968825, "tags": {"bench": "yes", "bin": "no", "bus": "yes", "highway": "bus_stop", "lit": "yes", "name": "Lattenkampstieg", "public_transport": "platform", "shelter": "yes", "tactile_paving": "no", "wheelchair": "yes"}}, {"type": "node", "id": 286525439, "lat": 53.5976983, "lon": 9.9970617, "tags": {"bench": "yes", "bin": "yes", "bus": "yes", "highway": "bus_stop", "lit": "yes", "name": "Lattenkampstieg", "public_transport": "platform", "shelter": "yes", "tactile_paving": "no", "wheelchair": "yes"}}, {"type": "node", "id": 286526597, "lat": 53.5946474, "lon": 9.9991383, "tags": {"bench": "yes", "bin": "yes", "bus": "yes", "check_date:shelter": "2023-09-09", "highway": "bus_stop", "lit": "yes", "name": "Winterhuder Marktplatz", "network": "Hamburger Verkehrsverbund", "network:short": "HVV", "network:wikidata": "Q896916", "passenger_information_display": "yes", "public_transport": "platform", "shelter": "yes", "tactile_paving": "no", "wheelchair": "yes"}}, {"type": "node", "id": 286526599, "lat": 53.5944048, "lon": 9.9995847, "tags": {"bench": "yes", "bin": "yes", "bus": "yes", "highway": "bus_stop", "lit": "yes", "name": "Winterhuder Marktplatz", "network": "Hamburger Verkehrsverbund", "network:short": "HVV", "network:wikidata": "Q896916", "passenger_information_display": "yes", "public_transport": "platform", "shelter": "yes", "tactile_paving": "no", "wheelchair": "yes"}}, {"type": "node", "id": 286529865, "lat": 53.5941193, "lon": 9.9960564, "tags": {"bench": "no", "bin": "yes", "bus": "yes", "highway": "bus_stop", "lit": "yes", "name": "U Hudtwalckerstraße", "network": "Hamburger Verkehrsverbund", "network:short": "HVV", "network:wikidata": "Q896916", "passenger_information_display": "yes", "public_transport": "platform", "shelter": "no", "tactile_paving": "no", "wheelchair": "yes"}}, {"type": "node", "id": 286529866, "lat": 53.5941811, "lon": 9.9968114, "tags": {"bench": "yes", "bin": "yes", "bus": "yes", "highway": "bus_stop", "lit": "yes", "name": "U Hudtwalckerstraße", "network": "Hamburger Verkehrsverbund", "network:short": "HVV", "network:wikidata": "Q896916", "passenger_information_display": "yes", "public_transport": "platform", "shelter": "yes", "tactile_paving": "no", "wheelchair": "yes"}}, {"type": "node", "id": 286535853, "lat": 53.5929806, "lon": 9.9890195, "tags": {"bench": "yes", "bin": "yes", "bus": "yes", "highway": "bus_stop", "lit": "yes", "name": "Eppendorfer Marktplatz", "network": "Hamburger Verkehrsverbund", "network:short": "HVV", "network:wikidata": "Q896916", "network:wikipedia": "de:Hamburger Verkehrsverbund", "passenger_information_display": "yes", "public_transport": "platform", "shelter": "yes", "tactile_paving": "no", "wheelchair": "yes"}}, {"type": "node", "id": 286536130, "lat": 53.5973158, "lon": 9.9794617, "tags": {"bench": "no", "bin": "yes", "highway": "bus_stop", "lit": "yes", "name": "Frickestraße", "public_transport": "platform", "shelter": "no", "tactile_paving": "no", "wheelchair": "yes"}}, {"type": "node", "id": 286536131, "lat": 53.5977707, "lon": 9.9773575, "tags": {"bench": "yes", "bin": "yes", "highway": "bus_stop", "lit": "yes", "name": "Frickestraße", "public_transport": "platform", "shelter": "yes", "tactile_paving": "no", "wheelchair": "yes"}}, {"type": "node", "id": 286536326, "lat": 53.5984195, "lon": 9.9725096, "tags": {"bench": "yes", "bin": "yes", "highway": "bus_stop", "lit": "yes", "name": "Offakamp", "public_transport": "platform", "shelter": "yes", "tactile_paving": "no"}}, {"type": "node", "id": 286536328, "lat": 53.5987615, "lon": 9.9710639, "tags": {"bench": "yes", "bin": "yes", "highway": "bus_stop", "lit": "yes", "name": "Offakamp", "public_transport": "platform", "shelter": "yes", "tactile_paving": "no"}}, {"type": "node", "id": 286537134, "lat": 53.5946129, "lon": 9.9666637, "tags": {"bench": "yes", "bin": "yes", "bus": "yes", "highway": "bus_stop", "lit": "yes", "local_ref": "2", "name": "Brunsberg", "network": "Hamburger Verkehrsverbund", "network:short": "HVV", "network:wikidata": "Q896916", "network:wikipedia": "de:Hamburger Verkehrsverbund", "public_transport": "platform", "shelter": "yes", "tactile_paving": "yes", "wheelchair": "yes"}}, {"type": "node", "id": 286537136, "lat": 53.5935613, "lon": 9.9665356, "tags": {"bench": "yes", "bin": "yes", "bus": "yes", "highway": "bus_stop", "lit": "yes", "local_ref": "1", "name": "Brunsberg", "network": "Hamburger Verkehrsverbund", "network:short": "HVV", "network:wikidata": "Q896916", "network:wikipedia": "de:Hamburger Verkehrsverbund", "passenger_information_display": "yes", "public_transport": "platform", "shelter": "yes", "tactile_paving": "yes", "wheelchair": "yes"}}, {"type": "node", "id": 286725371, "lat": 53.5520008, "lon": 9.9402004, "tags": {"bench": "yes", "bin": "yes", "bus": "yes", "highway": "bus_stop", "lit": "yes", "name": "Goethestraße", "public_transport": "platform", "shelter": "yes", "tactile_paving": "no", "wheelchair": "yes"}}, {"type": "node", "id": 286725372, "lat": 53.5516093, "lon": 9.9457683, "tags": {"bench": "yes", "bin": "yes", "bus": "yes", "highway": "bus_stop", "lit": "yes", "name": "Große Bergstraße", "public_transport": "platform", "shelter": "yes", "tactile_paving": "no", "wheelchair": "yes"}}, {"type": "node", "id": 286885723, "lat": 53.4242003, "lon": 9.9733134, "tags": {"bench": "no", "bin": "no", "highway": "bus_stop", "name": "Sinstorfer Kirche", "public_transport": "platform", "route_ref": "143", "shelter": "no", "tactile_paving": "no", "wheelchair": "limited"}}, {"type": "node", "id": 287057344, "lat": 53.6148516, "lon": 10.0355221, "tags": {"bench": "yes", "bin": "yes", "bus": "yes", "highway": "bus_stop", "lit": "yes", "name": "Feuerbergstraße", "network": "Hamburger Verkehrsverbund", "network:short": "HVV", "network:wikidata": "Q896916", "public_transport": "platform", "shelter": "yes", "tactile_paving": "yes"}}, {"type": "node", "id": 287057349, "lat": 53.6121673, "lon": 10.0368759, "tags": {"bench": "yes", "bin": "yes", "bus": "yes", "highway": "bus_stop", "lit": "yes", "name": "Schmuckshöhe", "public_transport": "platform", "shelter": "yes", "tactile_paving": "yes"}}, {"type": "node", "id": 287057363, "lat": 53.6077994, "lon": 10.0385433, "tags": {"bench": "no", "bin": "yes", "bus": "yes", "highway": "bus_stop", "lit": "yes", "name": "Hebebrandstraße", "network": "Hamburger Verkehrsverbund", "network:short": "HVV", "network:wikidata": "Q896916", "network:wikipedia": "de:Hamburger Verkehrsverbund", "passenger_information_display": "yes", "public_transport": "platform", "shelter": "yes", "tactile_paving": "yes"}}, {"type": "node", "id": 287058365, "lat": 53.6049467, "lon": 10.0401638, "tags": {"bench": "yes", "bin": "yes", "bus": "yes", "highway": "bus_stop", "lit": "yes", "name": "AK Barmbek", "network": "Hamburger Verkehrsverbund", "network:short": "HVV", "network:wikidata": "Q896916", "passenger_information_display": "yes", "public_transport": "platform", "shelter": "yes", "tactile_paving": "yes", "wheelchair": "yes"}}, {"type": "node", "id": 287058367, "lat": 53.6017772, "lon": 10.040751, "tags": {"bench": "yes", "bin": "yes", "bus": "yes", "check_date:shelter": "2024-02-06", "highway": "bus_stop", "lit": "yes", "name": "Hartzloh", "passenger_information_display": "yes", "public_transport": "platform", "shelter": "yes", "tactile_paving": "yes"}}, {"type": "node", "id": 287058369, "lat": 53.6020117, "lon": 10.0409897, "tags": {"bench": "yes", "bin": "yes", "bus": "yes", "check_date:shelter": "2024-02-06", "highway": "bus_stop", "lit": "yes", "name": "Hartzloh", "passenger_information_display": "yes", "public_transport": "platform", "shelter": "yes", "tactile_paving": "yes"}}, {"type": "node", "id": 287453684, "lat": 53.6088366, "lon": 10.0122228, "tags": {"bench": "yes", "bin": "yes", "check_date:shelter": "2021-08-06", "highway": "bus_stop", "lit": "yes", "name": "Hindenburgstraße", "public_transport": "platform", "shelter": "yes", "tactile_paving": "no", "wheelchair": "yes"}}, {"type": "node", "id": 287453686, "lat": 53.6084337, "lon": 10.0114548, "tags": {"bench": "yes", "bin": "yes", "check_date:shelter": "2021-06-14", "highway": "bus_stop", "lit": "yes", "name": "Hindenburgstraße", "public_transport": "platform", "shelter": "yes", "tactile_paving": "no", "wheelchair": "yes"}}, {"type": "node", "id": 287453697, "lat": 53.6068874, "lon": 10.0116862, "tags": {"bench": "yes", "bin": "yes", "bus": "yes", "highway": "bus_stop", "lit": "yes", "name": "U Alsterdorf", "network": "Hamburger Verkehrsverbund", "network:short": "HVV", "network:wikidata": "Q896916", "network:wikipedia": "de:Hamburger Verkehrsverbund", "passenger_information_display": "yes", "public_transport": "platform", "shelter": "yes", "tactile_paving": "yes", "wheelchair": "yes"}}, {"type": "node", "id": 287456060, "lat": 53.5884831, "lon": 9.9913222, "tags": {"bench": "yes", "bin": "yes", "check_date:shelter": "2021-09-24", "highway": "bus_stop", "lit": "yes", "name": "U Kellinghusenstraße", "passenger_information_display": "yes", "public_transport": "platform", "shelter": "yes", "tactile_paving": "yes", "wheelchair": "yes"}}, {"type": "node", "id": 287530962, "lat": 53.5999233, "lon": 9.9940395, "tags": {"bench": "yes", "bin": "yes", "bus": "yes", "highway": "bus_stop", "lit": "yes", "name": "U Lattenkamp", "passenger_information_display": "yes", "public_transport": "platform", "shelter": "yes", "tactile_paving": "yes", "wheelchair": "yes"}}, {"type": "node", "id": 287711857, "lat": 53.6057767, "lon": 9.9962347, "tags": {"bench": "yes", "bin": "no", "bus": "yes", "highway": "bus_stop", "lit": "yes", "name": "Bebelallee", "public_transport": "platform", "shelter": "no", "tactile_paving": "no"}}, {"type": "node", "id": 287711860, "lat": 53.6066268, "lon": 9.9936798, "tags": {"bench": "no", "bin": "yes", "bus": "yes", "highway": "bus_stop", "lit": "yes", "name": "Inselstraße", "public_transport": "platform", "shelter": "no", "tactile_paving": "no"}}, {"type": "node", "id": 287718800, "lat": 53.589094, "lon": 9.9576979, "tags": {"bench": "yes", "bin": "yes", "highway": "bus_stop", "lit": "yes", "name": "Veilchenweg (West)", "public_transport": "platform", "shelter": "yes", "tactile_paving": "yes", "wheelchair": "yes"}}, {"type": "node", "id": 287718808, "lat": 53.5883487, "lon": 9.9573837, "tags": {"bench": "yes", "bin": "yes", "highway": "bus_stop", "lit": "yes", "name": "Veilchenweg (West)", "public_transport": "platform", "shelter": "yes", "tactile_paving": "yes", "wheelchair": "yes"}}, {"type": "node", "id": 287719249, "lat": 53.5836963, "lon": 9.9558667, "tags": {"bench": "yes", "bin": "yes", "highway": "bus_stop", "lit": "yes", "name": "Sorthmannweg", "public_transport": "platform", "shelter": "yes", "tactile_paving": "yes", "wheelchair": "yes"}}, {"type": "node", "id": 287719254, "lat": 53.5838158, "lon": 9.9559524, "tags": {"bench": "yes", "bin": "yes", "highway": "bus_stop", "lit": "yes", "name": "Sorthmannweg", "public_transport": "platform", "shelter": "yes", "tactile_paving": "yes", "wheelchair": "yes"}}, {"type": "node", "id": 287719766, "lat": 53.5812402, "lon": 9.9566759, "tags": {"bench": "yes", "bin": "no", "bus": "yes", "highway": "bus_stop", "lit": "yes", "name": "Eidelstedter Weg", "public_transport": "platform", "shelter": "yes", "tactile_paving": "no", "wheelchair": "yes"}}, {"type": "node", "id": 287719771, "lat": 53.5806242, "lon": 9.9573242, "tags": {"bench": "yes", "bin": "yes", "bus": "yes", "highway": "bus_stop", "lit": "yes", "name": "Eidelstedter Weg", "public_transport": "platform", "shelter": "yes", "tactile_paving": "no", "wheelchair": "yes"}}, {"type": "node", "id": 287722786, "lat": 53.5591719, "lon": 9.9492898, "tags": {"bench": "yes", "bin": "yes", "bus": "yes", "highway": "bus_stop", "lit": "yes", "name": "Max-Brauer-Allee (Mitte)", "network": "Hamburger Verkehrsverbund", "network:short": "HVV", "network:wikidata": "Q896916", "network:wikipedia": "de:Hamburger Verkehrsverbund", "public_transport": "platform", "shelter": "yes", "tactile_paving": "no", "wheelchair": "yes"}}, {"type": "node", "id": 287722790, "lat": 53.5581156, "lon": 9.9493693, "tags": {"bench": "yes", "bin": "yes", "bus": "yes", "highway": "bus_stop", "lit": "yes", "name": "Max-Brauer-Allee (Mitte)", "network": "Hamburger Verkehrsverbund", "network:short": "HVV", "network:wikidata": "Q896916", "public_transport": "platform", "shelter": "yes", "tactile_paving": "no", "wheelchair": "limited"}}, {"type": "node", "id": 287723283, "lat": 53.5531871, "lon": 9.9542862, "tags": {"bench": "yes", "bin": "yes", "highway": "bus_stop", "lit": "yes", "name": "Paul-Roosen-Straße", "public_transport": "platform", "shelter": "yes", "tactile_paving": "no", "wheelchair": "limited"}}, {"type": "node", "id": 287723285, "lat": 53.5533638, "lon": 9.9544153, "tags": {"bench": "yes", "bin": "yes", "highway": "bus_stop", "lit": "yes", "name": "Paul-Roosen-Straße", "public_transport": "platform", "shelter": "yes", "tactile_paving": "no", "wheelchair": "limited"}}, {"type": "node", "id": 287875669, "lat": 53.5653419, "lon": 9.8015619, "tags": {"bench": "yes", "bin": "yes", "bus": "yes", "highway": "bus_stop", "lit": "yes", "name": "Karstenstraße", "public_transport": "platform", "shelter": "yes", "tactile_paving": "no", "wheelchair": "yes"}}, {"type": "node", "id": 287892666, "lat": 53.5511912, "lon": 9.9467365, "tags": {"bench": "yes", "bin": "yes", "bus": "yes", "highway": "bus_stop", "lit": "yes", "name": "Große Bergstraße", "public_transport": "platform", "route_ref": "37;112;238", "shelter": "yes", "tactile_paving": "yes", "wheelchair": "yes"}}, {"type": "node", "id": 287892667, "lat": 53.5512696, "lon": 9.9460469, "tags": {"bench": "yes", "bin": "yes", "bus": "yes", "highway": "bus_stop", "lit": "yes", "name": "Große Bergstraße", "public_transport": "platform", "shelter": "yes", "tactile_paving": "no", "wheelchair": "yes"}}, {"type": "node", "id": 288039516, "lat": 53.5341155, "lon": 10.0421783, "tags": {"bench": "no", "bin": "yes", "bus": "yes", "highway": "bus_stop", "lit": "yes", "name": "Billhorner Deich", "public_transport": "platform", "shelter": "yes", "tactile_paving": "no", "wheelchair": "yes"}}, {"type": "node", "id": 288039517, "lat": 53.5338314, "lon": 10.0456018, "tags": {"bench": "yes", "bin": "yes", "bus": "yes", "bus_lines": "120;124;130", "covered": "no", "highway": "bus_stop", "name": "Thiedingreihe", "passenger_information_display": "yes", "public_transport": "platform", "ref": "100066", "shelter": "yes", "wheelchair": "yes"}}, {"type": "node", "id": 288039528, "lat": 53.5333904, "lon": 10.0469566, "tags": {"bench": "yes", "bin": "yes", "highway": "bus_stop", "lit": "yes", "name": "Thiedingreihe", "public_transport": "platform", "shelter": "yes", "tactile_paving": "no", "wheelchair": "yes"}}, {"type": "node", "id": 288163398, "lat": 53.5342013, "lon": 10.0427591, "tags": {"bench": "yes", "bin": "yes", "bus": "yes", "check_date:shelter": "2024-03-01", "highway": "bus_stop", "lit": "yes", "name": "Billhorner Deich", "passenger_information_display": "yes", "public_transport": "platform", "route_ref": "120;124;130", "shelter": "yes", "tactile_paving": "no", "wheelchair": "yes"}}, {"type": "node", "id": 288255101, "lat": 53.5966516, "lon": 9.9880544, "tags": {"bench": "yes", "bin": "yes", "highway": "bus_stop", "lit": "yes", "name": "Schubackstraße", "public_transport": "platform", "shelter": "yes", "tactile_paving": "no"}}, {"type": "node", "id": 288255103, "lat": 53.5974067, "lon": 9.9892354, "tags": {"bench": "yes", "bin": "yes", "highway": "bus_stop", "lit": "yes", "name": "Schubackstraße", "public_transport": "platform", "shelter": "yes", "tactile_paving": "no"}}, {"type": "node", "id": 288256780, "lat": 53.5920775, "lon": 9.9830327, "tags": {"bench": "yes", "bin": "yes", "highway": "bus_stop", "lit": "yes", "name": "Julius-Reincke-Stieg (Bethanien)", "passenger_information_display": "yes", "public_transport": "platform", "shelter": "yes", "tactile_paving": "yes", "wheelchair": "yes"}}, {"type": "node", "id": 288256784, "lat": 53.591701, "lon": 9.9824509, "tags": {"bench": "yes", "bin": "yes", "highway": "bus_stop", "lit": "yes", "name": "Julius-Reincke-Stieg (Bethanien)", "passenger_information_display": "yes", "public_transport": "platform", "shelter": "yes", "tactile_paving": "yes", "wheelchair": "yes"}}, {"type": "node", "id": 288256786, "lat": 53.5899597, "lon": 9.9781218, "tags": {"bench": "yes", "bin": "yes", "bus": "yes", "highway": "bus_stop", "lit": "yes", "name": "Eppendorfer Park (UKE)", "network": "HVV", "network:wikidata": "Q896916", "network:wikipedia": "de:Hamburger Verkehrsverbund", "passenger_information_display": "yes", "public_transport": "platform", "shelter": "yes", "tactile_paving": "yes", "toilets:wheelchair": "yes", "wheelchair": "yes"}}, {"type": "node", "id": 288256789, "lat": 53.5904462, "lon": 9.9795251, "tags": {"bench": "yes", "bin": "yes", "bus": "yes", "highway": "bus_stop", "lit": "yes", "name": "Eppendorfer Park (UKE)", "network": "HVV", "passenger_information_display": "yes", "public_transport": "platform", "shelter": "yes", "tactile_paving": "yes", "wheelchair": "yes"}}, {"type": "node", "id": 288257411, "lat": 53.5891411, "lon": 9.9761996, "tags": {"bench": "yes", "bin": "yes", "bus": "yes", "highway": "bus_stop", "lit": "yes", "name": "UK Eppendorf", "network": "Hamburger Verkehrsverbund", "network:short": "HVV", "network:wikidata": "Q896916", "network:wikipedia": "de:Hamburger Verkehrsverbund", "passenger_information_display": "yes", "public_transport": "platform", "shelter": "yes", "tactile_paving": "yes", "wheelchair": "yes"}}, {"type": "node", "id": 288257413, "lat": 53.5891895, "lon": 9.9766411, "tags": {"bench": "yes", "bin": "yes", "bus": "yes", "highway": "bus_stop", "lit": "yes", "name": "UK Eppendorf", "network": "HVV", "network:wikidata": "Q896916", "network:wikipedia": "de:Hamburger Verkehrsverbund", "passenger_information_display": "yes", "public_transport": "platform", "shelter": "yes", "tactile_paving": "yes", "wheelchair": "yes"}}, {"type": "node", "id": 288257518, "lat": 53.5873195, "lon": 9.971506, "tags": {"bench": "yes", "bin": "yes", "bus": "yes", "highway": "bus_stop", "lit": "yes", "name": "Löwenstraße (Facharztklinik)", "network": "Hamburger Verkehrsverbund", "network:short": "HVV", "network:wikidata": "Q896916", "network:wikipedia": "de:Hamburger Verkehrsverbund", "passenger_information_display": "yes", "public_transport": "platform", "shelter": "yes", "tactile_paving": "yes", "wheelchair": "yes"}}, {"type": "node", "id": 288309685, "lat": 53.5551268, "lon": 9.9889398, "tags": {"bench": "yes", "bin": "yes", "bus": "yes", "highway": "bus_stop", "lit": "no", "name": "U Gänsemarkt", "passenger_information_display": "yes", "public_transport": "platform", "shelter": "yes", "tactile_paving": "yes", "wheelchair": "yes"}}, {"type": "node", "id": 288309695, "lat": 53.5508188, "lon": 9.9938604, "tags": {"bench": "yes", "bin": "yes", "bus": "yes", "highway": "bus_stop", "lit": "yes", "local_ref": "C", "name": "Rathausmarkt", "passenger_information_display": "yes", "public_transport": "platform", "shelter": "yes", "tactile_paving": "no", "wheelchair": "yes"}}, {"type": "node", "id": 288309713, "lat": 53.5471246, "lon": 10.0107596, "tags": {"bench": "yes", "bin": "yes", "bus": "yes", "highway": "bus_stop", "lit": "yes", "name": "Spaldingstraße", "passenger_information_display": "yes", "public_transport": "platform", "route_ref": "3;34;640", "shelter": "yes", "tactile_paving": "no", "wheelchair": "yes"}}, {"type": "node", "id": 288309720, "lat": 53.5477893, "lon": 10.0128331, "tags": {"bench": "yes", "bin": "yes", "bus": "yes", "check_date:shelter": "2024-03-18", "highway": "bus_stop", "lit": "yes", "name": "Spaldingstraße", "passenger_information_display": "yes", "public_transport": "platform", "route_ref": "3;34;640", "shelter": "yes", "tactile_paving": "no", "wheelchair": "yes"}}, {"type": "node", "id": 288309727, "lat": 53.5454805, "lon": 10.0157092, "tags": {"bench": "yes", "bin": "yes", "highway": "bus_stop", "lit": "yes", "name": "Lippeltstraße", "passenger_information_display": "yes", "public_transport": "platform", "route_ref": "3;34;640", "shelter": "yes", "tactile_paving": "no", "wheelchair": "yes"}}, {"type": "node", "id": 288309730, "lat": 53.5440094, "lon": 10.020972, "tags": {"bench": "yes", "bin": "yes", "bus": "yes", "check_date:shelter": "2023-10-13", "highway": "bus_stop", "lit": "yes", "name": "Nagelsweg", "passenger_information_display": "yes", "public_transport": "platform", "route_ref": "3;34;640;641", "shelter": "yes", "tactile_paving": "no", "wheelchair": "yes"}}, {"type": "node", "id": 288309732, "lat": 53.5431128, "lon": 10.0229485, "tags": {"bench": "yes", "bin": "yes", "bus": "yes", "highway": "bus_stop", "lit": "yes", "name": "Nagelsweg", "passenger_information_display": "yes", "public_transport": "platform", "route_ref": "3;34;640", "shelter": "yes", "tactile_paving": "no", "wheelchair": "yes"}}, {"type": "node", "id": 288309734, "lat": 53.5406206, "lon": 10.0316953, "tags": {"bench": "yes", "bin": "yes", "bus": "yes", "check_date:shelter": "2023-12-31", "highway": "bus_stop", "lit": "yes", "name": "Billhorner Brückenstraße", "passenger_information_display": "yes", "public_transport": "platform", "route_ref": "3;34;640", "shelter": "yes", "tactile_paving": "no", "wheelchair": "yes"}}, {"type": "node", "id": 288309736, "lat": 53.5404241, "lon": 10.0318683, "tags": {"bench": "yes", "bin": "yes", "bus": "yes", "check_date:shelter": "2023-12-31", "highway": "bus_stop", "lit": "yes", "name": "Billhorner Brückenstraße", "passenger_information_display": "yes", "public_transport": "platform", "route_ref": "3;34;640", "shelter": "yes", "tactile_paving": "no", "wheelchair": "yes"}}, {"type": "node", "id": 288309743, "lat": 53.5363421, "lon": 10.0349077, "tags": {"bench": "yes", "bin": "yes", "bus": "yes", "highway": "bus_stop", "lit": "yes", "name": "Billhorner Mühlenweg", "passenger_information_display": "yes", "public_transport": "platform", "route_ref": "3;130;602", "shelter": "yes", "tactile_paving": "no", "wheelchair": "yes"}}, {"type": "node", "id": 288309745, "lat": 53.5365555, "lon": 10.0349962, "tags": {"bench": "yes", "bin": "yes", "bus": "yes", "highway": "bus_stop", "lit": "yes", "name": "Billhorner Mühlenweg", "passenger_information_display": "yes", "public_transport": "platform", "route_ref": "3;130;602", "shelter": "yes", "tactile_paving": "no", "wheelchair": "yes"}}, {"type": "node", "id": 288309749, "lat": 53.5347613, "lon": 10.0385364, "tags": {"bench": "yes", "bin": "yes", "bus": "yes", "highway": "bus_stop", "lit": "yes", "name": "Rothenburgsorter Marktplatz", "passenger_information_display": "yes", "public_transport": "platform", "route_ref": "120;124;130", "shelter": "yes", "tactile_paving": "no", "wheelchair": "yes"}}, {"type": "node", "id": 288309751, "lat": 53.534519, "lon": 10.038525, "tags": {"bench": "yes", "bin": "yes", "bus": "yes", "highway": "bus_stop", "lit": "yes", "name": "Rothenburgsorter Marktplatz", "public_transport": "platform", "shelter": "yes", "tactile_paving": "no", "wheelchair": "yes"}}, {"type": "node", "id": 288488645, "lat": 53.4027051, "lon": 10.2417898, "tags": {"check_date:shelter": "2023-07-25", "highway": "bus_stop", "name": "Kraueler Hauptdeich 261", "public_transport": "platform", "route_ref": "120;424", "shelter": "no"}}, {"type": "node", "id": 288488646, "lat": 53.4024894, "lon": 10.2413157, "tags": {"bench": "no", "bin": "yes", "check_date:shelter": "2023-07-08", "highway": "bus_stop", "name": "Kraueler Hauptdeich 261", "public_transport": "platform", "route_ref": "120;424", "shelter": "no", "tactile_paving": "no"}}, {"type": "node", "id": 288488647, "lat": 53.4083661, "lon": 10.2464916, "tags": {"bench": "no", "bin": "yes", "check_date:shelter": "2023-07-08", "highway": "bus_stop", "name": "Achterdeich", "public_transport": "platform", "route_ref": "120", "shelter": "no"}}, {"type": "node", "id": 288488648, "lat": 53.408401, "lon": 10.2463506, "tags": {"bench": "no", "check_date:shelter": "2023-07-08", "highway": "bus_stop", "name": "Achterdeich", "public_transport": "platform", "route_ref": "120;424", "shelter": "no"}}, {"type": "node", "id": 288488649, "lat": 53.4108718, "lon": 10.2369661, "tags": {"highway": "bus_stop", "name": "Kiebitzbrack", "public_transport": "platform", "route_ref": "424", "shelter": "no"}}, {"type": "node", "id": 288488650, "lat": 53.4109754, "lon": 10.2366789, "tags": {"bicycle_parking": "yes", "highway": "bus_stop", "name": "Kiebitzbrack", "public_transport": "platform", "route_ref": "227;424;427", "shelter": "yes"}}, {"type": "node", "id": 288488845, "lat": 53.3980111, "lon": 10.234486, "tags": {"check_date:shelter": "2023-07-08", "highway": "bus_stop", "name": "Kraueler Hauptdeich", "public_transport": "platform", "route_ref": "120;424", "shelter": "no"}}, {"type": "node", "id": 288488846, "lat": 53.3979366, "lon": 10.2346741, "tags": {"highway": "bus_stop", "name": "Kraueler Hauptdeich", "public_transport": "platform", "route_ref": "120;424", "shelter": "no"}}, {"type": "node", "id": 288513224, "lat": 53.4187418, "lon": 10.1995333, "tags": {"highway": "bus_stop", "name": "Kirchwerder Kirche", "public_transport": "platform", "route_ref": "124;224;323;424", "shelter": "no"}}, {"type": "node", "id": 288513228, "lat": 53.4186005, "lon": 10.1995487, "tags": {"highway": "bus_stop", "name": "Kirchwerder Kirche", "public_transport": "platform", "route_ref": "124;224;323;424", "shelter": "no"}}, {"type": "node", "id": 288518841, "lat": 53.5498106, "lon": 9.9545565, "tags": {"bench": "no", "bin": "yes", "bus": "yes", "highway": "bus_stop", "lit": "yes", "name": "S Reeperbahn", "network": "Hamburger Verkehrsverbund", "network:short": "HVV", "network:wikidata": "Q896916", "public_transport": "platform", "shelter": "no", "tactile_paving": "yes", "wheelchair": "limited"}}, {"type": "node", "id": 288530801, "lat": 53.5947881, "lon": 9.983779, "tags": {"bench": "yes", "bin": "yes", "highway": "bus_stop", "lit": "yes", "name": "Tarpenbekstraße", "public_transport": "platform", "shelter": "yes", "tactile_paving": "no", "wheelchair": "yes"}}, {"type": "node", "id": 288536800, "lat": 53.4116772, "lon": 10.1522036, "tags": {"bench": "no", "bin": "no", "covered": "no", "highway": "bus_stop", "lit": "yes", "name": "Howe (Ost)", "public_transport": "platform", "route_ref": "120;323", "shelter": "no", "tactile_paving": "no", "wheelchair": "yes"}}, {"type": "node", "id": 288536801, "lat": 53.4116293, "lon": 10.1520692, "tags": {"bench": "no", "bin": "no", "covered": "no", "highway": "bus_stop", "lit": "yes", "name": "Howe (Ost)", "public_transport": "platform", "route_ref": "120;323", "shelter": "no", "tactile_paving": "no", "wheelchair": "yes"}}, {"type": "node", "id": 288572716, "lat": 53.448139, "lon": 10.123622, "tags": {"bench": "yes", "bin": "yes", "highway": "bus_stop", "lit": "no", "name": "Homannring", "public_transport": "platform", "route_ref": "124;222", "shelter": "yes", "tactile_paving": "no"}}, {"type": "node", "id": 288572717, "lat": 53.4475098, "lon": 10.1240533, "tags": {"bench": "no", "bin": "no", "bus": "yes", "highway": "bus_stop", "lit": "no", "name": "Homannring", "public_transport": "platform", "route_ref": "124;222;122;224", "shelter": "no", "tactile_paving": "no", "wheelchair": "yes"}},