{"version": 0.6, "generator": "Overpass API 0.7.62.1 084b4234", "osm3s": {"timestamp_osm_base": "2024-06-14T12:07:11Z", "copyright": "The data included in this document is from www.openstreetmap.org. The data is made available under ODbL."}, "elements": [{"type": "node", "id": 25776282, "lat": 53.5788725, "lon": 10.0436269, "tags": {"amenity": "fast_food", "check_date": "2023-09-02", "cuisine": "burger", "name": "Most wanted Burger"}}, {"type": "node", "id": 68424433, "lat": 53.6492729, "lon": 10.1638408, "tags": {"addr:housenumber": "6", "addr:street": "Claus-Ferck-Straße", "amenity": "fast_food", "name": "deFries express", "wheelchair": "no"}}, {"type": "node", "id": 92786039, "lat": 53.5526122, "lon": 10.0201481, "tags": {"addr:city": "Hamburg", "addr:housenumber": "8", "addr:postcode": "20097", "addr:street": "Beim Strohhause", "amenity": "fast_food", "brand": "McDonalds", "brand:wikidata": "Q38076", "brand:wikipedia": "en:McDonalds", "check_date": "2023-08-17", "cuisine": "burger", "delivery": "no", "diet:vegetarian": "no", "drive_through": "no", "email": "service@mcdonalds.de", "indoor_seating": "yes", "internet_access": "wlan", "internet_access:fee": "no", "name": "McDonalds", "opening_hours": "Mo-Sa 10:00-20:00; Su closed", "operator": "Amend Restaurantbetrieb Amsinckstraße GmbH & Co. KG", "outdoor_seating": "no", "payment:cash": "yes", "payment:coins": "yes", "payment:contactless": "yes", "payment:credit_cards": "yes", "payment:debit_cards": "yes", "payment:girocard": "yes", "payment:mastercard": "yes", "payment:visa": "yes", "payment:visa_debit": "yes", "phone": "+49 40 24870731", "takeaway": "yes", "website": "https://www.mcdonalds.com/de/de-de/restaurant-suche.html/l/hamburg/beim-strohhause-8/1241", "wheelchair": "yes"}}, {"type": "node", "id": 245564422, "lat": 53.4582281, "lon": 9.9809377, "tags": {"addr:city": "Hamburg", "addr:housenumber": "14", "addr:postcode": "21073", "addr:street": "Bremer Straße", "amenity": "fast_food", "brand": "Yoko", "contact:email": "yokosushi-harburg@hotmail.com", "contact:facebook": "https://de-de.facebook.com/yoko.deutschland", "contact:instagram": "https://instagram.com/yoko_sushi_deutschland/", "contact:phone": "+49 40 80007169", "cuisine": "sushi", "delivery": "yes", "name": "Yoko Sushi Harburg", "opening_hours": "Mo-Fr 11:00-22:00, Sa,Su 12:00-22:00", "phone": "+49 40 800 07169", "takeaway": "yes", "website": "https://www.yoko.de/reservierung-sushi-hamburg-harburg/", "wheelchair": "no"}}, {"type": "node", "id": 253398184, "lat": 53.5397985, "lon": 10.1042648, "tags": {"addr:city": "Hamburg", "addr:country": "DE", "addr:housename": "Billstedt Center", "addr:housenumber": "7a", "addr:postcode": "22111", "addr:street": "Möllner Landstraße", "amenity": "fast_food", "brand": "McDonalds", "brand:wikidata": "Q38076", "brand:wikipedia": "en:McDonalds", "contact:website": "http://www.mcdonalds.de/restaurant/hamburg-moellner-landstr-7a", "cuisine": "burger", "level": "0", "name": "McDonalds", "opening_hours": "Mo-Sa 09:30-21:00; PH off", "operator": "Michael Kaup Systemgastronomie e.K. Möllner Landstr. 7a", "phone": "+49 40 7325722", "takeaway": "yes", "wheelchair": "yes"}}, {"type": "node", "id": 253417386, "lat": 53.5442223, "lon": 10.0253489, "tags": {"addr:city": "Hamburg", "addr:country": "DE", "addr:housenumber": "92-94", "addr:postcode": "20097", "addr:street": "Hammerbrookstraße", "amenity": "fast_food", "brand": "Subway", "brand:wikidata": "Q244457", "brand:wikipedia": "en:Subway (restaurant)", "check_date:opening_hours": "2023-01-08", "contact:facebook": "https://www.facebook.com/subwaydeutschland", "contact:instagram": "https://www.instagram.com/subway_de/", "contact:phone": "+49 40 23937588", "contact:twitter": "https://twitter.com/Subway_DE", "cuisine": "sandwich", "indoor_seating": "yes", "name": "Subway", "opening_hours": "Mo-Th 09:00-18:00; Fr 09:00-17:00; PH off", "outdoor_seating": "no", "phone": "+49 40 23937588", "smoking": "no", "takeaway": "yes", "website": "https://restaurants.subway.com/de/deutschland/hh/hamburg/hammerbrookstra%C3%9Fe-92-94", "wheelchair": "limited"}}, {"type": "node", "id": 268808540, "lat": 53.5491525, "lon": 9.9623069, "tags": {"addr:city": "Hamburg", "addr:country": "DE", "addr:housenumber": "75", "addr:postcode": "20359", "addr:street": "Reeperbahn", "amenity": "fast_food", "brand": "Burger King", "brand:wikidata": "Q177054", "brand:wikipedia": "en:Burger King", "check_date": "2023-09-22", "check_date:opening_hours": "2023-10-29", "cuisine": "burger", "name": "Burger King", "opening_hours:signed": "no", "takeaway": "yes", "wheelchair": "no"}}, {"type": "node", "id": 268808549, "lat": 53.5497556, "lon": 9.9611087, "tags": {"addr:city": "Hamburg", "addr:country": "DE", "addr:housenumber": "100", "addr:postcode": "20359", "addr:street": "Reeperbahn", "alt_name": "Kentucky Fried Chicken", "amenity": "fast_food", "brand": "KFC", "brand:wikidata": "Q524757", "brand:wikipedia": "en:KFC", "cuisine": "chicken", "name": "KFC", "opening_hours": "Su-Th 11:00-01:00, Fr,Sa 11:00-07:00", "phone": "+494031761104", "takeaway": "yes", "toilets:wheelchair": "yes", "website": "https://www.kfc.de/", "wheelchair": "yes"}}, {"type": "node", "id": 274952089, "lat": 53.4688488, "lon": 10.2801624, "tags": {"amenity": "fast_food", "cuisine": "kebab", "name": "Löwen-Grill", "wheelchair": "limited"}}, {"type": "node", "id": 282221635, "lat": 53.6942002, "lon": 10.3240456, "tags": {"addr:city": "Todendorf", "addr:country": "DE", "addr:housenumber": "1", "addr:postcode": "22965", "addr:street": "Herbertweg", "amenity": "fast_food", "brand": "Burger King", "brand:wikidata": "Q177054", "brand:wikipedia": "en:Burger King", "check_date:opening_hours": "2023-04-14", "cuisine": "burger", "name": "Burger King", "opening_hours": "Su-Th 10:00-22:00; Fr-Sa 10:00-24:00", "phone": "+49 4534 204847", "ref": "Store-Nr. 16650", "takeaway": "yes"}}, {"type": "node", "id": 286304304, "lat": 53.5617762, "lon": 9.9624035, "tags": {"addr:city": "Hamburg", "addr:country": "DE", "addr:housenumber": "70", "addr:postcode": "20357", "addr:street": "Schulterblatt", "amenity": "fast_food", "diet:vegan": "yes", "diet:vegetarian": "yes", "indoor_seating": "no", "name": "SCHMITT Foxy Food", "opening_hours": "Mo-We 11:30-22:00, Th 11:30-23:00, Fr,Sa 11:30-00:30, Su 11:30-22:00", "outdoor_seating": "no", "phone": "+49 40 788 95 330", "takeaway": "only", "toilets:wheelchair": "no", "wheelchair": "no"}}, {"type": "node", "id": 288561703, "lat": 53.4313373, "lon": 10.1156556, "tags": {"amenity": "fast_food", "name": "Kleines Glück am See", "wheelchair": "limited"}}, {"type": "node", "id": 289788329, "lat": 53.5636383, "lon": 9.9593991, "tags": {"addr:city": "Hamburg", "addr:country": "DE", "addr:housenumber": "277", "addr:postcode": "22769", "addr:street": "Max-Brauer-Allee", "amenity": "fast_food", "check_date": "2023-12-25", "indoor_seating": "yes", "name": "Schanzen Chicken", "outdoor_seating": "yes", "wheelchair": "limited"}}, {"type": "node", "id": 291167140, "lat": 53.4561239, "lon": 9.9915989, "tags": {"amenity": "fast_food", "name": "Mathewes Grill", "opening_hours": "Mo-Fr 05:00-21:00; Sa 05:30-21:00; PH,Su 06:00-21:00", "wheelchair": "no"}}, {"type": "node", "id": 295037437, "lat": 53.5500499, "lon": 9.9658702, "tags": {"addr:housenumber": "29", "addr:street": "Reeperbahn", "amenity": "fast_food", "brand": "Hesburger", "brand:wikidata": "Q1276832", "brand:wikipedia": "en:Hesburger", "cuisine": "burger", "delivery": "no", "email": "cssystemgastro@gmail.com", "internet_access": "no", "name": "Hesburger", "opening_hours": "Mo 14:00-02:00, Tu,We 14:00-03:00, Th 14:00-04:00, Fr,Sa 14:00-07:00, Su 13:00-02:00", "payment:cash": "yes", "payment:credit_cards": "no", "payment:cryptocurrencies": "no", "payment:debit_cards": "no", "payment:electronic_purses": "no", "phone": "+49 178 7049019", "smoking": "no", "takeaway": "yes", "website": "https://www.hesburger.de/restaurants?tid=386", "wheelchair": "yes"}}, {"type": "node", "id": 296097118, "lat": 53.6847046, "lon": 9.9852402, "tags": {"addr:city": "Norderstedt", "addr:country": "DE", "addr:housenumber": "38-44a", "addr:postcode": "22850", "addr:street": "Berliner Allee", "amenity": "fast_food", "brand": "Burger King", "brand:wikidata": "Q177054", "brand:wikipedia": "en:Burger King", "cuisine": "burger", "delivery": "yes", "description": "Keine Eismaschine", "diet:vegetarian": "yes", "drive_through": "no", "indoor_seating": "yes", "level": "0", "name": "Burger King", "opening_hours": "Mo-Th 09:30-24:00; Fr 09:30-03:00; Sa 09:30-06:00; Su 12:00-23:00", "outdoor_seating": "no", "payment:cash": "yes", "payment:coins": "yes", "payment:credit_cards": "yes", "payment:debit_cards": "yes", "payment:mastercard": "yes", "payment:visa": "yes", "phone": "+49 40 51312123", "ref": "8825", "takeaway": "yes", "website": "https://www.burgerking.de/store-locator/store/restaurant_8825", "wheelchair": "yes"}}, {"type": "node", "id": 297644968, "lat": 53.5547687, "lon": 9.9288592, "tags": {"addr:postcode": "22765", "amenity": "fast_food", "check_date:opening_hours": "2024-05-11", "cuisine": "korean", "indoor_seating": "yes", "name": "Kimchi Guys", "opening_hours": "Mo-Sa 12:00-21:30", "outdoor_seating": "yes", "phone": "040 349 600 88", "toilets:wheelchair": "yes", "website": "https://kimchiguys.de/", "wheelchair": "yes"}}, {"type": "node", "id": 298579404, "lat": 53.641441, "lon": 10.0373394, "tags": {"addr:city": "Hamburg", "addr:country": "DE", "addr:housenumber": "55 b", "addr:postcode": "22339", "addr:street": "Hummelsbüttler Hauptstraße", "amenity": "fast_food", "cuisine": "kebab", "delivery": "yes", "shop": "bakery;kiosk", "takeaway": "yes"}}, {"type": "node", "id": 308016826, "lat": 53.6572802, "lon": 9.9064406, "tags": {"addr:city": "Bönningstedt", "addr:housenumber": "39", "addr:postcode": "25474", "addr:street": "Kieler Straße", "amenity": "fast_food", "check_date:opening_hours": "2023-05-20", "cuisine": "greek;gyros;balkan", "name": "Kos Grill", "opening_hours": "Mo-Sa 12:00-19:45", "opening_hours:signed": "no", "outdoor_seating": "yes", "phone": "+49 40 60061376", "start_date": "2021", "takeaway": "yes", "website": "https://kos-grill-bonningstedt.business.site/", "wheelchair": "yes"}}, {"type": "node", "id": 309795469, "lat": 53.5627238, "lon": 9.9157956, "tags": {"amenity": "fast_food", "breakfast": "yes", "contact:email": "info@meetpointcafe.de", "contact:phone": "+49 40 180 33 211", "contact:website": "https://meetpointcafe.de", "cuisine": "pasta;burger;italian;pizza;croque", "diet:vegetarian": "yes", "indoor_seating": "yes", "name": "Meetpoint Café & Bistro", "opening_hours": "Mo-Su 07:00-20:00", "outdoor_seating": "yes", "wheelchair": "yes"}}, {"type": "node", "id": 311462914, "lat": 53.5524811, "lon": 9.9337635, "tags": {"amenity": "fast_food", "brand": "Burger King", "brand:wikidata": "Q177054", "brand:wikipedia": "en:Burger King", "check_date:opening_hours": "2024-03-16", "cuisine": "burger", "diet:vegan": "yes", "diet:vegetarian": "yes", "indoor_seating": "yes", "level": "0", "name": "Burger King", "opening_hours": "Mo-Th 09:00-01:00, Fr,Sa 09:00-04:00, Su 09:00-01:00", "outdoor_seating": "no", "takeaway": "yes", "toilets:wheelchair": "yes", "wheelchair": "yes"}}, {"type": "node", "id": 312943843, "lat": 53.4218533, "lon": 9.981692, "tags": {"amenity": "fast_food", "cuisine": "burger", "kids_area": "yes", "kids_area:outdoor": "yes", "name": "Virginia Burger", "takeaway": "yes", "website": "http://www.virginia-burger.de/", "wheelchair": "limited"}}, {"type": "node", "id": 315220039, "lat": 53.6560237, "lon": 9.7976381, "tags": {"addr:city": "Pinneberg", "addr:housenumber": "3a", "addr:postcode": "25421", "addr:street": "Bahnhofstraße", "amenity": "fast_food", "contact:facebook": "https://www.facebook.com/Julifood/", "cuisine": "kebab;chicken", "diet:vegan": "no", "diet:vegetarian": "yes", "email": "juli-food@outlook.com", "indoor_seating": "yes", "name": "Juli Food", "opening_hours": "Mo-Su 10:00-22:00", "outdoor_seating": "yes", "phone": "+49 4101 7891900", "takeaway": "yes", "wheelchair": "limited"}}, {"type": "node", "id": 315970480, "lat": 53.5423035, "lon": 10.1691543, "tags": {"amenity": "fast_food", "cuisine": "greek", "name": "Imbiss Akropolis", "wheelchair": "limited"}}, {"type": "node", "id": 316955347, "lat": 53.5883805, "lon": 9.8491582, "tags": {"amenity": "fast_food", "name": "Dürüm Grill Imbiss", "opening_hours": "Mo-Su 09:00-22:00", "wheelchair": "limited"}}, {"type": "node", "id": 320203719, "lat": 53.5637914, "lon": 9.9199112, "tags": {"amenity": "fast_food", "brand": "Dominos", "brand:wikidata": "Q839466", "brand:wikipedia": "en:Dominos Pizza", "contact:email": "info@dominos.de", "contact:phone": "+49 40 52 10 20 70", "contact:website": "https://www.dominos.de/kaufhaus/de-hamburgbahrenfeld-33778", "cuisine": "pizza", "diet:vegetarian": "yes", "indoor_seating": "yes", "name": "Dominos", "opening_hours": "Su-Th 11:00-24:00, Fr,Sa 11:00-01:00", "outdoor_seating": "yes", "payment:cash": "yes", "payment:edenred_card": "yes", "payment:girocard": "yes", "payment:maestro": "yes", "payment:mastercard": "yes", "payment:sodexo": "yes", "payment:visa": "yes", "short_name": "Dominos", "surveillance": "indoor", "takeaway": "yes", "wheelchair": "no"}}, {"type": "node", "id": 322753353, "lat": 53.5734599, "lon": 9.8923162, "tags": {"amenity": "fast_food", "check_date": "2024-05-16", "check_date:opening_hours": "2023-12-17", "cuisine": "kebab", "indoor_seating": "yes", "internet_access": "no", "name": "Arena Imbiss", "opening_hours": "Mo-Fr 08:00-23:00; Sa 09:00-23:00", "outdoor_seating": "sidewalk", "wheelchair": "no"}}, {"type": "node", "id": 341792058, "lat": 53.5567809, "lon": 10.0106212, "tags": {"addr:city": "Hamburg", "addr:housenumber": "1", "addr:postcode": "20099", "addr:street": "Carl-von-Ossietzky-Platz", "amenity": "fast_food", "check_date:diet:vegetarian": "2021-10-09", "cuisine": "kebab", "diet:vegetarian": "yes", "indoor_seating": "yes", "name": "Miss Döner", "opening_hours": "Mo-Su 10:00-02:00", "outdoor_seating": "yes", "wheelchair": "no"}}, {"type": "node", "id": 364428621, "lat": 53.5985688, "lon": 9.8588047, "tags": {"amenity": "fast_food", "cuisine": "pizza", "diet:vegan": "no", "diet:vegetarian": "yes", "name": "Dominos", "opening_hours": "Su-Th 11:00-22:00; Fr,Sa 11:00-23:00"}}, {"type": "node", "id": 366994071, "lat": 53.5979565, "lon": 9.8621084, "tags": {"amenity": "fast_food", "cuisine": "kebab", "name": "Döner Kebab", "wheelchair": "yes"}}, {"type": "node", "id": 367671030, "lat": 53.5456892, "lon": 10.024145, "tags": {"amenity": "fast_food", "cuisine": "asian", "name": "Asia Thanh", "opening_hours": "Mo-Fr 11:00-16:00; PH,Sa,Su off", "toilets:wheelchair": "no", "wheelchair": "limited"}}, {"type": "node", "id": 368458523, "lat": 53.599509, "lon": 10.1180005, "tags": {"addr:city": "Hamburg", "addr:country": "DE", "addr:housenumber": "98", "addr:postcode": "22159", "addr:street": "Berner Heerweg", "amenity": "fast_food", "cuisine": "thai", "email": "padthai@padthai-farmsen.de", "internet_access": "no", "name": "Pad Thai", "opening_hours": "Mo-Su 11:30-22:00", "phone": "+49-40-6436499", "smoking": "no", "website": "https://www.padthai-farmsen.de", "wheelchair": "limited"}}, {"type": "node", "id": 369801641, "lat": 53.5406382, "lon": 10.2019192, "tags": {"amenity": "fast_food", "cuisine": "german", "name": "Kliemanns Grill", "toilets:wheelchair": "no", "wheelchair": "limited"}}, {"type": "node", "id": 369815352, "lat": 53.5689529, "lon": 10.1738795, "tags": {"addr:city": "Barsbüttel", "addr:country": "DE", "addr:housenumber": "11b", "addr:postcode": "22885", "addr:street": "Willinghusener Landstraße", "amenity": "fast_food", "check_date": "2021-03-04", "check_date:opening_hours": "2022-02-23", "contact:fax": "+49 40 22602949", "contact:website": "https://tastycroque-bars-buettel.de/", "cuisine": "crepe;sandwich;salad", "delivery": "Tu-Fr 11:30-14:00,17:00-20:45;Sa-Su,PH 16:30-20:45;Mo off", "internet_access": "no", "name": "Tasty Croque Barsbüttel", "opening_hours": "Tu-Fr 11:30-22:00; Sa-Su,PH 14:00-22:00; Mo off", "smoking": "no", "wheelchair": "limited"}}, {"type": "node", "id": 370288272, "lat": 53.598638, "lon": 9.848728, "tags": {"addr:city": "Schenefeld", "addr:country": "DE", "addr:postcode": "22869", "amenity": "fast_food", "cuisine": "kebab", "drive_in": "no", "drive_through": "no", "name": "King Döner", "opening_hours": "Mo-Fr 05:00-01:00, Sa-Su 07:00-01:00", "wheelchair": "limited"}}, {"type": "node", "id": 370321577, "lat": 53.6085933, "lon": 10.1857571, "tags": {"amenity": "fast_food", "cuisine": "german", "name": "bp Kantine"}}, {"type": "node", "id": 370745952, "lat": 53.6245215, "lon": 10.1152206, "tags": {"addr:city": "Hamburg", "addr:country": "DE", "addr:housenumber": "156", "addr:postcode": "22159", "addr:street": "Pezolddamm", "amenity": "fast_food", "check_date": "2020-09-17", "cuisine": "sandwich", "delivery": "yes", "name": "Crazy Croque", "opening_hours": "PH,Mo-Su 11:30-22:00", "outdoor_seating": "no", "phone": "+49 40 63645655", "takeaway": "yes", "website": "https://www.crazycroque.de/hamburg-farmsen-berne/", "wheelchair": "yes"}}, {"type": "node", "id": 378852770, "lat": 53.6660416, "lon": 9.9884497, "tags": {"amenity": "fast_food", "cuisine": "german", "name": "Grill Palast Pommes Prinz"}}, {"type": "node", "id": 385080033, "lat": 53.5524982, "lon": 9.9459077, "tags": {"addr:city": "Hamburg", "addr:country": "DE", "addr:housenumber": "24", "addr:postcode": "22767", "addr:street": "Hospitalstraße", "amenity": "fast_food", "check_date:opening_hours": "2024-03-20", "cuisine": "pizza", "indoor_seating": "yes", "name": "Pizza Deal Altona", "opening_hours:signed": "no", "outdoor_seating": "no", "phone": "+49 40 57284480", "website": "https://pizzadeal-hh.de/", "wheelchair": "limited"}}, {"type": "node", "id": 388849689, "lat": 53.5337842, "lon": 10.0449303, "tags": {"addr:city": "Hamburg", "addr:country": "DE", "addr:housenumber": "52", "addr:postcode": "20539", "addr:street": "Vierländer Damm", "amenity": "fast_food", "cuisine": "thai", "name": "Asia Pham", "opening_hours": "Mo-Fr 11:00-15:00,17:00-20:00; Sa 17:00-20:00; Su 13:00-20:00", "phone": "+49 40 7892801", "toilets:wheelchair": "no", "website": "http://www.asiapham.de", "wheelchair": "no"}}, {"type": "node", "id": 391511923, "lat": 53.7214278, "lon": 9.9020729, "tags": {"addr:city": "Quickborn", "addr:country": "DE", "addr:housenumber": "1-5", "addr:postcode": "25451", "addr:street": "Güttloh", "air_conditioning": "no", "amenity": "fast_food", "cuisine": "sandwich", "delivery": "no", "diet:halal": "no", "diet:kosher": "no", "diet:vegan": "no", "diet:vegetarian": "yes", "drive_through": "no", "indoor_seating": "yes", "level": "0", "name": "Zum Krokodil", "opening_hours": "Mo-Su 11:00-23:00", "operator": "ALS Croque Hamburg UG", "outdoor_seating": "yes", "payment:credit_cards": "no", "payment:debit_cards": "no", "phone": "+49 4106 6404766", "smoking": "outside", "start_date": "2022", "takeaway": "yes", "website": "https://zum-krokodil.de/", "wheelchair": "yes"}}, {"type": "node", "id": 391557771, "lat": 53.7310249, "lon": 9.8956695, "tags": {"addr:city": "Quickborn", "addr:country": "DE", "addr:housenumber": "87", "addr:postcode": "25451", "addr:street": "Kieler Straße", "amenity": "fast_food", "cuisine": "pizza", "currency:XBT": "yes", "delivery": "yes", "email": "j.singh@web.de", "name": "New Empire Pizza Service", "opening_hours": "Su,Mo 11:30-22:30; Tu-Fr 11:00-14:30,17:00-22:30; Sa 16:00-23:00", "operator": "Singh Brothers UG", "payment:american_express": "yes", "payment:cash": "yes", "payment:coins": "yes", "payment:contactless": "yes", "payment:credit_cards": "yes", "payment:debit_cards": "yes", "payment:girocard": "yes", "payment:lightning": "yes", "payment:lightning_contactless": "no", "payment:mastercard": "yes", "payment:onchain": "yes", "payment:visa": "yes", "payment:visa_debit": "yes", "phone": "+49 4106 797074", "survey:date": "2022-11-07", "website": "https://www.new-empire-food.de/"}}, {"type": "node", "id": 391577604, "lat": 53.7312089, "lon": 9.8968356, "tags": {"addr:city": "Quickborn", "addr:housenumber": "4", "addr:postcode": "25451", "addr:street": "Bahnhofstraße", "amenity": "fast_food", "contact:facebook": "https://www.facebook.com/people/Quick-K%C3%B6z-Grill-D%C3%B6ner-Pizza/100089974383559/", "cuisine": "kebab", "delivery": "yes", "diet:kosher": "no", "diet:vegan": "yes", "diet:vegetarian": "yes", "drive_through": "no", "email": "danielgrasmik68@gmail.com", "internet_access": "no", "level": "0", "name": "Quick Köz Grill Döner & Pizza", "old_name": "Erdem Döner", "opening_hours": "Mo-Sa 10:00-23:00; Su 11:30-23:00", "operator": "Bayhan Avci", "outdoor_seating": "yes", "payment:cash": "yes", "payment:coins": "yes", "payment:girocard": "yes", "phone": "+49 4106 1215400", "smoking": "no", "takeaway": "yes", "website": "https://www.quick-koez.de/", "wheelchair": "yes"}}, {"type": "node", "id": 405202108, "lat": 53.5841717, "lon": 9.89511, "tags": {"amenity": "fast_food", "check_date": "2023-03-19", "check_date:opening_hours": "2023-03-19", "drive_through": "no", "indoor_seating": "yes", "name": "Picknick", "opening_hours": "Mo-Fr 06:00-18:00;Su 10:00-18:00", "opening_hours:signed": "no", "outdoor_seating": "yes", "payment:girocard": "yes", "payment:mastercard": "yes", "payment:visa": "yes", "wheelchair": "yes"}}, {"type": "node", "id": 408798336, "lat": 53.5390989, "lon": 10.0465787, "tags": {"amenity": "fast_food", "cuisine": "asian"}}, {"type": "node", "id": 408799599, "lat": 53.5379353, "lon": 10.0515717, "tags": {"amenity": "fast_food", "name": "Schlemmerkiste", "opening_hours": "Mo-Sa 10:00-20:00"}}, {"type": "node", "id": 409382650, "lat": 53.5810404, "lon": 10.012296, "tags": {"addr:city": "Hamburg", "addr:country": "DE", "addr:housenumber": "18", "addr:postcode": "22303", "addr:street": "Mühlenkamp", "amenity": "fast_food", "check_date": "2023-06-03", "check_date:opening_hours": "2023-06-03", "cuisine": "turkish", "name": "Limon", "opening_hours": "Su-Th 11:00-24:00, Fr,Sa 11:00-01:00", "payment:credit_cards": "yes", "payment:debit_cards": "yes", "phone": "+49 40 75295398", "wheelchair": "no"}}, {"type": "node", "id": 410213299, "lat": 53.5460464, "lon": 10.0393127, "tags": {"amenity": "fast_food", "name": "Mansha Burgers", "website": "https://mansha-burgers.de/", "wheelchair": "no"}}, {"type": "node", "id": 410296267, "lat": 53.5367351, "lon": 10.0641994, "tags": {"amenity": "fast_food", "name": "Petit Bistro"}}, {"type": "node", "id": 410438724, "lat": 53.5733288, "lon": 9.9497206, "tags": {"amenity": "fast_food", "cuisine": "pizza", "diet:vegetarian": "yes", "indoor_seating": "no", "name": "Mundfein", "opening_hours": "Mo-Fr 11:00-22:45; PH,Sa,Su 12:00-22:45", "outdoor_seating": "no", "takeaway": "only"}}, {"type": "node", "id": 411016967, "lat": 53.5613808, "lon": 10.0374882, "tags": {"addr:housenumber": "39", "addr:postcode": "22087", "addr:street": "Landwehr", "amenity": "fast_food", "check_date": "2023-07-15", "cuisine": "kebab", "indoor_seating": "yes", "name": "Sphinx Döner", "opening_hours": "Mo-Su 08:00-23:00", "outdoor_seating": "yes", "phone": "+49 40 18046276", "website": "https://sphinxdoener.de", "wheelchair": "no"}}, {"type": "node", "id": 411016990, "lat": 53.579927, "lon": 10.0417843, "tags": {"addr:city": "Hamburg", "addr:housenumber": "37-38", "addr:postcode": "22081", "addr:street": "Barmbeker Markt", "amenity": "fast_food", "check_date": "2023-08-05", "check_date:opening_hours": "2024-02-20", "cuisine": "sushi;korean", "name": "Kimchi Sushi", "opening_hours": "Mo-Sa 11:00-21:00; PH,Su off", "phone": "+49 40 32521686", "wheelchair": "limited"}}, {"type": "node", "id": 411016992, "lat": 53.5810127, "lon": 10.0430998, "tags": {"amenity": "fast_food", "check_date:opening_hours": "2023-01-15", "cuisine": "asian", "diet:vegetarian": "yes", "indoor_seating": "yes", "name": "Asia Haus", "opening_hours:signed": "no", "outdoor_seating": "no", "payment:credit_cards": "yes", "payment:debit_cards": "yes"}}, {"type": "node", "id": 411016995, "lat": 53.5819254, "lon": 10.0443713, "tags": {"amenity": "fast_food", "cuisine": "pizza", "diet:vegetarian": "yes", "name": "Pizza Max", "opening_hours": "Fr,Sa 11:00-24:00; Su-Th 11:00-23:00", "wheelchair": "yes"}}, {"type": "node", "id": 412408907, "lat": 53.567199, "lon": 9.981268, "tags": {"addr:city": "Hamburg", "addr:housenumber": "2-6", "addr:postcode": "20146", "addr:street": "Grindelhof", "amenity": "fast_food", "cuisine": "kebab;turkish", "diet:vegetarian": "yes", "indoor_seating": "yes", "name": "Uni Döner", "opening_hours": "Mo-Sa 10:00-23:00; PH,Su 11:00-23:00", "outdoor_seating": "yes", "smoking": "no", "takeaway": "yes", "wheelchair": "no"}}, {"type": "node", "id": 412410376, "lat": 53.567357, "lon": 9.9814486, "tags": {"addr:city": "Hamburg", "addr:postcode": "20146", "addr:street": "Grindelhof", "amenity": "fast_food", "check_date:opening_hours": "2023-10-02", "diet:vegetarian": "yes", "indoor_seating": "yes", "name": "Kumpir", "opening_hours:signed": "no", "outdoor_seating": "yes", "payment:cash": "yes", "payment:girocard": "yes", "payment:maestro": "yes", "payment:mastercard": "yes", "payment:visa": "yes", "payment:visa_debit": "yes", "toilets": "yes", "toilets:wheelchair": "yes", "wheelchair": "limited"}}, {"type": "node", "id": 415007280, "lat": 53.5355736, "lon": 9.7894049, "tags": {"amenity": "fast_food", "drive_through": "no", "indoor_seating": "no", "name": "Elbblick - Grill", "opening_hours": "\"Nach Saison und Wetter.\"", "outdoor_seating": "yes", "wheelchair": "yes"}}, {"type": "node", "id": 416688013, "lat": 53.5971132, "lon": 9.9416993, "tags": {"air_conditioning": "no", "amenity": "fast_food", "check_date:opening_hours": "2024-05-08", "diet:vegetarian": "yes", "indoor_seating": "yes", "name:signed": "no", "opening_hours:signed": "no", "outdoor_seating": "yes", "smoking": "no", "wheelchair": "yes"}}, {"type": "node", "id": 418169963, "lat": 53.5488415, "lon": 9.9601956, "tags": {"amenity": "fast_food", "check_date:opening_hours": "2024-04-21", "name": "Kiez Curry", "opening_hours:signed": "no", "wheelchair": "no"}}, {"type": "node", "id": 425632753, "lat": 53.4667319, "lon": 9.7926621, "tags": {"addr:city": "Neu Wulmstorf", "addr:postcode": "21629", "addr:street": "Bahnhofstraße", "amenity": "fast_food", "name": "Mr. Kebab", "wheelchair": "limited"}}, {"type": "node", "id": 436127561, "lat": 53.5546953, "lon": 10.0084662, "tags": {"addr:city": "Hamburg", "addr:housenumber": "37", "addr:postcode": "20099", "addr:street": "Kirchenallee", "amenity": "fast_food", "check_date": "2023-07-10", "check_date:opening_hours": "2020-10-15", "cuisine": "burger", "diet:vegetarian": "yes", "name": "Jim Block", "opening_hours": "Su-Th 11:30-22:00, Fr,Sa 11:30-23:00", "phone": "+49 40 18067955", "toilets:wheelchair": "no", "website": "http://www.jim-block.de/restaurantsjimblock.html#kirchenallee", "wheelchair": "limited"}}, {"type": "node", "id": 437558657, "lat": 53.5521601, "lon": 9.9956384, "tags": {"addr:city": "Hamburg", "addr:housenumber": "38", "addr:postcode": "20095", "addr:street": "Ballindamm", "amenity": "fast_food", "brand": "Subway", "brand:wikidata": "Q244457", "brand:wikipedia": "en:Subway (restaurant)", "contact:facebook": "https://www.facebook.com/subwaydeutschland", "contact:instagram": "https://www.instagram.com/subway_de/", "contact:twitter": "https://twitter.com/Subway_DE", "cuisine": "sandwich", "delivery": "no", "indoor_seating": "yes", "name": "Subway", "opening_hours": "Mo-Sa 11:00-20:00; Su 11:00-19:00", "outdoor_seating": "yes", "phone": "+49 40 41112260", "ref": "44594", "ref:vatin": "DE297893744", "takeaway": "yes", "website": "https://restaurants.subway.com/de/deutschland/hh/hamburg/ballindamm-38", "wheelchair": "limited"}}, {"type": "node", "id": 441072638, "lat": 53.6784039, "lon": 10.1473769, "tags": {"amenity": "fast_food", "contact:website": "http://isigrill.de/", "indoor_seating": "no", "name": "Isi Grill", "outdoor_seating": "no", "takeaway": "only", "wheelchair": "yes"}}, {"type": "node", "id": 442137109, "lat": 53.5526324, "lon": 9.9932154, "tags": {"amenity": "fast_food", "check_date:opening_hours": "2023-12-03", "cuisine": "german", "diet:vegetarian": "yes", "indoor_seating": "no", "name": "Mö Grill", "opening_hours:signed": "no", "outdoor_seating": "no", "payment:credit_cards": "no", "payment:debit_cards": "yes", "takeaway": "only", "wheelchair": "yes"}}, {"type": "node", "id": 443490461, "lat": 53.563264, "lon": 9.965264, "tags": {"addr:city": "Hamburg", "addr:housenumber": "95", "addr:postcode": "20357", "addr:street": "Schanzenstraße", "amenity": "fast_food", "check_date": "2023-10-26", "cuisine": "Kumpir", "delivery": "yes", "description": "2022-12-05 abweichend von der Internet-Adresse lautet die Beschilderung des Geschäftes nur Kumpir", "diet:vegan": "yes", "diet:vegetarian": "yes", "drink:club-mate": "yes", "drive_through": "no", "indoor_seating": "yes", "level": "0", "name": "Kumpir", "opening_hours": "Su-Th 11:00-24:00; Fr-Sa 11:00-02:00", "opening_hours:signed": "no", "operator": "Kumpir König - Metin Bal", "outdoor_seating": "yes", "payment:cash": "yes", "payment:mastercard": "yes", "payment:visa": "yes", "phone": "+49 40 43097604", "smoking": "no", "website": "https://www.kumpirkoenig.de/", "wheelchair": "no"}}, {"type": "node", "id": 444718586, "lat": 53.5637417, "lon": 9.9656813, "tags": {"amenity": "fast_food", "branch": "S Bahnhof Sternschanze", "brand": "McDonalds", "brand:wikidata": "Q38076", "cuisine": "burger", "delivery": "no", "diet:vegan": "yes", "diet:vegetarian": "yes", "internet_access": "wlan", "internet_access:fee": "no", "internet_access:operator": "Telekom", "level": "0", "name": "McDonalds", "opening_hours": "Fr,Sa 11:00-01:00, Su-Th,PH 11:00-23:00", "phone": "+49 40 23517458", "smoking": "no", "takeaway": "yes", "toilets:wheelchair": "yes", "wheelchair": "yes"}}, {"type": "node", "id": 448907155, "lat": 53.5943135, "lon": 9.9963819, "tags": {"amenity": "fast_food", "diet:vegan": "no", "diet:vegetarian": "only", "indoor_seating": "yes", "name": "Lucullus", "opening_hours": "Su-Th 11:00-24:00, Fr,Sa 11:00-05:00", "outdoor_seating": "yes", "wheelchair": "limited"}}, {"type": "node", "id": 449546438, "lat": 53.6524582, "lon": 10.261193, "tags": {"addr:city": "Großhansdorf", "addr:country": "DE", "addr:housenumber": "9", "addr:postcode": "22927", "addr:street": "Ahrensfelder Weg", "amenity": "fast_food", "check_date": "2022-03-05", "contact:phone": "+49 4102 2174088", "contact:website": "https://pizza-pasta-grosshansdorf.de/5878", "drive_through": "no", "name": "Pizza Pasta Großhansdorf"}}, {"type": "node", "id": 449588182, "lat": 53.5959214, "lon": 10.0437989, "tags": {"addr:city": "Hamburg", "addr:country": "DE", "addr:housenumber": "226", "addr:postcode": "22307", "addr:street": "Fuhlsbüttler Straße", "amenity": "fast_food", "name": "Peters Hähnchengrill", "opening_hours": "Mo-Th 11:30-21:00; Fr,Su 11:30-22:00", "wheelchair": "yes"}}, {"type": "node", "id": 454619034, "lat": 53.646179, "lon": 10.0121032, "tags": {"addr:city": "Hamburg", "addr:housenumber": "159", "addr:postcode": "22415", "addr:street": "Langenhorner Chaussee", "amenity": "fast_food", "brand": "Smileys", "brand:wikidata": "Q60998945", "cuisine": "pizza;burger;sandwich;salad", "diet:vegetarian": "yes", "name": "Smileys Pizza Profis Langenhorn", "opening_hours": "Su-Th 11:00-23:00; Fr,Sa 11:00-24:00", "phone": "+49 40 5314344", "takeaway": "only", "website": "https://www.smileys.de/bestellen/Hamburg-Langenhorn", "wheelchair": "limited"}}, {"type": "node", "id": 458703194, "lat": 53.4595209, "lon": 9.8073579, "tags": {"amenity": "fast_food", "name": "Imbiss Freibad Neu Wulmstorf", "wheelchair": "limited"}}, {"type": "node", "id": 471778130, "lat": 53.5641275, "lon": 10.057299, "tags": {"addr:city": "Hamburg", "addr:housenumber": "148", "addr:postcode": "20535", "addr:street": "Marienthaler Straße", "amenity": "fast_food", "check_date:opening_hours": "2024-03-29", "cuisine": "sandwich", "name": "Easy Croque", "opening_hours": "Mo-Fr 11:00-22:00; Su 16:00-22:00", "phone": "+49 40 20972601", "toilets:wheelchair": "no", "wheelchair": "no"}}, {"type": "node", "id": 482516748, "lat": 53.5601993, "lon": 9.9636318, "tags": {"addr:city": "Hamburg", "addr:country": "DE", "addr:housenumber": "16", "addr:postcode": "20357", "addr:street": "Schulterblatt", "amenity": "fast_food", "check_date": "2024-04-25", "cuisine": "turkish", "drive_through": "no", "name": "Haus des Döners", "wheelchair": "limited"}}, {"type": "node", "id": 482847317, "lat": 53.550912, "lon": 9.9440646, "tags": {"addr:city": "Hamburg", "addr:country": "DE", "addr:housenumber": "10", "addr:postcode": "22767", "addr:street": "Jessenstraße", "amenity": "fast_food", "brand": "Dominos", "brand:wikidata": "Q839466", "brand:wikipedia": "en:Dominos Pizza", "contact:email": "info@dominos.de", "contact:phone": "+49 40 38 900 30", "contact:website": "https://www.dominos.de/kaufhaus/de-hamburgaltonaaltstadt-33750", "cuisine": "pizza", "name": "Dominos", "opening_hours": "Su-Th 11:00-24:00, Fr-Sa 11:00-01:00", "takeaway": "yes", "toilets:wheelchair": "no", "wheelchair": "yes"}}, {"type": "node", "id": 489564008, "lat": 53.5473373, "lon": 10.0506228, "tags": {"addr:housenumber": "145", "addr:street": "Borstelmannsweg", "amenity": "fast_food", "cuisine": "indian", "name": "Taj Mahal", "opening_hours": "Tu-Fr 11:00-22:30; Sa 12:30-22:30; Su 12:30-22:30; PH 12:30-22:30; Mo 11:00-15:00", "phone": "+49 40 21984711", "wheelchair": "no"}}, {"type": "node", "id": 518362175, "lat": 53.4243299, "lon": 10.2953027, "tags": {"amenity": "fast_food", "name": "Imbiss Stover Strand", "opening_hours": "Mo-Th 17:00-21:00; Fr-Su 12:00-21:00", "wheelchair": "no"}}, {"type": "node", "id": 533916049, "lat": 53.5703159, "lon": 10.0265596, "tags": {"addr:city": "Hamburg", "addr:country": "DE", "addr:housenumber": "67", "addr:postcode": "22087", "addr:street": "Mundsburger Damm", "air_conditioning": "yes", "amenity": "fast_food", "brand": "Burger King", "brand:wikidata": "Q177054", "brand:wikipedia": "en:Burger King", "changing_table": "yes", "check_date": "2023-06-04", "cuisine": "burger", "delivery": "yes", "diet:vegetarian": "yes", "indoor_seating": "yes", "internet_access": "wlan", "internet_access:fee": "no", "level": "0", "name": "Burger King", "opening_hours": "Mo-Sa 09:00-24:00; Su 10:00-24:00", "operator": "Burger King Deutschland GmbH", "outdoor_seating": "no", "payment:cash": "yes", "payment:cryptocurrencies": "no", "payment:electronic_purses": "no", "payment:girocard": "yes", "smoking": "no", "takeaway": "yes", "toilets": "yes", "toilets:access": "customers", "toilets:wheelchair": "yes", "wheelchair": "yes", "wheelchair:description": "kleine enge Tische"}}, {"type": "node", "id": 536391103, "lat": 53.5529071, "lon": 10.0103267, "tags": {"amenity": "fast_food", "check_date:opening_hours": "2024-05-04", "cuisine": "kebab", "name": "Gaziantep", "opening_hours:signed": "no", "wheelchair": "limited"}}, {"type": "node", "id": 536391105, "lat": 53.5527609, "lon": 10.0109025, "tags": {"amenity": "fast_food", "check_date": "2023-04-05", "cuisine": "kebab", "indoor_seating": "yes", "name": "Sait", "opening_hours": "Su-Th 09:00-03:00, Fr,Sa 09:00-04:00+", "outdoor_seating": "yes", "wheelchair": "limited"}}, {"type": "node", "id": 536391107, "lat": 53.5530302, "lon": 10.0106022, "tags": {"addr:city": "Hamburg", "addr:country": "DE", "addr:housenumber": "5", "addr:postcode": "20099", "addr:street": "Steindamm", "amenity": "fast_food", "cuisine": "kebab", "name": "Köz Istanbul", "opening_hours": "Mo-Su 06:00-04:00", "website": "http://www.kozistanbul.de/", "wheelchair": "no"}}, {"type": "node", "id": 536391112, "lat": 53.554733, "lon": 10.014368, "tags": {"amenity": "fast_food", "check_date": "2024-02-26", "cuisine": "kebab", "name": "Kebap Salonu Urfa", "wheelchair": "yes"}}, {"type": "node", "id": 539480803, "lat": 53.6502298, "lon": 10.1627591, "tags": {"access:covid19": "yes", "amenity": "fast_food", "check_date": "2023-07-08", "cuisine": "kebab", "drive_through:covid19": "no", "name": "Mega Döner", "opening_hours": "PH,Mo-Su 12:00-24:00", "phone": "+49 40 70702986", "takeaway:covid19": "yes", "toilets:wheelchair": "no", "wheelchair": "no"}}, {"type": "node", "id": 544750047, "lat": 53.5519305, "lon": 9.9949452, "tags": {"addr:city": "Hamburg", "addr:country": "DE", "addr:housenumber": "40", "addr:postcode": "20095", "addr:street": "Ballindamm", "amenity": "fast_food", "brand": "McDonalds", "brand:wikidata": "Q38076", "brand:wikipedia": "en:McDonalds", "cuisine": "burger", "layer": "-1", "level": "-1", "name": "McDonalds (closed)", "opening_hours": "Mo-Sa 10:00-20:00", "phone": "+49 40 30373296", "takeaway": "yes", "wheelchair": "yes"}}, {"type": "node", "id": 551491417, "lat": 53.5459924, "lon": 10.0246165, "tags": {"amenity": "fast_food", "check_date:opening_hours": "2023-06-11", "cuisine": "kebab", "indoor_seating": "yes", "name": "Sultans", "opening_hours:signed": "no", "outdoor_seating": "no", "payment:credit_cards": "no", "payment:debit_cards": "yes", "wheelchair": "limited"}}, {"type": "node", "id": 551779793, "lat": 53.5478886, "lon": 9.9870417, "tags": {"amenity": "fast_food", "check_date": "2023-10-05", "cuisine": "kebab", "indoor_seating": "yes", "name": "Rödings Döner", "outdoor_seating": "yes", "toilets:wheelchair": "no", "wheelchair": "limited"}}, {"type": "node", "id": 553104084, "lat": 53.548402, "lon": 9.9880184, "tags": {"addr:housenumber": "53", "addr:street": "Großer Burstah", "amenity": "fast_food", "check_date": "2023-08-12", "description": "Italian", "name": "Piccoli Pasti", "opening_hours": "Mo-Sa 08:00-20:00", "payment:credit_cards": "yes", "payment:debit_cards": "yes", "website": "https://piccoli-pasti.business.site/", "wheelchair": "no"}}, {"type": "node", "id": 555016295, "lat": 53.550351, "lon": 9.968921, "tags": {"addr:city": "Hamburg", "addr:country": "DE", "addr:housenumber": "1", "addr:postcode": "20359", "addr:street": "Millerntorplatz", "amenity": "fast_food", "brand": "Five Guys", "brand:wikidata": "Q1131810", "check_date": "2023-12-17", "contact:phone": "+49 40 18074330", "contact:website": "https://restaurants.fiveguys.de/hamburg/millerntorplatz-1", "cuisine": "burger", "indoor_seating": "yes", "name": "Five Guys", "official_name": "Five Guys Burgers and Fries", "opening_hours": "Mo-Sa 11:00-21:00; Su 11:00-20:00", "outdoor_seating": "yes", "takeaway": "yes", "wheelchair": "yes"}}, {"type": "node", "id": 569077554, "lat": 53.5672078, "lon": 9.980541, "tags": {"amenity": "fast_food", "check_date:diet:vegan": "2020-12-10", "check_date:diet:vegetarian": "2020-12-10", "check_date:opening_hours": "2024-02-28", "cuisine": "californian", "diet:vegan": "yes", "diet:vegetarian": "yes", "indoor_seating": "yes", "name": "Qrito", "opening_hours:signed": "no", "outdoor_seating": "yes", "wheelchair": "no", "wheelchair:description": "Tür schwenkt nach Außen. Direkt vor dem Schwenkbereich ist eine 12cm hohe Stufe."}}, {"type": "node", "id": 569078109, "lat": 53.566961, "lon": 9.9804361, "tags": {"amenity": "fast_food", "cuisine": "imbiss", "diet:kosher": "no", "diet:vegan": "no", "diet:vegetarian": "yes", "indoor_seating": "yes", "name": "Curry Grindel", "opening_hours": "Mo-Fr 12:00-20:30; Sa 12:00-19:00", "outdoor_seating": "yes", "wheelchair": "yes"}}, {"type": "node", "id": 576979760, "lat": 53.5508627, "lon": 9.9823804, "tags": {"addr:city": "Hamburg", "addr:housenumber": "6", "addr:postcode": "20355", "addr:street": "Steinwegpassage", "amenity": "fast_food", "contact:facebook": "https://www.facebook.com/KardelenHamburg/", "contact:instagram": "https://www.instagram.com/kardelenhamburg/", "cuisine": "kebab", "diet:vegetarian": "yes", "drive_through": "no", "email": "info@kardelen-hamburg.de", "indoor_seating": "yes", "name": "Kardelen", "opening_hours": "Mo-Th 11:00-16:00; Fr 11:00-15:30", "operator": "Onur Hepsen", "outdoor_seating": "yes", "payment:cash": "yes", "phone": "+49 40 35713140", "takeaway": "yes", "website": "https://kardelen-hamburg.de/", "wheelchair": "yes"}}, {"type": "node", "id": 576979768, "lat": 53.5513692, "lon": 9.9825172, "tags": {"amenity": "fast_food", "cuisine": "german", "name": "Neustädter Grill", "opening_hours": "Mo-Fr 11:00-18:00", "wheelchair": "no"}}, {"type": "node", "id": 577254540, "lat": 53.5639738, "lon": 9.8140604, "tags": {"amenity": "fast_food", "diet:vegan": "no", "diet:vegetarian": "yes", "indoor_seating": "yes", "name": "Blankeneser Imbiss", "opening_hours": "Mo-Fr 06:30-22:00; Sa-Su 11:00-22:00", "outdoor_seating": "no", "smoking": "no", "wheelchair": "yes"}}, {"type": "node", "id": 583611894, "lat": 53.6030599, "lon": 10.0510056, "tags": {"addr:city": "Hamburg", "addr:country": "DE", "addr:housenumber": "255", "addr:postcode": "22309", "addr:street": "Steilshooper Straße", "amenity": "fast_food", "branch": "Hamburg Steilshoop", "brand": "Call a Pizza", "brand:wikidata": "Q1027107", "contact:phone": "+49 40 6306051", "contact:website": "https://www.call-a-pizza.de/hamburg_steilshoop/", "cuisine": "pizza", "delivery": "yes", "drive_through": "no", "name": "Call a Pizza", "opening_hours": "Mo-Fr 11:00-14:30,17:00-22:45, Sa 15:00-22:45, Su 12:00-22:00", "takeaway": "yes"}}, {"type": "node", "id": 597321771, "lat": 53.5675665, "lon": 9.9518018, "tags": {"addr:city": "Hamburg", "addr:country": "DE", "addr:housenumber": "86", "addr:postcode": "22769", "addr:street": "Eimsbütteler Straße", "amenity": "fast_food", "brand": "burgerme", "brand:wikidata": "Q108866856", "contact:phone": "+49 40 787000", "contact:website": "https://www.burgerme.de/standorte/hamburg/altona/", "cuisine": "burger", "delivery": "yes", "diet:vegan": "yes", "diet:vegetarian": "yes", "indoor_seating": "no", "name": "burgerme", "opening_hours": "11:00-23:00", "outdoor_seating": "no", "takeaway": "only", "wheelchair": "limited"}}, {"type": "node", "id": 597340767, "lat": 53.6197068, "lon": 9.9525078, "tags": {"addr:city": "Hamburg", "addr:country": "DE", "addr:housenumber": "32a", "addr:postcode": "22459", "addr:street": "Tibarg", "addr:suburb": "Niendorf", "amenity": "fast_food", "cuisine": "kebab", "diet:vegan": "yes", "diet:vegetarian": "yes", "indoor_seating": "yes", "name": "Tibarg Kebap Haus", "opening_hours": "Mo-Sa 10:00-21:30; Su 11:00-21:30", "operator": "Hüseyin Köse", "outdoor_seating": "yes", "phone": "+49 157 34315204", "source": "website", "website": "https://tibarg-kebap.de/", "wheelchair": "limited"}}, {"type": "node", "id": 601012677, "lat": 53.7148355, "lon": 10.0001743, "tags": {"addr:city": "Norderstedt", "addr:housenumber": "328", "addr:postcode": "22846", "addr:street": "Ulzburger Straße", "amenity": "fast_food", "branch": "Norderstedt", "brand": "Smileys", "brand:wikidata": "Q60998945", "cuisine": "pizza", "delivery": "yes", "diet:vegetarian": "yes", "drive_through": "no", "email": "info@smileys.de", "name": "Smileys Pizza Profis", "opening_hours": "Mo-Su 11:00-00:00", "operator": "Smileys Franchise GmbH", "payment:cash": "yes", "payment:ec_cards": "yes", "phone": "+49 40 5261199", "ref:vatin": "DE813331054", "smoking": "no", "takeaway": "yes", "website": "https://www.smileys.de/bestellen/Norderstedt", "wheelchair": "yes"}}, {"type": "node", "id": 604672874, "lat": 53.5700043, "lon": 10.0260766, "tags": {"addr:city": "Hamburg", "addr:housenumber": "61", "addr:postcode": "22087", "addr:street": "Mundsburger Damm", "amenity": "fast_food", "brand": "Subway", "brand:wikidata": "Q244457", "brand:wikipedia": "en:Subway (restaurant)", "check_date": "2023-06-04", "check_date:opening_hours": "2023-11-20", "contact:facebook": "https://www.facebook.com/subwaydeutschland", "contact:instagram": "https://www.instagram.com/subway_de/", "contact:twitter": "https://twitter.com/Subway_DE", "cuisine": "sandwich", "delivery": "no", "name": "Subway", "opening_hours": "Mo-Fr 10:00-21:00; Sa 10:30-21:00; PH,Su 10:30-20:00", "phone": "+49 40 87883802", "takeaway": "yes", "website": "https://restaurants.subway.com/de/deutschland/hh/hamburg/mundsburger-damm-61", "wheelchair": "no"}}, {"type": "node", "id": 621101996, "lat": 53.5663196, "lon": 9.9802217, "tags": {"amenity": "fast_food", "delivery": "yes", "diet:vegan": "no", "diet:vegetarian": "yes", "name": "Croque Hütte", "opening_hours": "Mo-Fr 11:30-22:00; Sa-Su 12:00-22:00; PH 12:00-22:00", "operator": "Ali Ekber Akdeniz", "phone": "+49 40 45000991", "website": "http://croquehütte.de/", "wheelchair": "limited"}}, {"type": "node", "id": 627571045, "lat": 53.6699922, "lon": 10.2358914, "tags": {"amenity": "fast_food", "brand": "Smileys", "brand:wikidata": "Q60998945", "cuisine": "pizza", "diet:vegetarian": "yes", "name": "Smilies Pizza Service", "opening_hours": "Mo-Fr 11:00-23:00; Sa 12:00-23:00; Su 12:00-22:30", "website": "https://www.smileys.de/bestellen/Ahrensburg", "wheelchair": "limited"}}, {"type": "node", "id": 627572984, "lat": 53.6704814, "lon": 10.2345647, "tags": {"amenity": "fast_food", "brand": "Pizza Max", "brand:wikidata": "Q114189329", "cuisine": "pizza", "name": "Pizza Max", "takeaway": "yes", "wheelchair": "limited"}}, {"type": "node", "id": 639631011, "lat": 53.6035778, "lon": 9.8930812, "tags": {"amenity": "fast_food", "check_date": "2023-11-10", "cuisine": "kebab", "drive_in": "no", "drive_through": "no", "name": "Ess-Bahn Döner-Grill", "opening_hours": "Mo-Th 09:00-12:00; Fr,Sa 09:00-01:00, Su 18:00-12:00", "wheelchair": "limited"}}, {"type": "node", "id": 639631013, "lat": 53.6066439, "lon": 9.9019514, "tags": {"addr:city": "Hamburg", "addr:country": "DE", "addr:housenumber": "28", "addr:postcode": "22523", "addr:street": "Elbgaustraße", "amenity": "fast_food", "check_date": "2023-03-05", "cuisine": "asian", "delivery": "yes", "drive_through": "no", "name": "Yak", "opening_hours": "Mo-Fr 11:00-22:00; Sa-Su 13:00-22:00", "phone": "+49-40-53206206", "takeaway": "yes", "wheelchair": "limited"}}, {"type": "node", "id": 646972116, "lat": 53.4929487, "lon": 10.0133714, "tags": {"amenity": "fast_food", "cuisine": "kebab", "wheelchair": "limited"}}, {"type": "node", "id": 650363554, "lat": 53.5921335, "lon": 10.0445026, "tags": {"addr:city": "Hamburg", "addr:country": "DE", "addr:housenumber": "168", "addr:postcode": "22305", "addr:street": "Fuhlsbüttler Straße", "amenity": "fast_food", "cuisine": "thai", "drive_through": "no", "indoor_seating": "yes", "name": "Haj Ali Kebab", "opening_hours": "We-Mo 12:00-21:00", "outdoor_seating": "yes", "wheelchair": "limited"}}, {"type": "node", "id": 662891037, "lat": 53.6440667, "lon": 9.8121982, "tags": {"amenity": "fast_food", "name": "Döner Grill", "opening_hours": "We-Mo 15:00-22:00"}}, {"type": "node", "id": 663174802, "lat": 53.5453067, "lon": 9.9669179, "tags": {"addr:city": "Hamburg", "addr:country": "DE", "addr:housenumber": "6", "addr:postcode": "20359", "addr:street": "Bei den St. Pauli-Landungsbrücken", "amenity": "fast_food", "check_date": "2023-12-16", "cuisine": "german", "name": "Pommes Spezial", "wheelchair": "yes"}}, {"type": "node", "id": 663305078, "lat": 53.607923, "lon": 9.8400272, "tags": {"addr:city": "Schenefeld", "addr:housenumber": "111d", "addr:postcode": "22869", "addr:street": "Lornsenstraße", "amenity": "fast_food", "cuisine": "sandwich", "name": "Arnoldi", "website": "https://www.arnoldis-croque.de", "wheelchair": "limited"}}, {"type": "node", "id": 671916150, "lat": 53.4699096, "lon": 9.853932, "tags": {"addr:city": "Hamburg", "addr:country": "DE", "addr:housenumber": "2", "addr:postcode": "21149", "addr:street": "Neugrabener Markt", "amenity": "fast_food", "cuisine": "kebab", "name": "Grillhaus Neugraben", "outdoor_seating": "yes", "phone": "+49 40 3987 0741", "takeaway": "yes"}}, {"type": "node", "id": 674041908, "lat": 53.5888003, "lon": 10.0460264, "tags": {"addr:city": "Hamburg", "addr:housenumber": "110", "addr:postcode": "22305", "addr:street": "Fuhlsbüttler Straße", "amenity": "fast_food", "check_date:opening_hours": "2023-11-21", "cuisine": "kebab;turkish", "diet:vegetarian": "yes", "email": "fuhlegrill@gmail.com", "indoor_seating": "yes", "name": "Fuhle Grill", "opening_hours": "Mo-Su 09:00-24:00", "outdoor_seating": "yes", "phone": "+494087889091", "takeaway": "yes", "website": "https://www.fuhlegrill.de/", "wheelchair": "yes"}}, {"type": "node", "id": 690855635, "lat": 53.5853968, "lon": 10.0265678, "tags": {"addr:housenumber": "57", "addr:street": "Jarrestraße", "amenity": "fast_food", "check_date": "2023-06-10", "cuisine": "kebab", "name": "Döner Queen", "wheelchair": "yes"}}, {"type": "node", "id": 695548977, "lat": 53.6066541, "lon": 10.0119095, "tags": {"addr:city": "Hamburg", "addr:country": "DE", "addr:housenumber": "52", "addr:postcode": "22297", "addr:street": "Heubergredder", "amenity": "fast_food", "cuisine": "kebab", "delivery": "yes", "email": "info@sato-alsterdorf.de", "indoor_seating": "yes", "name": "Sato Grill Imbiss", "opening_hours": "Mo-Su 10:30-00:30", "operator": "Ilhami Sert", "outdoor_seating": "yes", "phone": "+49 40 518 192", "smoking": "outside", "takeaway": "yes", "website": "https://www.sato-alsterdorf.de/", "wheelchair": "no"}}, {"type": "node", "id": 698328368, "lat": 53.5728874, "lon": 9.8423376, "tags": {"amenity": "fast_food", "cuisine": "pizza", "name": "Robbys Pizza Drive", "opening_hours": "Mo-Th 11:30-22:30; Fr-Su 11:30-23:30", "url": "http://www.robbys-pizza-drive-hamburg.de/", "wheelchair": "limited"}}, {"type": "node", "id": 699666070, "lat": 53.5578974, "lon": 10.0464765, "tags": {"addr:city": "Hamburg", "addr:country": "DE", "addr:housenumber": "74", "addr:postcode": "20535", "addr:street": "Carl-Petersen-Straße", "amenity": "fast_food", "check_date": "2023-08-31", "cuisine": "kebab;grill", "drive_through": "no", "indoor_seating": "yes", "internet_access": "no", "level": "0", "name": "Hazar Grill", "opening_hours": "Mo-Su 11:00-22:00", "outdoor_seating": "yes", "payment:credit_cards": "yes", "payment:debit_cards": "yes", "payment:mastercard": "yes", "payment:visa": "yes", "phone": "+49 40 88234513", "website": "http://hazar-grill.de", "wheelchair": "limited"}}, {"type": "node", "id": 699859716, "lat": 53.5798531, "lon": 10.0312305, "tags": {"addr:city": "Hamburg", "addr:country": "DE", "addr:housenumber": "85", "addr:postcode": "22083", "addr:street": "Weidestraße", "amenity": "fast_food", "check_date": "2023-06-23", "name": "Croque Factory", "opening_hours": "Mo-Fr 11:00-16:00; Sa 00:00-24:00", "phone": "+49 40 69 64 64 60", "wheelchair": "no"}}, {"type": "node", "id": 703372865, "lat": 53.6501682, "lon": 9.8282805, "tags": {"addr:city": "Rellingen", "addr:country": "DE", "addr:housenumber": "39a", "addr:postcode": "25462", "addr:street": "Hauptstraße", "amenity": "fast_food", "email": "info@muckefuck-rellingen.de", "name": "Muckefuck", "opening_hours": "Mo-Su 12:00-21:30", "operator": "Rana Shabbir Ahmed", "phone": "+49 4101 512610", "website": "http://www.muckefuck-rellingen.de", "wheelchair": "limited"}}, {"type": "node", "id": 705977806, "lat": 53.5930926, "lon": 10.0203352, "tags": {"amenity": "fast_food", "indoor_seating": "no", "name": "Minigolf im Stadtpark", "opening_hours": "Mo,We-Fr 13:00-19:30; PH,Sa,Su 11:00-19:30", "outdoor_seating": "yes", "website": "https://www.minigolf-stadtpark-hamburg.com/", "wheelchair": "yes"}}, {"type": "node", "id": 710567583, "lat": 53.4608839, "lon": 9.9797581, "tags": {"amenity": "fast_food", "contact:facebook": "https://www.facebook.com/donerqueen/", "cuisine": "kebab", "indoor_seating": "yes", "name": "Döner Queen", "opening_hours:signed": "no", "outdoor_seating": "no", "payment:cash": "yes", "payment:contactless": "yes", "payment:girocard": "yes", "takeaway": "yes", "toilets": "yes", "wheelchair": "limited"}}, {"type": "node", "id": 719391895, "lat": 53.6327949, "lon": 9.9113477, "tags": {"addr:city": "Hamburg", "addr:country": "DE", "addr:housenumber": "2", "addr:postcode": "22457", "addr:street": "Oldesloer Straße", "amenity": "fast_food", "changing_table": "no", "contact:facebook": "https://www.facebook.com/D%C3%B6ner-Pavillon-Schnelsen-1587484798160838/", "cuisine": "kebab", "diet:vegetarian": "yes", "drive_through": "no", "email": "doenerpavillon@web.de", "name": "Döner Pavillion", "opening_hours": "Mo-Su 09:00-22:30", "outdoor_seating": "yes", "payment:cash": "yes", "payment:coins": "yes", "payment:ec": "yes", "phone": "+49 40 53261233", "takeaway": "yes", "toilets": "yes", "website": "https://doenerpavillion.eatbu.com", "wheelchair": "yes"}}, {"type": "node", "id": 728489833, "lat": 53.4580027, "lon": 9.9660608, "tags": {"amenity": "fast_food", "check_date:opening_hours": "2023-09-10", "cuisine": "kebab", "name": "Elbdöner", "opening_hours": "Mo-Su 11:30-23:00", "outdoor_seating": "yes", "smoking": "outside", "takeaway": "yes", "wheelchair": "no"}}, {"type": "node", "id": 735409821, "lat": 53.6497349, "lon": 10.0140161, "tags": {"amenity": "fast_food", "cuisine": "kebab;chicken;turkish", "delivery": "Mo-We 14:00-21:00;Fr-Su 14:00-21:00", "name": "Reina", "opening_hours": "Mo-Sa 10:00-21:00, Su 11:00-21:00", "payment:cash": "yes", "payment:cryptocurrencies": "no", "payment:electronic_purses": "no", "payment:girocard": "yes", "payment:maestro": "yes", "payment:mastercard": "yes", "payment:v_pay": "yes", "payment:visa": "yes", "phone": "+49 40 53035897", "smoking": "no", "takeaway": "yes", "website": "https://www.restaurantreinahamburg.de/", "wheelchair": "yes"}}, {"type": "node", "id": 735861718, "lat": 53.5733943, "lon": 9.8921892, "tags": {"amenity": "fast_food", "check_date:opening_hours": "2023-12-17", "cuisine": "pizza", "indoor_seating": "yes", "name": "Toni Pizzeria", "opening_hours": "Mo-Th 11:00-14:00, Fr 16:30-22:00, Sa 16:00-23:00, PH,Su 15:00-22:00, Mo-Th 16:30-22:00, Fr 11:00-14:00", "outdoor_seating": "yes", "wheelchair": "yes"}}, {"type": "node", "id": 740412872, "lat": 53.5408453, "lon": 9.9875949, "tags": {"addr:country": "DE", "addr:housename": "Kaiserperle", "addr:housenumber": "47", "addr:postcode": "20457", "addr:street": "Am Kaiserkai", "amenity": "fast_food", "check_date": "2024-02-03", "check_date:opening_hours": "2024-02-03", "cuisine": "german", "name": "Kaiserperle", "opening_hours:signed": "no", "smoking": "no", "wheelchair": "yes"}}, {"type": "node", "id": 761175803, "lat": 53.562761, "lon": 9.964912, "tags": {"addr:city": "Hamburg", "addr:country": "DE", "addr:housenumber": "20", "addr:postcode": "20357", "addr:street": "Susannenstraße", "amenity": "fast_food", "cuisine": "indian", "indoor_seating": "yes", "name": "Shikara QUICK", "opening_hours": "Mo-Fr 11:00-22:30; Sa 12:00-23:00; Su 12:00-22:30", "outdoor_seating": "yes", "phone": "+49 40 4302353", "website": "http://www.shikara-gourmet.de", "wheelchair": "limited"}}, {"type": "node", "id": 761953295, "lat": 53.55706, "lon": 10.0105144, "tags": {"amenity": "fast_food", "cuisine": "asian", "indoor_seating": "yes", "name": "Asia M 43", "old_name": "Yildiz Kebap Haus", "outdoor_seating": "yes", "wheelchair": "no"}}, {"type": "node", "id": 764870948, "lat": 53.5616642, "lon": 9.9486273, "tags": {"amenity": "fast_food", "check_date:opening_hours": "2024-05-30", "cuisine": "kebab", "diet:vegetarian": "yes", "indoor_seating": "yes", "name": "Holsten Döner", "opening_hours": "Mo-Su 09:00-02:00", "opening_hours:signed": "no", "outdoor_seating": "yes", "wheelchair": "yes"}}, {"type": "node", "id": 767919936, "lat": 53.5623716, "lon": 9.9645277, "tags": {"addr:city": "Hamburg", "addr:country": "DE", "addr:housenumber": "28", "addr:postcode": "20357", "addr:street": "Bartelsstraße", "amenity": "fast_food", "check_date:opening_hours": "2024-06-01", "cuisine": "asian", "delivery": "Mo-Fr 12:00-15:00, 18:00-22:00; Sa,Su,PH 12:00-22:00", "indoor_seating": "yes", "name": "Asia Imbiss WOK", "opening_hours:signed": "no", "outdoor_seating": "yes", "phone": "+49 40 4303301", "website": "https://www.asiaimbisswok-hh.de/", "wheelchair": "limited"}}, {"type": "node", "id": 767919938, "lat": 53.5622812, "lon": 9.9646238, "tags": {"addr:city": "Hamburg", "addr:country": "DE", "addr:housenumber": "26", "addr:postcode": "20357", "addr:street": "Bartelsstraße", "amenity": "fast_food", "indoor_seating": "yes", "name": "Polokantine", "opening_hours": "Mo-Fr 09:00-18:00; Sa,Su 10:00-18:00", "outdoor_seating": "yes", "phone": "+49 40 43179636", "wheelchair": "no"}}, {"type": "node", "id": 767925894, "lat": 53.5637326, "lon": 9.9607314, "tags": {"addr:city": "Hamburg", "addr:country": "DE", "addr:housenumber": "6", "addr:postcode": "20357", "addr:street": "Altonaer Straße", "amenity": "fast_food", "cuisine": "asian", "description": "tel. Bestellung für Selbstabholer; Vietnamesisch, Thailändisch, Chinesisch; wahlweise mit oder ohne Glutamat", "drive_through": "no", "indoor_seating": "yes", "name": "MyAsia", "opening_hours": "Mo-Fr 11:30-16:00, Sa,Su 15:00-22:00, Mo-Fr 17:30-22:00", "outdoor_seating": "yes", "phone": "+49 40 437775", "wheelchair": "yes"}}, {"type": "node", "id": 768104268, "lat": 53.5615161, "lon": 9.9625972, "tags": {"addr:city": "Hamburg", "addr:country": "DE", "addr:housenumber": "62", "addr:postcode": "20357", "addr:street": "Schulterblatt", "amenity": "fast_food", "indoor_seating": "yes", "name": "La Famille", "opening_hours": "Mo-Th 11:30-24:00; Fr-Sa 11:30+; Su 12:00+", "outdoor_seating": "yes", "phone": "+49 40 435384", "website": "http://www.croque-express.de", "wheelchair": "no"}}, {"type": "node", "id": 768107820, "lat": 53.561408, "lon": 9.9626804, "tags": {"addr:city": "Hamburg", "addr:country": "DE", "addr:housenumber": "60", "addr:postcode": "20357", "addr:street": "Schulterblatt", "amenity": "fast_food", "check_date:opening_hours": "2024-02-14", "cuisine": "seafood", "indoor_seating": "yes", "name": "Fischimbiss Schabi", "opening_hours": "Mo-Fr 12:00-21:30; Sa 12:00-21:00, Su 12:00-22:00", "opening_hours:signed": "no", "outdoor_seating": "yes", "phone": "+49-40 43290940", "takeaway": "yes", "wheelchair": "limited"}}, {"type": "node", "id": 772975136, "lat": 53.6329803, "lon": 10.055142, "tags": {"addr:city": "Hamburg", "addr:housenumber": "34", "addr:postcode": "22337", "addr:street": "Tornberg", "amenity": "fast_food", "name": "Mein Döner", "opening_hours": "Mo-Su 11:00-22:00", "phone": "+49 177 3621688", "website": "http://mein-doener.eatbu.com/", "wheelchair": "limited"}}, {"type": "node", "id": 773369184, "lat": 53.6088943, "lon": 10.0515649, "tags": {"amenity": "fast_food", "brand": "Burger King", "brand:wikidata": "Q177054", "brand:wikipedia": "en:Burger King", "cuisine": "burger", "drive_through": "yes", "name": "Burger King", "takeaway": "yes"}}, {"type": "node", "id": 773369925, "lat": 53.6029998, "lon": 10.0409423, "tags": {"addr:city": "Hamburg", "addr:country": "DE", "addr:housenumber": "412", "addr:postcode": "22309", "addr:street": "Fuhlsbüttler Straße", "amenity": "fast_food", "check_date:opening_hours": "2022-11-08", "cuisine": "asian", "indoor_seating": "yes", "name": "Wokman", "opening_hours:signed": "no", "outdoor_seating": "no", "wheelchair": "limited"}}, {"type": "node", "id": 775947384, "lat": 53.5448488, "lon": 9.9713617, "tags": {"amenity": "fast_food", "brand": "Nordsee", "brand:wikidata": "Q74866", "brand:wikipedia": "de:Nordsee (Restaurantkette)", "check_date": "2020-11-06", "contact:fax": "+49 40 68873037", "contact:phone": "+49 40 68873036", "cuisine": "seafood", "indoor_seating": "yes", "name": "Nordsee", "opening_hours": "Mo-Th 11:00-18:00; Fr,Sa 11:00-20:00; Su 11:00-19:00", "outdoor_seating": "yes", "takeaway": "yes", "website": "https://www.nordsee.com/de/filialen/detail/store/nordsee-hamburg-landungsbruecken-210/", "wheelchair": "limited"}}, {"type": "node", "id": 776018730, "lat": 53.6220845, "lon": 10.1549474, "tags": {"amenity": "fast_food", "name": "HDs Imbiss"}}, {"type": "node", "id": 811253668, "lat": 53.6653891, "lon": 9.9043263, "tags": {"addr:city": "Bönningstedt", "addr:country": "DE", "addr:housenumber": "109", "addr:postcode": "25474", "addr:street": "Kieler Straße", "air_conditioning": "no", "amenity": "fast_food", "cuisine": "pizza;kebab;burger", "description": "Lieferzeiten: Mo-Fr 10:45-22:00 Sa 15:30-22:00 Su 11:45-22:00", "diet:vegan": "yes", "diet:vegetarian": "yes", "email": "citypizzadoner@outlook.de", "indoor_seating": "yes", "name": "City Pizza und Döner", "opening_hours": "Mo-Fr 11:00-22:00; Sa 16:00-22:00; Su,PH 12:00-22:00", "operator": "Ahsan Ahmed", "outdoor_seating": "no", "payment:cash": "yes", "payment:coins": "yes", "payment:credit_cards": "yes", "payment:debit_cards": "yes", "payment:girocard": "yes", "payment:maestro": "yes", "payment:mastercard": "yes", "payment:visa": "yes", "phone": "+49 40 97074666", "ref:vatin": "DE336318025", "smoking": "no", "takeaway": "yes", "website": "https://www.citypizzadöner.de/", "wheelchair": "yes"}}, {"type": "node", "id": 835615953, "lat": 53.5905886, "lon": 10.0152781, "tags": {"amenity": "fast_food", "cuisine": "kebab", "diet:vegetarian": "yes", "drink:club-mate": "yes", "indoor_seating": "yes", "name": "Stadtpark Grill", "opening_hours": "Mo-Su 10:30-23:00", "outdoor_seating": "yes", "wheelchair": "limited"}}, {"type": "node", "id": 835616025, "lat": 53.5883877, "lon": 10.0046433, "tags": {"addr:city": "Hamburg", "addr:country": "DE", "addr:housenumber": "140", "addr:postcode": "22301", "addr:street": "Dorotheenstraße", "amenity": "fast_food", "brand": "Call a Pizza", "brand:wikidata": "Q1027107", "contact:phone": "+49 40 271025", "contact:website": "https://www.call-a-pizza.de/hamburg_winterhude/", "cuisine": "pizza", "diet:vegetarian": "yes", "indoor_seating": "yes", "long_name": "Call a Pizza Hamburg Winterhude", "name": "Call a Pizza", "opening_hours": "Mo-Th 10:45-22:30; Fr 10:45-23:00; Sa 11:45-23:00; PH,Su 11:45-22:00", "outdoor_seating": "yes", "takeaway": "yes", "wheelchair": "limited"}}, {"type": "node", "id": 841896019, "lat": 53.564409, "lon": 9.9653614, "tags": {"addr:city": "Hamburg", "addr:country": "DE", "addr:housenumber": "111", "addr:postcode": "20357", "addr:street": "Schanzenstraße", "air_conditioning": "no", "amenity": "fast_food", "check_date": "2023-10-24", "cuisine": "arab", "diet:vegan": "yes", "diet:vegetarian": "yes", "drink:club-mate": "yes", "drive_through": "no", "email": "info@falafelstern.de", "indoor_seating": "yes", "internet_access": "wlan", "internet_access:fee": "customers", "name": "Falafelstern", "opening_hours": "Su-Th 11:00-24:00; Fr-Sa 11:00-02:00", "outdoor_seating": "no", "payment:cash": "yes", "payment:credit_cards": "yes", "payment:debit_cards": "yes", "payment:mastercard": "yes", "payment:visa": "yes", "phone": "+49 40 41544435", "smoking": "no", "takeaway": "yes", "website": "http://falafelstern.de/", "wheelchair": "no"}}, {"type": "node", "id": 842577229, "lat": 53.5801327, "lon": 10.1038379, "tags": {"amenity": "fast_food", "contact:phone": "+49 40 64220601", "contact:website": "https://söner-kebab.de", "cuisine": "kebab", "internet_access": "wlan", "internet_access:fee": "no", "name": "Söner Kebab", "opening_hours": "Mo-Fr 10:00-22:00, Sa,Su 11:00-22:00", "outdoor_seating": "yes", "payment:cash": "yes", "payment:girocard": "yes", "payment:mastercard": "yes", "payment:visa": "yes", "wheelchair": "limited"}}, {"type": "node", "id": 863280541, "lat": 53.541234, "lon": 10.099529, "tags": {"amenity": "fast_food", "brand": "McDonalds", "brand:wikidata": "Q38076", "brand:wikipedia": "en:McDonalds", "cuisine": "burger", "name": "McDonalds", "opening_hours": "Mo-Th 07:30-01:00; Fr-Sa 07:30-04:00; Su 08:30-01:00", "phone": "+49 40 21987533", "takeaway": "yes", "website": "https://www.mcdonalds.de/restaurant/hamburg-billstedter-hauptstr-23-25", "wheelchair": "yes"}}, {"type": "node", "id": 864921542, "lat": 53.4204424, "lon": 10.0212259, "tags": {"air_conditioning": "yes", "amenity": "fast_food", "brand": "MUNDFEIN Pizzawerkstatt", "contact:fax": "+49 4105 1359998", "contact:phone": "+49 4105 1359999", "contact:website": "https://www.mundfein.de", "cuisine": "pizza", "delivery": "yes", "diet:vegan": "yes", "diet:vegetarian": "yes", "drive_through": "no", "indoor_seating": "yes", "name": "MUNDFEIN Pizzawerkstatt Seevetal", "opening_hours": "Mo-Sa 11:00-22:30, Su 12:00-22:30", "outdoor_seating": "no", "takeaway": "yes"}}, {"type": "node", "id": 874842154, "lat": 53.6471411, "lon": 9.9085917, "tags": {"amenity": "fast_food", "cuisine": "kebab", "indoor_seating": "yes", "name": "Onkel Döner", "opening_hours": "Mo-Su 09:00-23:00", "outdoor_seating": "yes", "payment:cash": "yes", "payment:coins": "yes", "payment:notes": "yes", "phone": "+49 170 4894824", "takeaway": "yes", "wheelchair": "yes"}}, {"type": "node", "id": 884705394, "lat": 53.5510063, "lon": 9.9298422, "tags": {"addr:city": "Hamburg", "addr:country": "DE", "addr:housenumber": "4", "addr:postcode": "22765", "addr:street": "Mottenburger Twiete", "amenity": "fast_food", "check_date": "2024-03-09", "contact:phone": "+49 40 87603346", "contact:website": "https://www.mrdamhamburg.de", "cuisine": "thai;asian", "indoor_seating": "yes", "name": "Mr. Dam", "opening_hours": "Mo-Fr 15:00-21:30; Sa, Su 12:00-21:30", "outdoor_seating": "yes", "wheelchair": "yes"}}, {"type": "node", "id": 884719115, "lat": 53.5534406, "lon": 9.9292728, "tags": {"addr:city": "Hamburg", "addr:country": "DE", "addr:housenumber": "146", "addr:postcode": "22765", "addr:street": "Bahrenfelder Straße", "amenity": "fast_food", "cuisine": "burger", "indoor_seating": "yes", "name": "Burger Heroes", "opening_hours": "Su-Th 12:00-01:00, Fr,Sa 12:00-02:00", "outdoor_seating": "yes", "wheelchair": "no"}}, {"type": "node", "id": 897150590, "lat": 53.5327508, "lon": 10.1270156, "tags": {"amenity": "fast_food", "cuisine": "chicken", "name": "Hähnchengrill Jührs"}}, {"type": "node", "id": 898840665, "lat": 53.5927343, "lon": 10.0439616, "tags": {"amenity": "fast_food", "check_date:opening_hours": "2022-12-03", "cuisine": "turkish", "indoor_seating": "yes", "name": "Ardacan Grillhaus", "opening_hours:signed": "no", "outdoor_seating": "yes", "wheelchair": "limited"}}, {"type": "node", "id": 942928849, "lat": 53.5931485, "lon": 9.9437272, "tags": {"addr:city": "Hamburg", "addr:country": "DE", "addr:housenumber": "45", "addr:postcode": "22529", "addr:street": "Koppelstraße", "amenity": "fast_food", "cuisine": "kebab", "diet:vegan": "no", "diet:vegetarian": "yes", "indoor_seating": "yes", "name": "Kebap Lounge", "opening_hours": "Mo-Su 10:00-22:30", "outdoor_seating": "yes", "takeaway": "yes"}}, {"type": "node", "id": 956350492, "lat": 53.5578861, "lon": 9.9630618, "tags": {"addr:city": "Hamburg", "addr:country": "DE", "addr:housenumber": "14", "addr:postcode": "20359", "addr:street": "Beim Grünen Jäger", "amenity": "fast_food", "cuisine": "german", "diet:vegetarian": "no", "indoor_seating": "yes", "name": "Imbiss bei Schorsch", "opening_hours": "Mo-Th 10:30-00:30; Fr-Sa 10:30-01:30; Su 12:00-22:00", "outdoor_seating": "yes", "phone": "+494043091925", "website": "http://www.imbiss-bei-schorsch.de", "wheelchair": "limited"}}, {"type": "node", "id": 956788681, "lat": 53.5656437, "lon": 10.0575412, "tags": {"addr:city": "Hamburg", "addr:housenumber": "53", "addr:postcode": "22089", "addr:street": "Hammer Steindamm", "amenity": "fast_food", "cuisine": "asian;vietnamese", "delivery": "yes", "diet:vegetarian": "yes", "indoor_seating": "yes", "name": "Saigon Food", "opening_hours": "Mo-Sa 11:00-20:00; Su 12:00-20:00", "outdoor_seating": "yes", "phone": "+49 174 8601614", "takeaway": "yes", "wheelchair": "limited"}}, {"type": "node", "id": 960159025, "lat": 53.5801534, "lon": 10.0813459, "tags": {"addr:city": "Hamburg", "addr:country": "DE", "addr:housenumber": "31", "addr:postcode": "22041", "addr:street": "Holzmühlenstraße", "addr:suburb": "Wandsbek", "amenity": "fast_food", "cuisine": "pizza", "name": "Pierro Croque & Pizza", "phone": "+49 40 53026330", "website": "https://www.pierro-bistro.de/", "wheelchair": "limited"}}, {"type": "node", "id": 968065687, "lat": 53.5579344, "lon": 10.0355229, "tags": {"addr:city": "Hamburg", "addr:housenumber": "62", "addr:postcode": "20535", "addr:street": "Bürgerweide", "amenity": "fast_food", "check_date:opening_hours": "2024-01-28", "cuisine": "pizza", "name": "Drive Pizza", "opening_hours": "Mo-Su 12:00-22:30", "opening_hours:signed": "no", "payment:credit_cards": "yes", "payment:debit_cards": "yes", "smoking": "no", "wheelchair": "limited"}}, {"type": "node", "id": 970280413, "lat": 53.7126461, "lon": 9.9927885, "tags": {"addr:city": "Norderstedt", "addr:housenumber": "38", "addr:postcode": "22846", "addr:street": "Waldstraße", "amenity": "fast_food", "check_date:opening_hours": "2023-01-14", "indoor_seating": "yes", "name": "Froque Croque", "opening_hours": "Mo-Su 11:00-22:00", "outdoor_seating": "no", "takeaway": "yes", "wheelchair": "limited"}}, {"type": "node", "id": 976181722, "lat": 53.6049708, "lon": 10.1582373, "tags": {"amenity": "fast_food", "name": "Dutch"}}, {"type": "node", "id": 977466073, "lat": 53.6059248, "lon": 10.1185327, "tags": {"addr:city": "Hamburg", "addr:country": "DE", "addr:housenumber": "173-175", "addr:postcode": "22159", "addr:street": "Berner Heerweg", "amenity": "fast_food", "brand": "Burger King", "brand:wikidata": "Q177054", "brand:wikipedia": "en:Burger King", "cuisine": "burger", "delivery": "no", "name": "Burger King", "opening_hours": "Mo-Sa 09:00-21:00", "operator": "BURGER KING Deutschland GmbH", "payment:cash": "yes", "payment:girocard": "yes", "payment:mastercard": "yes", "payment:visa": "yes", "phone": "+49 40 32861457", "smoking": "outside", "takeaway": "yes", "website": "https://www.burgerking.de/kingfinder/15297?id=690", "wheelchair": "limited"}}, {"type": "node", "id": 977547420, "lat": 53.6724023, "lon": 9.793825, "tags": {"addr:city": "Pinneberg", "addr:housenumber": "115", "addr:postcode": "25421", "addr:street": "Elmshorner Straße", "amenity": "fast_food", "branch": "Pinneberg", "cuisine": "burger", "email": "kontakt@burgerlounge.de", "name": "Burger Lounge", "phone": "+49 4101 8128241", "website": "https://www.burgerlounge.de/", "wheelchair": "limited"}}, {"type": "node", "id": 978789521, "lat": 53.6109783, "lon": 10.0580549, "tags": {"amenity": "fast_food", "cuisine": "kebab", "name": "Ali Köz", "wheelchair": "yes"}}, {"type": "node", "id": 981589253, "lat": 53.4573081, "lon": 9.9863114, "tags": {"addr:city": "Hamburg", "addr:housenumber": "3", "addr:postcode": "21073", "addr:street": "Seevepassage", "amenity": "fast_food", "cuisine": "kebab", "name": "Delikato"}}, {"type": "node", "id": 981645577, "lat": 53.4571985, "lon": 9.9875075, "tags": {"amenity": "fast_food", "name": "Lavas", "source": "survey"}}, {"type": "node", "id": 982639372, "lat": 53.525858, "lon": 10.0203619, "tags": {"addr:city": "Hamburg", "addr:country": "DE", "addr:housenumber": "4", "addr:postcode": "20539", "addr:street": "Veddeler Stieg", "amenity": "fast_food", "description": "Albanische Spezalitäten", "name": "Imbiss Tetova", "phone": "+49 40 781316"}}, {"type": "node", "id": 983585381, "lat": 53.5520575, "lon": 10.0120247, "tags": {"amenity": "fast_food", "check_date": "2023-04-04", "name": "Soulkebab", "opening_hours": "Mo-Su 05:00-24:00", "wheelchair": "yes"}}, {"type": "node", "id": 984515014, "lat": 53.5303762, "lon": 10.125397, "tags": {"addr:city": "Hamburg", "addr:country": "DE", "addr:housenumber": "70", "addr:postcode": "22117", "addr:street": "Steinbeker Hauptstraße", "amenity": "fast_food", "contact:phone": "+49 40 18995618", "contact:website": "https://www.arams-hamburg.de/", "cuisine": "pizza", "name": "Arams Pizza", "opening_hours": "Mo-Fr 11:00-22:00; Sa-Su 12:00-22:00"}}, {"type": "node", "id": 984538073, "lat": 53.4601305, "lon": 9.9754085, "tags": {"amenity": "fast_food", "cuisine": "kebab;turkish", "diet:vegetarian": "yes", "indoor_seating": "yes", "name": "Uni Grill Döner", "opening_hours:signed": "no", "outdoor_seating": "yes", "toilets:wheelchair": "no", "wheelchair": "yes", "wheelchair:description": "keine Toilette"}}, {"type": "node", "id": 984618253, "lat": 53.4440383, "lon": 9.9989324, "tags": {"addr:city": "Hamburg", "addr:country": "DE", "addr:housenumber": "3", "addr:postcode": "21079", "addr:street": "Mensingstraße", "amenity": "fast_food", "cuisine": "pizza", "delivery": "Mo-Su, PH 11:00-23:00", "name": "Pizza Max Harburg", "opening_hours": "Mo-Th, Su, PH 11:00-23:00; Fr-Sa 11:00-00:00", "phone": "+49 40 79005666", "website": "https://www.pizzamax.de/hamburg-harburg/"}}, {"type": "node", "id": 984794821, "lat": 53.489283, "lon": 10.2440731, "tags": {"amenity": "fast_food", "cuisine": "pizza", "name": "Napoli Pizza Haus", "website": "https://www.pizzahaus-napoli.de/", "wheelchair": "yes"}}, {"type": "node", "id": 985215264, "lat": 53.581912, "lon": 9.7566987, "tags": {"amenity": "fast_food", "toilets:wheelchair": "yes", "wheelchair": "yes"}}, {"type": "node", "id": 986906947, "lat": 53.5462063, "lon": 10.0244321, "tags": {"amenity": "fast_food", "check_date:opening_hours": "2022-12-22", "cuisine": "asian", "name": "Asia-Imbiss", "opening_hours": "Mo-Fr 11:00-16:00; PH closed", "payment:credit_cards": "no", "payment:debit_cards": "no", "wheelchair": "limited"}}, {"type": "node", "id": 991586346, "lat": 53.5725337, "lon": 10.0676996, "tags": {"addr:city": "Hamburg", "addr:country": "DE", "addr:housenumber": "97-99", "addr:postcode": "22041", "addr:street": "Wandsbeker Marktstraße", "amenity": "fast_food", "check_date": "2023-09-02", "contact:phone": "+49 40 68282240", "contact:website": "http://www.jim-block.de", "cuisine": "burger", "name": "Jim Block", "opening_hours": "Su-Th 11:30-22:00; Fr,Sa 11:30-23:00", "wheelchair": "yes"}}, {"type": "node", "id": 1026535049, "lat": 53.5678756, "lon": 9.9442309, "tags": {"addr:city": "Hamburg", "addr:country": "DE", "addr:housenumber": "54", "addr:postcode": "22769", "addr:street": "Kieler Straße", "amenity": "fast_food", "cuisine": "pizza", "name": "Ready Pizza", "opening_hours": "Su-Fr 12:00-01:00, Sa 16:00-01:00", "phone": "+49 40 88150888", "website": "https://www.ready-pizza.de"}}, {"type": "node", "id": 1026535050, "lat": 53.5685837, "lon": 9.9438012, "tags": {"amenity": "fast_food", "cuisine": "indian", "indoor_seating": "yes", "name": "Priyas Food", "outdoor_seating": "no", "takeaway": "yes"}}, {"type": "node", "id": 1030885635, "lat": 53.6207849, "lon": 10.031489, "tags": {"addr:housenumber": "761", "addr:street": "Fuhlsbüttler Straße", "amenity": "fast_food", "check_date:opening_hours": "2023-09-30", "indoor_seating": "yes", "layer": "1", "name": "Tekin", "opening_hours:signed": "no", "outdoor_seating": "no", "payment:credit_cards": "yes", "payment:debit_cards": "yes"}}, {"type": "node", "id": 1035374455, "lat": 53.5748786, "lon": 10.0399439, "tags": {"amenity": "fast_food", "check_date:opening_hours": "2023-11-05", "contact:facebook": "https://www.facebook.com/pages/category/Sandwich-Shop/Adana-Grill-100480392007467/", "contact:phone": "+49 40 716 356 48", "contact:website": "https://www.adanagrill-hh.de/", "cuisine": "kebab;pasta;falafel;pizza;turkish;german", "delivery": "yes", "diet:vegetarian": "yes", "name": "Adana Grill", "opening_hours": "PH,Mo-Su 11:00-23:00", "payment:credit_cards": "yes", "payment:debit_cards": "yes"}}, {"type": "node", "id": 1055516093, "lat": 53.5484027, "lon": 9.932637, "tags": {"amenity": "fast_food", "check_date:opening_hours": "2023-08-05", "cuisine": "indian", "indoor_seating": "yes", "name": "Masala", "opening_hours": "Mo-Fr 11:30-16:00", "outdoor_seating": "yes", "wheelchair": "no"}}, {"type": "node", "id": 1076972268, "lat": 53.547797, "lon": 9.9317056, "tags": {"amenity": "fast_food", "check_date:opening_hours": "2024-03-16", "cuisine": "asian", "diet:vegetarian": "yes", "indoor_seating": "yes", "name": "Mai Asia Imbiss", "opening_hours:signed": "no", "outdoor_seating": "yes", "wheelchair": "no"}}, {"type": "node", "id": 1078592709, "lat": 53.5519378, "lon": 9.9296094, "tags": {"addr:housenumber": "33", "addr:street": "Ottenser Hauptstraße", "air_conditioning": "no", "amenity": "fast_food", "check_date": "2023-06-17", "check_date:opening_hours": "2024-04-11", "cuisine": "turkish", "indoor_seating": "yes", "name": "Salman Imbiss", "opening_hours": "Mo-Su 11:00-00:00; Sa, Su 00:00-01:00", "opening_hours:signed": "no", "outdoor_seating": "yes", "payment:cash": "yes", "payment:credit_cards": "yes", "payment:debit_cards": "yes", "payment:mastercard": "yes", "payment:visa": "yes", "phone": "+49 1590 1404599", "source": "survey", "takeaway": "yes", "toilets": "yes", "toilets:wheelchair": "limited", "wheelchair": "limited"}}, {"type": "node", "id": 1084080755, "lat": 53.5525801, "lon": 9.9297958, "tags": {"addr:city": "Hamburg", "addr:country": "DE", "addr:housenumber": "105", "addr:postcode": "22765", "addr:street": "Bahrenfelder Straße", "amenity": "fast_food", "cuisine": "asian", "indoor_seating": "yes", "name": "Green Papaya", "opening_hours": "Mo-Sa 11:30-23:00; PH,Su 13:00-23:00", "outdoor_seating": "yes", "phone": "+49 40 39909598", "toilets": "yes", "toilets:wheelchair": "no", "wheelchair": "limited"}}, {"type": "node", "id": 1106541797, "lat": 53.5528856, "lon": 9.9296472, "tags": {"addr:city": "Hamburg", "addr:country": "DE", "addr:housenumber": "115", "addr:postcode": "22765", "addr:street": "Bahrenfelder Straße", "amenity": "fast_food", "cuisine": "turkish", "indoor_seating": "yes", "name": "Bey Kebab", "opening_hours": "Mo-Sa 09:00-24:00; Su 10:00-24:00", "outdoor_seating": "street", "toilets": "yes", "toilets:wheelchair": "no", "wheelchair": "limited"}}, {"type": "node", "id": 1135977375, "lat": 53.5618481, "lon": 9.9617975, "tags": {"addr:city": "Hamburg", "addr:country": "DE", "addr:housenumber": "69", "addr:postcode": "20357", "addr:street": "Schulterblatt", "amenity": "fast_food", "cuisine": "pizza", "diet:vegetarian": "yes", "indoor_seating": "yes", "name": "Pizza Pazza", "opening_hours:signed": "no", "outdoor_seating": "yes", "phone": "+49 40 78895330", "toilets": "yes", "toilets:wheelchair": "no", "wheelchair": "limited"}}, {"type": "node", "id": 1148155252, "lat": 53.6297369, "lon": 10.0228247, "tags": {"addr:city": "Hamburg", "addr:housenumber": "46", "addr:postcode": "22335", "addr:street": "Erdkampsweg", "amenity": "fast_food", "indoor_seating": "yes", "name": "Poke Moke", "outdoor_seating": "yes", "wheelchair": "no"}}, {"type": "node", "id": 1149418654, "lat": 53.6284727, "lon": 10.0237924, "tags": {"addr:city": "Hamburg", "addr:housenumber": "35a", "addr:postcode": "22335", "addr:street": "Erdkampsweg", "amenity": "fast_food", "check_date": "2023-06-04", "cuisine": "kebab", "drive_through": "no", "name": "Kebab For Friends", "opening_hours": "Mo-Su 11:00-22:00", "operator": "Inan Kilinc", "phone": "+49 40 52385505", "wheelchair": "limited"}}, {"type": "node", "id": 1172077827, "lat": 53.580824, "lon": 10.0235014, "tags": {"amenity": "fast_food", "check_date:opening_hours": "2023-09-03", "name": "CroqueLaden", "opening_hours": "Mo-Fr 11:00-21:00; Su 15:00-21:00", "payment:credit_cards": "yes", "payment:debit_cards": "yes", "phone": "+49 40 229 00 16", "wheelchair": "yes"}}, {"type": "node", "id": 1193587982, "lat": 53.5667266, "lon": 9.907775, "tags": {"addr:city": "Hamburg", "addr:country": "DE", "addr:housenumber": "75", "addr:postcode": "22761", "addr:street": "Bahrenfelder Chaussee", "amenity": "fast_food", "delivery": "only", "diet:vegetarian": "yes", "name": "burgerme", "opening_hours": "Mo-Fr 11:00-22:30; Sa,Su 12:00-22:30", "takeaway": "only", "wheelchair": "yes"}}, {"type": "node", "id": 1228036342, "lat": 53.6084918, "lon": 9.9035679, "tags": {"addr:city": "Hamburg", "addr:housenumber": "9", "addr:street": "Eidelstedter Platz", "amenity": "fast_food", "brand": "Quick", "brand:wikidata": "Q286494", "brand:wikipedia": "en:Quick (restaurant)", "cuisine": "burger", "name": "Quick", "opening_hours": "Mo-Su 10:00-22:00", "takeaway": "yes", "wheelchair": "yes"}}, {"type": "node", "id": 1256749974, "lat": 53.5560344, "lon": 9.8045995, "tags": {"amenity": "fast_food"}}, {"type": "node", "id": 1269116635, "lat": 53.4981799, "lon": 10.203097, "tags": {"amenity": "fast_food", "cuisine": "german", "name": "MrBeef Hamburg", "toilets:wheelchair": "no", "wheelchair": "no"}}, {"type": "node", "id": 1269116646, "lat": 53.4971493, "lon": 10.2042633, "tags": {"addr:city": "Hamburg", "addr:housenumber": "26", "addr:postcode": "21031", "addr:street": "Lohbrügger Landstraße", "amenity": "fast_food", "cuisine": "greek", "drive_through": "no", "name": "Taverna Alexandros", "opening_hours": "Tu off", "phone": "+49 40 7215680", "website": "https://www.gyros-taxi.com/"}}, {"type": "node", "id": 1278484419, "lat": 53.4871667, "lon": 10.1808287, "tags": {"amenity": "fast_food", "cuisine": "greek", "name": "Akropolis", "opening_hours": "Tu-Su 12:00-22:00", "toilets:wheelchair": "no", "wheelchair": "yes"}}, {"type": "node", "id": 1280186495, "lat": 53.5556486, "lon": 10.0632068, "tags": {"addr:city": "Hamburg", "addr:country": "DE", "addr:housenumber": "66", "addr:postcode": "20535", "addr:street": "Horner Weg", "amenity": "fast_food", "check_date:opening_hours": "2022-08-14", "cuisine": "pizza", "diet:vegetarian": "yes", "name": "Hammer Pizza", "opening_hours": "PH,We-Su 12:00-22:30", "phone": "+49 40 21986904;+49 40 21986905", "website": "https://www.hamm-erpizza.de/", "wheelchair": "no"}}, {"type": "node", "id": 1304228770, "lat": 53.6704968, "lon": 10.0204907, "tags": {"amenity": "fast_food", "wheelchair": "yes"}}, {"type": "node", "id": 1304569150, "lat": 53.6483656, "lon": 10.0155145, "tags": {"amenity": "fast_food", "cuisine": "kebab", "indoor_seating": "yes", "name": "Dein Döner", "opening_hours": "Mo-Fr 08:30-22:30; Sa 09:15-22:00; Su 09:30-22:00", "outdoor_seating": "yes", "wheelchair": "yes"}}, {"type": "node", "id": 1306984633, "lat": 53.6529483, "lon": 9.8292822, "tags": {"addr:housenumber": "61", "addr:street": "Hauptstraße", "amenity": "fast_food", "check_date": "2023-01-27", "cuisine": "kebab;burger;pizza;turkish", "name": "Berlin Döner", "opening_hours": "Mo-Sa 11:00-22:00; Su 12:00-22:00", "outdoor_seating": "yes", "phone": "+49 4101 511243", "takeaway": "yes", "wheelchair": "no"}}, {"type": "node", "id": 1317305560, "lat": 53.5748956, "lon": 10.0400525, "tags": {"amenity": "fast_food", "name": "speedcroque"}}, {"type": "node", "id": 1318030348, "lat": 53.6363387, "lon": 9.8399054, "tags": {"addr:city": "Halstenbek", "addr:housenumber": "49", "addr:postcode": "25469", "addr:street": "Hauptstraße", "amenity": "fast_food", "cuisine": "german;sausage", "delivery": "no", "drive_through": "no", "name": "Görner Grillstation", "opening_hours": "Mo-Fr 11:00-20:30; Su 16:00-20:30", "operator": "Ingo Görner", "outdoor_seating": "no", "payment:cash": "yes", "payment:coins": "yes", "payment:debit_cards": "yes", "phone": "+49 4101 41229", "takeaway": "yes", "website": "http://www.grillstation-goerner.de", "wheelchair": "limited"}}, {"type": "node", "id": 1334359099, "lat": 53.5818928, "lon": 9.7563502, "tags": {"amenity": "fast_food", "cuisine": "turkish", "toilets:wheelchair": "no", "wheelchair": "no"}}, {"type": "node", "id": 1334359100, "lat": 53.5817791, "lon": 9.7546392, "tags": {"addr:city": "Hamburg", "addr:country": "DE", "addr:housenumber": "53f", "addr:postcode": "22559", "addr:street": "Rissener Dorfstraße", "amenity": "fast_food", "cuisine": "pizza", "email": "muharrem_mor@live.de", "name": "Pizza Johlo", "opening_hours": "We 11:00-22:45", "operator": "Ayfer Mor", "phone": "+49 40 818185", "ref:vatin": "DE325627433", "website": "https://www.johlo-food.de"}}, {"type": "node", "id": 1334359103, "lat": 53.5826284, "lon": 9.7541776, "tags": {"addr:city": "Hamburg", "addr:country": "DE", "addr:housenumber": "58", "addr:postcode": "22559", "addr:street": "Wedeler Landstraße", "amenity": "fast_food", "brand": "Dominos", "brand:wikidata": "Q839466", "brand:wikipedia": "en:Dominos Pizza", "contact:email": "info@dominos.de", "contact:phone": "+49 40 8 19 98 10", "contact:website": "https://www.dominos.de/kaufhaus/dehh-hamburgrissen-33806", "cuisine": "pizza", "delivery": "yes", "name": "Dominos", "opening_hours": "Mo-Su 11:00-23:00", "takeaway": "yes", "wheelchair": "yes"}}, {"type": "node", "id": 1343921383, "lat": 53.6042492, "lon": 10.1547849, "tags": {"amenity": "fast_food", "name": "Sultans Kepub", "wheelchair": "yes"}}, {"type": "node", "id": 1346163695, "lat": 53.5508963, "lon": 9.9303039, "tags": {"addr:city": "Hamburg", "addr:country": "DE", "addr:housenumber": "88", "addr:postcode": "22765", "addr:street": "Bahrenfelder Straße", "amenity": "fast_food", "cuisine": "burger", "indoor_seating": "yes", "name": "Bliss", "opening_hours": "Tu-Th 14:00-22:00; Fr,Sa 13:00-22:00", "outdoor_seating": "yes", "wheelchair": "no"}}, {"type": "node", "id": 1346177410, "lat": 53.6975695, "lon": 10.2415628, "tags": {"amenity": "fast_food", "cuisine": "fish_and_chips", "indoor_seating": "yes", "name": "Grillstube", "opening_hours": "Mo-Fr 10:30-18:30; Sa 10:30-16:30", "outdoor_seating": "yes"}}, {"type": "node", "id": 1379951513, "lat": 53.4653152, "lon": 9.9621853, "tags": {"amenity": "fast_food", "cuisine": "kebab", "delivery": "no", "diet:vegan": "no", "diet:vegetarian": "yes", "indoor_seating": "yes", "internet_access": "no", "level": "0", "name": "Hatay", "opening_hours": "Su-We 10:00-01:00, Th-Sa 10:00-03:00", "outdoor_seating": "no", "payment:cash": "yes", "payment:credit_cards": "no", "payment:cryptocurrencies": "no", "payment:debit_cards": "no", "payment:electronic_purses": "no", "smoking": "outside", "surveillance": "indoor", "takeaway": "yes", "wheelchair": "no"}}, {"type": "node", "id": 1385113455, "lat": 53.6792743, "lon": 9.9679448, "tags": {"addr:city": "Norderstedt", "addr:country": "DE", "addr:housenumber": "5", "addr:postcode": "22848", "addr:street": "Friedrichsgaber Weg", "amenity": "fast_food", "contact:facebook": "https://www.facebook.com/Papp-Satt-Norderstedt-506986489413987/", "cuisine": "german", "delivery": "yes", "email": "info@pappsatt-norderstedt.de", "name": "Papp Satt", "opening_hours": "Mo-Fr 08:00-16:00", "operator": "Eckhardt Nehrig", "outdoor_seating": "yes", "payment:cash": "yes", "payment:coins": "yes", "phone": "+49 40 5282670", "ref:vatin": "DE1115708108", "takeaway": "yes", "website": "http://www.pappsatt-norderstedt.de/", "wheelchair": "limited"}}, {"type": "node", "id": 1391523601, "lat": 53.5687775, "lon": 9.98009, "tags": {"addr:city": "Hamburg", "addr:housenumber": "132", "addr:postcode": "20146", "addr:street": "Grindelallee", "amenity": "fast_food", "check_date:opening_hours": "2024-02-28", "diet:vegan": "yes", "diet:vegetarian": "yes", "drive_through": "no", "indoor_seating": "yes", "name": "arrabiata", "opening_hours": "Mo-Su 11:00-20:30", "operator": "spanish", "outdoor_seating": "yes", "toilets:wheelchair": "no", "wheelchair": "no"}}, {"type": "node", "id": 1391523618, "lat": 53.5660967, "lon": 9.9824643, "tags": {"addr:city": "Hamburg", "addr:housenumber": "44", "addr:postcode": "20146", "addr:street": "Grindelallee", "amenity": "fast_food", "cuisine": "turkish", "diet:vegan": "yes", "diet:vegetarian": "yes", "name": "Falafel Haus", "opening_hours": "Mo-Fr 11:30-21:00; Sa 12:00-21:00; Su 13:00-21:00", "wheelchair": "limited"}}, {"type": "node", "id": 1391540159, "lat": 53.5654267, "lon": 9.9833042, "tags": {"addr:city": "Hamburg", "addr:housenumber": "32", "addr:postcode": "20146", "addr:street": "Grindelallee", "amenity": "fast_food", "check_date": "2023-10-02", "diet:vegetarian": "yes", "name": "Spiesserei", "opening_hours:signed": "no", "wheelchair": "limited"}}, {"type": "node", "id": 1396884469, "lat": 53.57719, "lon": 10.19135, "tags": {"amenity": "fast_food", "cuisine": "burger", "name": "Miss Pepper", "source": "visit", "wheelchair": "yes"}}, {"type": "node", "id": 1404346774, "lat": 53.598322, "lon": 9.849935, "tags": {"amenity": "fast_food", "cuisine": "kebab", "drive_in": "no", "drive_through": "no", "name": "Döner-Burg", "outdoor_seating": "yes", "smoking": "outside", "takeaway": "yes", "wheelchair": "yes"}}, {"type": "node", "id": 1406915805, "lat": 53.5527926, "lon": 10.0414385, "tags": {"addr:city": "Hamburg", "addr:housenumber": "95", "addr:postcode": "20537", "addr:street": "Eiffestraße", "amenity": "fast_food", "check_date:opening_hours": "2023-12-25", "cuisine": "burger;kebab", "diet:vegetarian": "yes", "name": "Serhat Döner", "opening_hours": "Mo-Su 07:00-24:00", "payment:credit_cards": "yes", "payment:debit_cards": "yes"}}, {"type": "node", "id": 1411316586, "lat": 53.6890217, "lon": 10.2592405, "tags": {"addr:housenumber": "6", "addr:street": "Ewige Weide", "amenity": "fast_food", "cuisine": "pizza", "name": "Blondos", "wheelchair": "limited"}}, {"type": "node", "id": 1432023193, "lat": 53.5763071, "lon": 9.9431818, "tags": {"amenity": "fast_food", "cuisine": "asian", "indoor_seating": "yes", "name": "NANGLO Asia Imbiss", "opening_hours": "Mo-Su 11:30-22:00", "opening_hours:signed": "no", "outdoor_seating": "yes", "smoking": "no", "wheelchair": "no"}}, {"type": "node", "id": 1434216118, "lat": 53.5545262, "lon": 9.928462, "tags": {"addr:city": "Hamburg", "addr:country": "DE", "addr:housenumber": "175", "addr:postcode": "22765", "addr:street": "Bahrenfelder Straße", "amenity": "fast_food", "check_date": "2024-05-05", "check_date:opening_hours": "2023-05-08", "contact:phone": "+49 40 68919504", "contact:website": "https://www.ottosburger.com", "cuisine": "burger;american", "drive_through": "no", "indoor_seating": "yes", "name": "Ottos Burger", "opening_hours": "12:00-22:00", "outdoor_seating": "no", "source": "survey", "takeaway": "yes", "wheelchair": "no"}}, {"type": "node", "id": 1434784142, "lat": 53.5613053, "lon": 9.9482158, "tags": {"addr:housenumber": "15", "addr:street": "Holstenplatz", "amenity": "fast_food", "check_date:opening_hours": "2024-05-30", "cuisine": "croque", "diet:vegetarian": "yes", "indoor_seating": "yes", "name": "Monsieur Alfons", "opening_hours": "Tu-Su 12:00-23:00; Mo off", "outdoor_seating": "yes", "phone": "+49 40 43 22 634", "wheelchair": "limited"}}, {"type": "node", "id": 1451126887, "lat": 53.5608348, "lon": 9.9480312, "tags": {"addr:housenumber": "203", "addr:street": "Holstenstraße", "amenity": "fast_food", "name": "bock auf asia", "opening_hours": "Mo-Th 11:30-22:00; Fr,Sa 12:00-23:30; Su,PH 12:00-22:00"}}, {"type": "node", "id": 1475015125, "lat": 53.6139625, "lon": 10.0756187, "tags": {"addr:city": "Hamburg", "addr:country": "DE", "addr:housenumber": "251", "addr:postcode": "22177", "addr:street": "Bramfelder Chaussee", "amenity": "fast_food", "contact:email": "ilyas.aktag23@gmail.com", "contact:mobile": "+49 178 4475624", "contact:website": "https://www.eat-standbul.de/", "name": "eatstanbul", "wheelchair": "yes"}}, {"type": "node", "id": 1475057819, "lat": 53.6211274, "lon": 10.1027775, "tags": {"addr:housenumber": "45", "addr:postcode": "22175", "addr:street": "Pezolddamm", "amenity": "fast_food", "check_date": "2023-10-28", "cuisine": "greek", "name": "Der Giros-Spezialist", "opening_hours": "Tu-Su 11:30-21:30", "wheelchair": "yes"}}, {"type": "node", "id": 1478145906, "lat": 53.5980158, "lon": 9.9377131, "tags": {"amenity": "fast_food", "indoor_seating": "no", "name:signed": "no", "outdoor_seating": "yes"}}, {"type": "node", "id": 1496197257, "lat": 53.5493609, "lon": 9.9589603, "tags": {"amenity": "fast_food", "cuisine": "kebab", "name": "Köz Antep Gülbaba", "opening_hours:signed": "no"}}, {"type": "node", "id": 1500705095, "lat": 53.4899888, "lon": 10.2058631, "tags": {"amenity": "fast_food", "check_date": "2023-05-07", "cuisine": "kebab;pizza;turkish", "description:de": "Grill- und Backshop", "diet:vegan": "no", "diet:vegetarian": "yes", "indoor_seating": "yes", "internet_access": "no", "level": "1", "name": "Pamukkale", "opening_hours": "Mo-Th 04:00-02:00, Fr-Sa 05:00-04:00, Su 05:00-01:00", "outdoor_seating": "yes", "payment:cash": "yes", "payment:credit_cards": "no", "payment:cryptocurrencies": "no", "payment:debit_cards": "no", "payment:electronic_purses": "no", "phone": "+49 40 72693710", "smoking": "outside", "takeaway": "yes", "website": "https://www.einkaufsbahnhof.de/hamburg-bergedorf/hh-bergedorf_pamukkale_back-und-grillshop-s10588", "wheelchair": "yes"}}, {"type": "node", "id": 1500705988, "lat": 53.4894318, "lon": 10.2069216, "tags": {"air_conditioning": "yes", "amenity": "fast_food", "brand": "McDonalds", "brand:wikidata": "Q38076", "brand:wikipedia": "en:McDonalds", "check_date": "2023-05-07", "contact:phone": "+49 40 41922980", "cuisine": "burger", "delivery": "no", "diet:vegetarian": "yes", "indoor_seating": "yes", "internet_access": "wlan", "internet_access:fee": "no", "name": "McDonalds", "opening_hours": "Mo-Th 07:00-01:00, Fr 07:00-05:00, Sa 07:00-06:00, Su 09:00-01:00", "operator": "Michael Kaup Systemgastronomie e.K.", "outdoor_seating": "no", "payment:cash": "yes", "payment:cryptocurrencies": "no", "payment:electronic_purses": "no", "payment:girocard": "yes", "smoking": "no", "takeaway": "yes", "wheelchair": "limited"}}, {"type": "node", "id": 1500707347, "lat": 53.4900335, "lon": 10.2087813, "tags": {"amenity": "fast_food", "name": "Best Grill"}}, {"type": "node", "id": 1502662568, "lat": 53.5799704, "lon": 9.9746642, "tags": {"addr:city": "Hamburg", "addr:housenumber": "28", "addr:postcode": "20253", "addr:street": "Hoheluftchaussee", "amenity": "fast_food", "brand": "Subway", "brand:wikidata": "Q244457", "brand:wikipedia": "en:Subway (restaurant)", "contact:facebook": "https://www.facebook.com/subwaydeutschland", "contact:instagram": "https://www.instagram.com/subway_de/", "contact:twitter": "https://twitter.com/Subway_DE", "cuisine": "sandwich", "delivery": "yes", "diet:vegetarian": "yes", "indoor_seating": "yes", "name": "Subway", "opening_hours": "Mo-Fr 10:30-21:30; Sa,Su 11:30-21:30; PH 12:00-20:30", "outdoor_seating": "yes", "phone": "+49 40 79692124", "ref:vatin": "DE317746103", "takeaway": "yes", "website": "https://restaurants.subway.com/de/deutschland/hb/hamburg/hochenluftchaussee-28", "wheelchair": "limited"}}, {"type": "node", "id": 1503044982, "lat": 53.7234519, "lon": 10.2507472, "tags": {"amenity": "fast_food", "operator": "Freibad Bargteheide", "wheelchair": "limited"}}, {"type": "node", "id": 1503301949, "lat": 53.57398, "lon": 9.9593076, "tags": {"amenity": "fast_food", "cuisine": "sandwich", "name": "Croque du Nord"}}, {"type": "node", "id": 1504507535, "lat": 53.5801576, "lon": 9.9682391, "tags": {"amenity": "fast_food", "name": "Eppendorfer Grillstation", "opening_hours": "Mo-Sa 11:00-20:00; Su 12:00-20:00", "toilets:wheelchair": "no", "wheelchair": "no"}}, {"type": "node", "id": 1508523202, "lat": 53.5634048, "lon": 10.0608498, "tags": {"amenity": "fast_food", "delivery": "yes", "email": "harjitkhehra71@yahoo.de", "name": "Casa Roma", "phone": "+49 40 2008293", "takeaway": "yes", "website": "https://www.casaroma-hh.de/"}}, {"type": "node", "id": 1510711794, "lat": 53.7298455, "lon": 10.2629539, "tags": {"amenity": "fast_food", "cuisine": "burger", "name": "Zentrum Grill"}}, {"type": "node", "id": 1530319607, "lat": 53.4823644, "lon": 10.2095475, "tags": {"addr:city": "Hamburg", "addr:country": "DE", "addr:housenumber": "31", "addr:postcode": "21029", "addr:street": "Curslacker Neuer Deich", "addr:suburb": "Bergedorf", "amenity": "fast_food", "cuisine": "kebab", "name": "Sis Kebap", "phone": "+49 40 7218324", "smoking": "yes", "wheelchair": "yes"}}, {"type": "node", "id": 1532564266, "lat": 53.6018967, "lon": 10.0623621, "tags": {"amenity": "fast_food", "cuisine": "kebab", "name": "Sultans Kitchen"}}, {"type": "node", "id": 1532564279, "lat": 53.6019946, "lon": 10.0623997, "tags": {"amenity": "fast_food", "name": "Crazy Croque"}}, {"type": "node", "id": 1542144553, "lat": 53.5564453, "lon": 9.9883491, "tags": {"addr:city": "Hamburg", "addr:country": "DE", "addr:housenumber": "29-32", "addr:postcode": "20354", "addr:street": "Dammtorstraße", "amenity": "fast_food", "check_date:opening_hours": "2024-02-12", "cuisine": "burger", "diet:vegetarian": "yes", "fax": "+49 40 32088590", "indoor_seating": "yes", "name": "Jim Block", "opening_hours": "Su-Th 11:30-22:00; Fr,Sa 11:30-23:00", "outdoor_seating": "yes", "phone": "+49 40 32088360", "toilets:wheelchair": "yes", "wheelchair": "yes"}}, {"type": "node", "id": 1562338728, "lat": 53.5776886, "lon": 9.9638213, "tags": {"amenity": "fast_food", "brand": "Dominos", "brand:wikidata": "Q839466", "brand:wikipedia": "en:Dominos Pizza", "check_date:opening_hours": "2024-04-24", "contact:email": "info@dominos.de", "contact:phone": "+49 40 4018060", "contact:website": "https://www.dominos.de/kaufhaus/de-hamburgeppendorf-33799", "cuisine": "pizza", "delivery": "yes", "diet:vegan": "yes", "diet:vegetarian": "yes", "name": "Dominos", "opening_hours": "Su-Th 11:00-23:00; Fr-Sa 11:00-23:30", "takeaway": "yes", "wheelchair": "yes"}}, {"type": "node", "id": 1562338832, "lat": 53.5841112, "lon": 9.9686673, "tags": {"amenity": "fast_food", "check_date": "2024-03-16", "cuisine": "kebab", "name": "Sel Kebaps", "opening_hours:signed": "no", "wheelchair": "yes"}}, {"type": "node", "id": 1566028446, "lat": 53.6488455, "lon": 9.927737, "tags": {"air_conditioning": "yes", "amenity": "fast_food", "brand": "IKEA", "brand:wikidata": "Q54078", "cuisine": "swedish", "indoor_seating": "yes", "name": "IKEA Restaurant", "name:ru": "Ресторан ИКЕА", "opening_hours": "Mo-Sa 09:30-20:00; PH closed", "outdoor_seating": "yes", "takeaway": "yes", "wheelchair": "yes"}}, {"type": "node", "id": 1571347963, "lat": 53.5520306, "lon": 10.0111017, "tags": {"addr:city": "Hamburg", "addr:country": "DE", "addr:housenumber": "78", "addr:postcode": "20097", "addr:street": "Adenauerallee", "amenity": "fast_food", "brand": "McDonalds", "brand:wikidata": "Q38076", "brand:wikipedia": "en:McDonalds", "check_date": "2023-06-12", "contact:email": "service@mcdonalds.de", "contact:fax": "+49 40 28054667", "contact:phone": "+49 40 246841", "contact:website": "http://www.mcdonalds.de/restaurant/hamburg-adenauer-allee-78-zob", "cuisine": "burger", "delivery": "yes", "diet:vegetarian": "yes", "drive_through": "no", "indoor_seating": "yes", "internet_access": "yes", "internet_access:fee": "no", "level": "0", "name": "McDonalds", "opening_hours": "Su-Th 07:00-23:00, Fr,Sa 07:00-24:00", "operator": "Amend Restaurantbetrieb Adenauer Allee GmbH & Co. KG", "outdoor_seating": "no", "payment:cash": "yes", "payment:coins": "yes", "payment:contactless": "yes", "payment:credit_cards": "yes", "payment:cryptocurrencies": "no", "payment:debit_cards": "yes", "payment:electronic_purses": "no", "payment:girocard": "yes", "payment:mastercard": "yes", "payment:visa": "yes", "payment:visa_debit": "yes", "smoking": "outside", "takeaway": "yes", "wheelchair": "no", "wheelchair:description": "evtl schwere Türen, überdachtes Strassenverkaufsfenster vorhanden"}}, {"type": "node", "id": 1578691351, "lat": 53.6742175, "lon": 10.2364164, "tags": {"amenity": "fast_food", "cuisine": "pizza", "name": "Wanted", "opening_hours": "Mo-Su,PH 13:00-22:30", "phone": "+4941027774334", "toilets:wheelchair": "yes", "website": "https://www.wantedpizza.de/"}}, {"type": "node", "id": 1579342339, "lat": 53.5498615, "lon": 10.0012152, "tags": {"amenity": "fast_food", "check_date:opening_hours": "2023-12-03", "diet:vegan": "yes", "diet:vegetarian": "yes", "indoor_seating": "yes", "name": "Söhne Hamburgs", "opening_hours": "Mo-Fr 09:00-18:00; Sa 09:00-16:00", "outdoor_seating": "yes", "payment:credit_cards": "yes", "payment:debit_cards": "yes", "wheelchair": "no"}},