{"version": 0.6, "generator": "Overpass API 0.7.62.1 084b4234", "osm3s": {"timestamp_osm_base": "2024-06-14T12:07:11Z", "copyright": "The data included in this document is from www.openstreetmap.org. The data is made available under ODbL."}, "elements": [{"type": "node", "id": 21634136, "lat": 53.5106531, "lon": 10.2504808, "tags": {"amenity": "library", "name": "Stadtbibliothek", "ref:isil": "none"}}, {"type": "node", "id": 25149456, "lat": 53.5862316, "lon": 10.044504, "tags": {"addr:city": "Hamburg", "addr:country": "DE", "addr:housenumber": "12", "addr:postcode": "22305", "addr:street": "Poppenhusenstraße", "amenity": "library", "check_date": "2023-05-01", "check_date:opening_hours": "2022-03-20", "email": "barmbek@buecherhallen.de", "fax": "+49 40 294851", "name": "Bücherhalle Barmbek", "opening_hours": "Tu-Fr 10:00-19:00; Sa 10:00-14:00 || Mo-Su 07:00-20:00 \"FlexiBib\"", "operator": "Stiftung Hamburger Öffentliche Bücherhallen", "phone": "+49 40 291591", "website": "https://www.buecherhallen.de/barmbek.html", "wheelchair": "limited"}}, {"type": "node", "id": 31032271, "lat": 53.5500374, "lon": 10.0086697, "tags": {"addr:city": "Hamburg", "addr:housenumber": "1", "addr:postcode": "20097", "addr:street": "Hühnerposten", "amenity": "library", "check_date": "2023-06-07", "internet_access": "wlan", "internet_access:fee": "no", "level": "0", "name": "Kinderbibliothek", "opening_hours": "Mo-Sa 10:00-19:00", "operator": "Stiftung Hamburger Öffentliche Bücherhallen", "operator:type": "public", "website": "https://www.buecherhallen.de/kinderbibliothek.html", "wheelchair": "yes"}}, {"type": "node", "id": 55104136, "lat": 53.6074682, "lon": 9.9028581, "tags": {"addr:city": "Hamburg", "addr:country": "DE", "addr:housenumber": "12", "addr:postcode": "22523", "addr:street": "Alte Elbgaustraße", "amenity": "library", "contact:phone": "+49 40 5709420", "contact:website": "http://www.buecherhallen.de/eidelstedt", "level": "0", "name": "Bücherhalle Eidelstedt", "opening_hours": "Tu-Fr 11:00-18:00; Sa 10:00-13:00; PH off", "wheelchair": "limited"}}, {"type": "node", "id": 272602415, "lat": 53.556974, "lon": 9.9924733, "tags": {"amenity": "library", "check_date:opening_hours": "2022-03-23", "name": "Zentralbibliothek für Wirtschaftswissenschaften", "opening_hours": "Mo-Fr 09:00-20:00", "phone": "+49 40 42834-219", "ref:isil": "DE-206H", "website": "https://www.zbw.eu/", "wheelchair": "yes"}}, {"type": "node", "id": 277305227, "lat": 53.4609968, "lon": 9.9692164, "tags": {"amenity": "library", "check_date:opening_hours": "2023-11-12", "internet_access": "terminal", "name": "Universitätsbibliothek der TUHH", "opening_hours": "Mo-Fr 09:00-21:00; Sa 08:00-20:00; PH,Su 10:00-20:00", "phone": "+49 40 42878-2845", "ref:isil": "DE-830", "toilets:wheelchair": "yes", "website": "https://www.tub.tuhh.de/", "wheelchair": "yes", "wikidata": "Q2496355", "wikipedia": "de:Universitätsbibliothek der Technischen Universität Hamburg-Harburg"}}, {"type": "node", "id": 296163986, "lat": 53.4682829, "lon": 9.7912693, "tags": {"addr:city": "Neu Wulmstorf", "addr:country": "DE", "addr:housenumber": "39", "addr:postcode": "21629", "addr:street": "Bahnhofstraße", "amenity": "library", "name": "Bücherei im Rathaus", "ref:isil": "DE-1217", "toilets:wheelchair": "yes", "wheelchair": "yes", "wikidata": "Q28733811"}}, {"type": "node", "id": 303650623, "lat": 53.5720074, "lon": 9.9564014, "tags": {"addr:city": "Hamburg", "addr:housenumber": "12", "addr:postcode": "20259", "addr:street": "Doormannsweg", "amenity": "library", "contact:phone": "+49 40 40 99 04", "internet_access": "terminal", "name": "Bücherhalle Eimsbüttel", "opening_hours": "Tu 10:00-19:00, We 10:00-18:00, Th 10:00-19:00, Fr 10:00-18:00, Sa 10:00-14:00", "operator": "Stiftung Hamburger Öffentliche Bücherhallen", "wheelchair": "yes"}}, {"type": "node", "id": 308910405, "lat": 53.4566665, "lon": 9.9839912, "tags": {"amenity": "library", "email": "harburg@buecherhallen.de", "level": "1", "name": "Bücherhalle Harburg", "opening_hours": "Tu-Fr 10:00-19:00; Sa 10:00-14:00", "phone": "+49 40 772923", "website": "https://buecherhallen.de", "wheelchair": "yes"}}, {"type": "node", "id": 351573914, "lat": 53.5530092, "lon": 9.9316935, "tags": {"access": "yes", "addr:city": "Hamburg", "addr:country": "DE", "addr:housenumber": "10", "addr:postcode": "22765", "addr:street": "Ottenser Hauptstraße", "amenity": "library", "check_date": "2023-07-14", "contact:phone": "+49 40 396892", "contact:website": "https://www.buecherhallen.de/altona", "dog": "no", "internet_access": "wlan", "internet_access:fee": "no", "level": "2", "name": "Bücherhalle Altona", "opening_hours": "Tu-Fr 10:00-19:00; Sa 10:00-14:00; PH off", "operator": "Hamburger Öffentliche Bücherhallen", "operator:type": "public", "payment:cash": "yes", "payment:debit_cards": "yes", "payment:ec_cards": "yes", "website": "https://www.buecherhallen.de/altona.html", "wheelchair": "yes", "wikidata": "Q106498002"}}, {"type": "node", "id": 364123372, "lat": 53.5566027, "lon": 10.0220998, "tags": {"amenity": "library", "name": "Fachbibliothek Technik Wirtschaft Information 1", "opening_hours": "Mo-Fr 09:00-21:00; Sa 10:00-20:00", "ref:isil": "none", "website": "http://www.haw-hamburg.de/hibs/oeffnungszeiten.html#c53111", "wheelchair": "yes"}}, {"type": "node", "id": 364123447, "lat": 53.5572326, "lon": 10.0230931, "tags": {"addr:city": "Hamburg", "addr:housenumber": "5", "addr:postcode": "20099", "addr:street": "Berliner Tor", "amenity": "library", "name": "Fachbibliothek Technik und Informatik", "ref:isil": "DE-18-302", "website": "http://www.haw-hamburg.de/hibs/oeffnungszeiten.html#c101067", "wheelchair": "yes"}}, {"type": "node", "id": 369992222, "lat": 53.5769934, "lon": 10.0429515, "tags": {"addr:city": "Hamburg", "addr:country": "DE", "addr:housenumber": "30", "addr:postcode": "22081", "addr:street": "Wohldorfer Straße", "amenity": "library", "name": "Bücherhalle Dehnhaide", "operator": "Bücherhallen Hamburg", "phone": "+49 40 29 55 10", "website": "https://www.buecherhallen.de/dehnhaide.html"}}, {"type": "node", "id": 369995603, "lat": 53.5393206, "lon": 10.1071805, "tags": {"addr:city": "Hamburg", "addr:country": "DE", "addr:housenumber": "31", "addr:postcode": "22111", "addr:street": "Möllner Landstraße", "amenity": "library", "contact:phone": "+49 40 7325220", "contact:website": "https://www.buecherhallen.de/billstedt", "level": "1", "name": "Bücherhalle Billstedt", "opening_hours": "Tu-Fr 11:00-18:00; Sa 10:00-13:00; PH off", "wheelchair": "limited"}}, {"type": "node", "id": 370003104, "lat": 53.5322648, "lon": 9.8790514, "tags": {"addr:city": "Hamburg", "addr:country": "DE", "addr:housenumber": "5", "addr:postcode": "21129", "addr:street": "Ostfrieslandstraße", "amenity": "library", "name": "Bücherhalle Finkenwerder", "opening_hours": "Th, Tu 11:00-13:00, 14:00-18:00", "phone": "+49 40 7426891", "wheelchair": "limited"}}, {"type": "node", "id": 370043992, "lat": 53.6260845, "lon": 10.025542, "tags": {"addr:city": "Hamburg", "addr:country": "DE", "addr:housenumber": "23", "addr:postcode": "22335", "addr:street": "Ratsmühlendamm", "amenity": "library", "contact:email": "fuhlsbuettel@buecherhallen.de", "name": "Bücherhalle Fuhlsbüttel", "opening_hours": "Mo off; Tu-Fr 10:00-18:00; Sa 10:00-14:00", "phone": "+49 40 50 20 82", "website": "https://www.buecherhallen.de/fuhlsbuettel.html", "wheelchair": "limited"}}, {"type": "node", "id": 370049974, "lat": 53.6500886, "lon": 10.013538, "tags": {"addr:city": "Hamburg", "addr:housenumber": "1-18", "addr:postcode": "22415", "addr:street": "Langenhorner Markt", "amenity": "library", "contact:email": "langenhorn@buecherhallen.de", "contact:website": "https://www.buecherhallen.de/langenhorn.html", "internet_access": "wlan", "level": "1", "name": "Bücherhalle Langenhorn", "opening_hours": "Mo-Su 07:00-22:00", "operator": "Stiftung Hamburger Öffentliche Bücherhallen", "operator:type": "public", "phone": "+49 40 531 30 76", "service_times": "Tu-Fr 10:00-18:00; Sa 10:00-14:00", "wheelchair": "yes"}}, {"type": "node", "id": 370050228, "lat": 53.6002342, "lon": 9.9631099, "tags": {"addr:housenumber": "1", "addr:street": "Kollaustraße", "amenity": "library", "internet_access": "wlan", "name": "Bücherhalle Lokstedt", "opening_hours": "Tu,Th 10:00-19:00; We,Fr 10:00-18:00; Sa 10:00-14:00", "phone": "+49 40 58 42 89", "wheelchair": "yes"}}, {"type": "node", "id": 370050991, "lat": 53.5290185, "lon": 10.1483755, "tags": {"addr:city": "Hamburg", "addr:country": "DE", "addr:housenumber": "8", "addr:postcode": "22115", "addr:street": "Feiningerstraße", "amenity": "library", "contact:phone": "+49 40 50741364", "contact:website": "https://www.buecherhallen.de/muemmelmannsberg.html", "name": "Bücherhalle Mümmelmannsberg", "opening_hours": "Tu, Th 11:00-14:00, 15:00-18:00; We 11:00-14:00, 15:00-17:00", "wheelchair": "yes"}}, {"type": "node", "id": 370051310, "lat": 53.4891103, "lon": 10.1579181, "tags": {"addr:city": "Hamburg", "addr:country": "DE", "addr:housenumber": "2 -4", "addr:street": "Fleetplatz", "amenity": "library", "contact:phone": "+49 40 7399470", "level": "1", "name": "Bücherhalle Neuallermöhe", "wheelchair": "yes"}}, {"type": "node", "id": 370056679, "lat": 53.6313618, "lon": 9.9179285, "tags": {"addr:city": "Hamburg", "addr:country": "DE", "addr:housenumber": "19", "addr:postcode": "22459", "addr:street": "Wählingsallee", "addr:suburb": "Schnelsen", "amenity": "library", "name": "Bücherhalle Schnelsen", "opening_hours": "Tu, Fr 10:00-13:30,14:30-18:00; PH off", "phone": "+49 40 5509293", "source": "website", "website": "https://www.buecherhallen.de/schnelsen.html", "wheelchair": "limited"}}, {"type": "node", "id": 370058957, "lat": 53.6141732, "lon": 10.0575086, "tags": {"addr:city": "Hamburg", "addr:country": "DE", "addr:housenumber": "43a", "addr:postcode": "22309", "addr:street": "Gropiusring", "amenity": "library", "email": "steilshoop@buecherhallen.de", "fax": "+49 40 639 93 38", "level": "0", "name": "Bücherhalle Steilshoop", "opening_hours": "Tu-Fr 13:00-17:15; Sa 10:00-14:15; PH,Mo,Su off", "operator": "Stiftung Hamburger Öffentliche Bücherhallen", "phone": "+49 40 6318464", "website": "https://www.buecherhallen.de/steilshoop.html", "wheelchair": "yes"}}, {"type": "node", "id": 370063355, "lat": 53.6480101, "lon": 10.168954, "tags": {"addr:city": "Hamburg", "addr:country": "DE", "addr:housenumber": "55", "addr:postcode": "22359", "addr:street": "Eulenkrugstraße", "amenity": "library", "check_date:opening_hours": "2023-12-30", "description:covid19": "Open Library ist momentan nicht möglich (personalunabhäniges Nutzen der Bücherhalle) wegen Corona-Schutzmaßnahmen", "level": "1", "name": "Bücherhalle Volksdorf", "opening_hours": "Tu-Fr 10:00-19:00; Sa 10:00-14:00", "phone": "+49 40 60912290", "website": "https://www.buecherhallen.de/volksdorf", "wheelchair": "yes"}}, {"type": "node", "id": 370066927, "lat": 53.5179353, "lon": 9.9862547, "tags": {"addr:city": "Hamburg", "addr:country": "DE", "addr:housenumber": "45", "addr:postcode": "21107", "addr:street": "Vogelhüttendeich", "amenity": "library", "name": "Bücherhalle Wilhelmsburg", "opening_hours": "Tu-Fr 14:00-18:00, Tu-Sa 10:00-13:00", "phone": "+49 40 757268", "wheelchair": "yes"}}, {"type": "node", "id": 370068083, "lat": 53.5942716, "lon": 10.0010504, "tags": {"addr:city": "Hamburg", "addr:housenumber": "6", "addr:postcode": "22299", "addr:street": "Winterhuder Marktplatz", "amenity": "library", "check_date": "2023-04-26", "contact:email": "winterhude@buecherhallen.de", "contact:fax": "+49 40 2780110", "contact:phone": "+49 40 2792625", "contact:website": "http://www.buecherhallen.de/ca/e/dx/", "internet_access": "wlan", "layer": "1", "location:de": "im EKZ Forum Winterhude", "name": "Bücherhalle Winterhude", "opening_hours": "Tu,Th 11:00-19:00; We,Fr 11:00-18:00; Sa 10:00-14:00", "toilets:wheelchair": "no", "wheelchair": "yes"}}, {"type": "node", "id": 391527466, "lat": 53.7311844, "lon": 9.904409, "tags": {"addr:city": "Quickborn", "addr:housenumber": "100", "addr:postcode": "25451", "addr:street": "Bahnhofstraße", "amenity": "library", "check_date:opening_hours": "2021-06-11", "email": "stadtbuecherei@quickborn.de", "internet_access": "wlan,terminal", "name": "Stadtbücherei Quickborn", "opening_hours": "Mo,Tu,Th,Fr 10:30-14:00,15:00-18:00; Sa 09:30-12:00; We off", "phone": "+49 4106 611470", "ref:isil": "none", "website": "https://www.stadtbuecherei-quickborn.de/", "wheelchair": "yes", "wikidata": "Q28662418"}}, {"type": "node", "id": 427596942, "lat": 53.6475346, "lon": 10.2775241, "tags": {"amenity": "library", "name": "Bücherei Großhansdorf", "wheelchair": "no"}}, {"type": "node", "id": 456737337, "lat": 53.5479644, "lon": 9.936762, "tags": {"amenity": "library", "contact:email": "info@nkb.nordkirche.de", "contact:fax": "+49 40 306201317", "contact:phone": "+49 40 306201400", "contact:website": "https://nkb.nordkirche.de/", "name": "Nordkirchenbibliothek", "old_name": "Nordelbische Kirchenbibliothek", "wikidata": "Q1997846", "wikipedia": "de:Nordkirchenbibliothek"}}, {"type": "node", "id": 472570241, "lat": 53.7279724, "lon": 10.2612815, "tags": {"addr:city": "Bargteheide", "addr:country": "DE", "addr:housenumber": "4", "addr:postcode": "22941", "addr:street": "Am Markt", "amenity": "library", "name": "Stadtbücherei Bargteheide", "opening_hours": "Mo-Tu 11:00-18:00, Th 11:00-19:00, Fr 11:00-18:00", "phone": "+49 4532-2852-11", "ref:isil": "none"}}, {"type": "node", "id": 487371926, "lat": 53.5569269, "lon": 9.9524011, "tags": {"addr:housenumber": "5-7", "addr:street": "Norderreihe", "amenity": "library", "contact:phone": "+49 40 432 22 28", "name": "Bücherhalle Holstenstraße", "opening_hours": "Tu-Fr 10:00-17:00", "operator": "Bücherhallen Hamburg", "wheelchair": "yes"}}, {"type": "node", "id": 487402486, "lat": 53.6111365, "lon": 10.0787088, "tags": {"addr:housenumber": "18", "addr:postcode": "22179", "addr:street": "Herthastraße", "amenity": "library", "email": "bramfeld@buecherhallen.de", "name": "Bücherhalle Bramfeld", "opening_hours": "We-Fr 10:00-18:00; Tu 10:00-19:00; Sa 10:00-14:00", "operator": "Bücherhallen Hamburg", "phone": "+49 40 6415933", "website": "https://www.buecherhallen.de/bramfeld.html", "wheelchair": "limited"}}, {"type": "node", "id": 487428207, "lat": 53.5540136, "lon": 10.0816381, "tags": {"addr:city": "Hamburg", "addr:country": "DE", "addr:housenumber": "46", "addr:postcode": "22111", "addr:street": "Am Gojenboom", "amenity": "library", "contact:phone": "+49 40 6515133", "contact:website": "http://www.buecherhallen.de/horn", "name": "Bücherhalle Horn", "opening_hours": "Mo-Su 07:00-19:00", "toilets:wheelchair": "yes", "wheelchair": "yes"}}, {"type": "node", "id": 493172859, "lat": 53.5743781, "lon": 10.0696038, "tags": {"addr:housenumber": "64", "addr:street": "Wandsbeker Allee", "amenity": "library", "contact:email": "wandsbek@buecherhallen.de", "contact:fax": "+49 40 68 63 53", "name": "Bücherhalle Wandsbek", "opening_hours": "Tu,Th 10:00-19:00; Sa 10:00-14:00; We,Fr 10:00-19:00; PH closed", "phone": "+49 40 68 63 32", "wheelchair": "yes"}}, {"type": "node", "id": 512099065, "lat": 53.5681071, "lon": 9.9787317, "tags": {"addr:city": "Hamburg", "addr:housenumber": "6", "addr:postcode": "20146", "addr:street": "Martin-Luther-King-Platz", "amenity": "library", "name": "Bibliothek des Fachbereichs Chemie", "ref:isil": "DE-18-48", "toilets:wheelchair": "no", "wheelchair": "limited"}}, {"type": "node", "id": 554976608, "lat": 53.5693635, "lon": 10.1095971, "tags": {"addr:city": "Hamburg", "addr:housenumber": "85", "addr:postcode": "22043", "addr:street": "Holstenhofweg", "amenity": "library", "name": "Universitätsbibliothek, Helmut-Schmidt-Universität, Universität der Bundeswehr Hamburg", "opening_hours": "Mo-Fr 09:00-22:00; Sa-Su 10:00-18:00", "phone": "+49 40 6541-2626", "ref:isil": "DE-705", "website": "http://www.hsu-bibliothek.de/", "wheelchair": "yes", "wheelchair:description": "behindertengerechtes WC befindet sich in unmittelbarer Raumnähe", "wikidata": "Q1436042"}}, {"type": "node", "id": 554995243, "lat": 53.5697607, "lon": 9.9758346, "tags": {"amenity": "library", "name": "Bibliothek, Instituts für Friedensforschung und Sicherheitspolitik an der Universität Hamburg", "ref": "18/226", "ref:isil": "DE-18-226"}}, {"type": "node", "id": 555001168, "lat": 53.5991542, "lon": 9.9322696, "tags": {"amenity": "library", "name": "Bibliothek des Fachbereichs Informatik", "name:en": "Library of the Department for Informatics", "opening_hours": "Mo-Fr 09:00-19:00", "operator": "Universiät Hamburg", "ref": "18/228", "ref:isil": "DE-18-228", "website": "https://www.inf.uni-hamburg.de/de/inst/bib.html", "wheelchair": "yes"}}, {"type": "node", "id": 555016398, "lat": 53.5671836, "lon": 10.0315422, "tags": {"amenity": "library", "description": "Bibliothek der Hochschule für bildende Künste", "name": "Bibliohek in der Hochschule der Bildenden Künste", "name:de": "Bibliothek der HfBK", "opening_hours": "Mo-Th 10:00-20:00; Fr 10:00-18:00", "wheelchair": "yes"}}, {"type": "node", "id": 583495258, "lat": 53.5502232, "lon": 9.9927728, "tags": {"amenity": "library", "name": "Parlamentsbibliothek", "ref:isil": "DE-H224", "wheelchair": "no"}}, {"type": "node", "id": 583498425, "lat": 53.5489216, "lon": 10.0045177, "tags": {"access": "private", "addr:city": "Hamburg", "addr:housenumber": "4", "addr:postcode": "20095", "addr:street": "Johanniswall", "amenity": "library", "check_date": "2023-06-07", "name": "Bücherei, Behörde für Inneres Hamburg, Amt A", "ref:isil": "DE-H362"}}, {"type": "node", "id": 583498784, "lat": 53.5553461, "lon": 10.0028498, "tags": {"amenity": "library", "check_date": "2023-08-01", "name": "Hamburger Kunsthalle, Bibliothek", "opening_hours": "Tu-Su 10:00-18:00, Th 10:00-21:00", "ref:isil": "DE-H13", "wikidata": "Q28737659"}}, {"type": "node", "id": 583501365, "lat": 53.5683323, "lon": 9.9912045, "tags": {"amenity": "library", "name": "UNESCO-Institut für Lebenslanges Lernen", "ref:isil": "DE-H108", "wikidata": "Q856549"}}, {"type": "node", "id": 583510581, "lat": 53.5500579, "lon": 9.9909581, "tags": {"addr:city": "Hamburg", "addr:country": "DE", "addr:housenumber": "1", "addr:postcode": "20457", "addr:street": "Adolphsplatz", "amenity": "library", "email": "info@commerzbibliothek.de", "fax": "+49 40 36138437", "name": "Commerzbibliothek", "opening_hours": "Mo-Th 10:00-20:00; Fr,Sa 10:00-15:00", "operator": "Handelskammer Hamburg", "phone": "+49 40 36138377", "ref:isil": "DE-205", "website": "https://www.hk24.de/servicemarken/ueber_uns/hk_gruppe/commerzbibliothek/", "wheelchair": "yes"}}, {"type": "node", "id": 584880329, "lat": 53.5517582, "lon": 10.0165556, "tags": {"amenity": "library", "name": "Mediothek und Dokumentationsstelle", "ref:isil": "DE-H279"}}, {"type": "node", "id": 584884162, "lat": 53.5495233, "lon": 10.0078955, "tags": {"addr:city": "Hamburg", "addr:housenumber": "1", "addr:postcode": "20097", "addr:street": "Hühnerposten", "amenity": "library", "check_date": "2023-06-07", "internet_access": "wlan", "internet_access:fee": "no", "level": "2", "name": "Musikbibliothek", "opening_hours": "Mo-Sa 10:00-19:00", "operator": "Stiftung Hamburger Öffentliche Bücherhallen", "operator:type": "public", "ref:isil": "DE-H107", "wheelchair": "yes"}}, {"type": "node", "id": 585008249, "lat": 53.5516654, "lon": 10.0089836, "tags": {"amenity": "library", "name": "Gerd Bucerius Bibliothek", "opening_hours": "Tu,We,Fr 11:00-17:30; Th 11:00-19:00", "phone": "+49 40 4281342386", "ref:isil": "DE-H22", "website": "https://www.mkg-hamburg.de/", "wheelchair": "yes", "wikidata": "Q28733431"}}, {"type": "node", "id": 587629284, "lat": 53.5509231, "lon": 10.0313751, "tags": {"amenity": "library", "check_date:opening_hours": "2024-03-28", "name": "Bibliothek des Evangelischen Missionswerks in Deutschland", "opening_hours:signed": "no", "ref:isil": "DE-H370"}}, {"type": "node", "id": 587629285, "lat": 53.5509438, "lon": 10.0314283, "tags": {"addr:city": "Hamburg", "addr:housenumber": "17-21", "addr:postcode": "20537", "addr:street": "Normannenweg", "amenity": "library", "check_date:opening_hours": "2024-03-28", "name": "Archiv Aktiv", "opening_hours:signed": "no", "phone": "+49 40 4302046", "ref:isil": "none", "website": "http://www.archiv-aktiv.de/", "wikidata": "Q635521"}}, {"type": "node", "id": 587668104, "lat": 53.557558, "lon": 10.0220781, "tags": {"amenity": "library", "name": "Gerichtsbibliothek", "phone": "+49 40 428437697", "ref:isil": "DE-H358", "toilets:wheelchair": "yes", "wheelchair": "yes"}}, {"type": "node", "id": 587668544, "lat": 53.5696343, "lon": 9.9755662, "tags": {"amenity": "library", "name": "Bibliothek, Forschungsstelle für Zeitgeschichte in Hamburg", "operator": "Universität Hamburg", "ref:isil": "DE-H250", "wikidata": "Q28738376"}}, {"type": "node", "id": 587668665, "lat": 53.5696253, "lon": 9.9760951, "tags": {"amenity": "library", "name": "Bibliothek, Institut für die Geschichte der deutschen Juden", "operator": "Universität Hamburg", "ref:isil": "DE-H227", "wikidata": "Q28738350"}}, {"type": "node", "id": 587670000, "lat": 53.5726958, "lon": 9.977242, "tags": {"addr:city": "Hamburg", "addr:country": "DE", "addr:postcode": "20144", "addr:street": "Bogenallee", "amenity": "library", "name": "Bibliothek, Institut für Finno-Ugristik / Uralistik", "ref:isil": "DE-18-219"}}, {"type": "node", "id": 587673450, "lat": 53.5624438, "lon": 9.9889343, "tags": {"amenity": "library", "check_date": "2023-12-30", "name": "Asien-Afrika-Institut der Universität Hamburg, Bibliothek", "ref:isil": "DE-18-303", "wheelchair": "yes"}}, {"type": "node", "id": 587683755, "lat": 53.5654157, "lon": 9.9847877, "tags": {"addr:city": "Hamburg", "addr:country": "DE", "addr:housenumber": "5", "addr:postcode": "20146", "addr:street": "Von-Melle-Park", "amenity": "library", "level": "1", "name": "Fachbibliothek Wirtschaftswissenschaften", "opening_hours": "Mo-Th 09:00-18:00; Fr 09:00-17:00", "operator": "Universität Hamburg", "operator:type": "university", "operator:wikidata": "Q156725", "phone": "+49 40 4042838-5596", "ref:isil": "DE-18-261", "website": "https://www.wiso.uni-hamburg.de/bibliothek/ueber-die-bibliothek/standorte/fb-wiwi.html", "wheelchair": "limited"}}, {"type": "node", "id": 587683756, "lat": 53.5672916, "lon": 9.9825101, "tags": {"amenity": "library", "name": "Sozialwissenschaftliche Bibliothek", "phone": "+49 40 428383550", "ref:isil": "DE-18-76", "wheelchair": "yes"}}, {"type": "node", "id": 587683757, "lat": 53.5678371, "lon": 9.9829142, "tags": {"amenity": "library", "name": "Bibliothek, Humanbiologie", "phone": "+49 40 42838-3698", "ref:isil": "DE-18-132", "wheelchair": "yes"}}, {"type": "node", "id": 587683759, "lat": 53.6048197, "lon": 10.0185475, "tags": {"amenity": "library", "contact:phone": "+49 40 42838-2736", "contact:website": "https://www.slm.uni-hamburg.de/bibliothek/teilbibliotheken/neuere-deutsche-literatur.html", "name": "Teilbibliothek Neuere Deutsche Literatur", "opening_hours": "Mo-Fr 10:00-18:00", "operator": "Universität Hamburg", "operator:type": "university", "operator:wikidata": "Q156725", "operator:wikipedia": "de:Universität Hamburg", "ref:isil": "DE-18-156"}}, {"type": "node", "id": 587683760, "lat": 53.6050664, "lon": 10.0185618, "tags": {"amenity": "library", "contact:phone": "+49 40 42838-2062", "contact:website": "https://www.slm.uni-hamburg.de/bibliothek/teilbibliotheken/allgemeine-sprachwissenschaft-indogermanistik.html", "name": "Teilbibliothek Allgemeine Sprachwissenschaft und Indogermanistik", "opening_hours": "Mo-Fr 10:00-18:00", "operator": "Universität Hamburg", "operator:type": "university", "operator:wikidata": "Q156725", "operator:wikipedia": "de:Universität Hamburg", "ref:isil": "DE-18-294"}}, {"type": "node", "id": 588375124, "lat": 53.5684295, "lon": 9.9738294, "tags": {"addr:city": "Hamburg", "addr:postcode": "20146", "addr:street": "Bundesstraße", "amenity": "library", "name": "Bibliothek - Mathematik und Geschichte der Naturwissenschaften", "opening_hours": "Mo-Th 10:00-19:00; Fr 10:00-17:00", "ref:isil": "DE-18-263", "toilets:wheelchair": "yes", "wheelchair": "limited"}}, {"type": "node", "id": 588375125, "lat": 53.5679728, "lon": 9.9740443, "tags": {"addr:city": "Hamburg", "addr:postcode": "20146", "addr:street": "Bundesstraße", "amenity": "library", "name": "Bibliothek, Geologisch-Paläontologisches Institut und Museum", "opening_hours": "Mo-Fr 09:00-18:00; Sa 09:00-12:00", "operator": "Universität Hamburg", "operator:type": "university", "operator:wikidata": "Q156725", "ref:isil": "DE-18-24"}}, {"type": "node", "id": 588375127, "lat": 53.5676602, "lon": 9.9752031, "tags": {"addr:city": "Hamburg", "addr:postcode": "20146", "addr:street": "Bundesstraße", "amenity": "library", "check_date:opening_hours": "2023-10-27", "name": "Bibliotheks- und Informationsservice", "opening_hours": "Mo-Fr 09:00-19:00", "operator": "Zentrum für Marine und Atmosphärische Wissenschaften", "ref:isil": "DE-18-306", "short_name": "BIS", "wheelchair": "yes"}}, {"type": "node", "id": 588375129, "lat": 53.5680986, "lon": 9.973966, "tags": {"addr:city": "Hamburg", "addr:postcode": "20146", "addr:street": "Bundesstraße", "amenity": "library", "name": "Bibliothek, Institut für Geographie", "operator": "Universität Hamburg, Institut für Geographie", "ref:isil": "DE-18-57", "wheelchair": "limited"}}, {"type": "node", "id": 588375131, "lat": 53.5682011, "lon": 9.9739009, "tags": {"addr:city": "Hamburg", "addr:postcode": "20146", "addr:street": "Bundesstraße", "amenity": "library", "name": "Bibliothek, Geographische Gesellschaft", "ref:isil": "DE-H8", "wheelchair": "yes"}}, {"type": "node", "id": 588375133, "lat": 53.5690682, "lon": 9.9776762, "tags": {"addr:city": "Hamburg", "addr:postcode": "20146", "addr:street": "Sedanstraße", "amenity": "library", "name": "Bibliothek, Institut für Ausländisches und Internationales Finanz- und Steuerwesen der Universität Hamburg", "ref:isil": "DE-18-280", "wheelchair": "limited"}}, {"type": "node", "id": 588375135, "lat": 53.5692624, "lon": 9.9778851, "tags": {"addr:city": "Hamburg", "addr:postcode": "20146", "addr:street": "Sedanstraße", "amenity": "library", "name": "Bibliothek, Fachbereich Evangelische Theologie", "operator": "Universität Hamburg, Fachbereich Evangelische Theologie", "ref:isil": "DE-18-161"}}, {"type": "node", "id": 588375137, "lat": 53.5675992, "lon": 9.9792451, "tags": {"addr:city": "Hamburg", "addr:postcode": "20146", "addr:street": "Martin-Luther-King-Platz", "amenity": "library", "level": "0", "name": "Bibliothek, Biozentrum Grindel und Zoologisches Museum", "opening_hours": "Mo-Su 09:00-19:00", "operator": "Universität Hamburg", "operator:type": "university", "operator:wikidata": "Q156725", "ref:isil": "DE-18-19"}}, {"type": "node", "id": 588375143, "lat": 53.5665323, "lon": 9.9825283, "tags": {"amenity": "library", "email": "bib.geo@uni-hamburg.de", "name": "Bibliothek des Mineralogisch-Petrographischen Instituts", "opening_hours": "Mo-Fr 08:00-18:00", "operator": "Universität Hamburg", "operator:type": "university", "operator:wikidata": "Q156725", "phone": "+49 40 428385004", "ref:isil": "DE-18-93", "website": "https://www.geo.uni-hamburg.de/de/geologie/bibliothek.html"}}, {"type": "node", "id": 588424405, "lat": 53.459036, "lon": 9.9773439, "tags": {"amenity": "library", "name": "Bibliothek des Helms-Museums", "phone": "+49-40-42871-3681", "ref:isil": "DE-H210"}}, {"type": "node", "id": 588432269, "lat": 53.5586311, "lon": 10.01982, "tags": {"amenity": "library", "name": "Bibliothek / Medienzentrum Asklepios Medical School", "opening_hours": "Mo-Fr 09:00-16:00", "phone": "+49-1818-852784", "ref:isil": "DE-H66", "wikidata": "Q28738587"}}, {"type": "node", "id": 588897483, "lat": 53.6050679, "lon": 10.0190767, "tags": {"amenity": "library", "contact:phone": "+49 40 42838-4798", "contact:website": "https://www.slm.uni-hamburg.de/bibliothek/teilbibliotheken/franzoesisch-italienisch.html", "name": "Teilbibliothek Französisch und Italienisch", "opening_hours": "Mo-Fr 10:00-18:00", "operator": "Universität Hamburg", "operator:type": "university", "operator:wikidata": "Q156725", "operator:wikipedia": "de:Universität Hamburg", "ref:isil": "DE-18-12"}}, {"type": "node", "id": 588897514, "lat": 53.6049839, "lon": 10.018557, "tags": {"amenity": "library", "contact:phone": "+49 40 42838-2062", "contact:website": "https://www.slm.uni-hamburg.de/bibliothek/teilbibliotheken/spanisch-portugiesisch.html", "name": "Teilbibliothek Spanisch, Portugiesisch und Katalanisch", "opening_hours": "Mo-Fr 10:00-18:00", "operator": "Universität Hamburg", "operator:type": "university", "operator:wikidata": "Q156725", "operator:wikipedia": "de:Universität Hamburg", "ref:isil": "DE-18-61"}}, {"type": "node", "id": 588900851, "lat": 53.6048203, "lon": 10.0187942, "tags": {"amenity": "library", "contact:phone": "+49 40 42838-2736", "contact:website": "https://www.slm.uni-hamburg.de/bibliothek/teilbibliotheken/slavistik.html", "name": "Teilbibliothek Slavistik", "opening_hours": "Mo-Fr 10:00-18:00", "operator": "Universität Hamburg", "operator:type": "university", "operator:wikidata": "Q156725", "operator:wikipedia": "de:Universität Hamburg", "ref:isil": "DE-18-59"}}, {"type": "node", "id": 588904496, "lat": 53.5642358, "lon": 9.9849849, "tags": {"amenity": "library", "name": "Bibliothek, Deutsche Exilliteratur", "operator": "Universität Hamburg, Walter-A.-Berendsohn-Forschungsstelle für Deutsche Exilliteratur", "phone": "+49 40 42838-2297", "ref:isil": "DE-18-290", "website": "https://www.sub.uni-hamburg.de/bibliotheken/details-zur-bibliothek/bib-id/120.html", "wheelchair": "no"}}, {"type": "node", "id": 588913224, "lat": 53.5641869, "lon": 9.9853843, "tags": {"amenity": "library", "name": "Homöopathische Bibliothek", "opening_hours": "Mo,We 12:00-16:00; Tu,Th 11:00-14:00", "operator": "Wolfgang-Schweitzer-Bibliothek", "phone": "+49 40 4101469", "ref:isil": "DE-H260", "website": "https://www.hombib-dzvhae.de/", "wikidata": "Q28738599"}}, {"type": "node", "id": 588936443, "lat": 53.5667309, "lon": 9.9878916, "tags": {"amenity": "library", "internet_access": "wlan", "name": "Zentralbibliothek Recht", "opening_hours": "Mo-Fr 07:00-22:00; PH,Sa,Su 09:00-20:00", "operator": "Universität Hamburg", "operator:type": "university", "operator:wikidata": "Q156725", "phone": "+49 40 42838-7171", "ref:isil": "DE-18-304", "wheelchair": "yes"}}, {"type": "node", "id": 593560184, "lat": 53.6049846, "lon": 10.0188002, "tags": {"amenity": "library", "contact:phone": "+49 40 42838-2736", "contact:website": "https://www.slm.uni-hamburg.de/bibliothek/teilbibliotheken/anglistik-amerikanistik.html", "name": "Teilbibliothek Anglistik und Amerikanistik", "opening_hours": "Mo-Fr 10:00-18:00", "operator": "Universität Hamburg", "operator:type": "university", "operator:wikidata": "Q156725", "operator:wikipedia": "de:Universität Hamburg", "ref:isil": "DE-18-39"}}, {"type": "node", "id": 593561557, "lat": 53.5691424, "lon": 9.9912155, "tags": {"amenity": "library", "name": "Bibliothek Homo Ludens", "operator": "Fachbereich Sportwissenschaft der Universität Hamburg", "ref:isil": "DE-18-298"}}, {"type": "node", "id": 594750101, "lat": 53.5652101, "lon": 9.9897232, "tags": {"addr:city": "Hamburg", "addr:housenumber": "32", "addr:postcode": "20148", "addr:street": "Rothenbaumchaussee", "amenity": "library", "name": "GIGA Informationszentrum - Fachbibliothek Asien", "opening_hours": "Tu-Th 10:00-17:00; Fr 10:00-16:00;PH off", "operator": "GIGA German Institute of Global and Area Studies, Informationszentrum", "phone": "+49 40 428874 - 14/-16", "ref:isil": "DE-H222", "website": "https://www.giga-hamburg.de/iz"}}, {"type": "node", "id": 594755176, "lat": 53.5692024, "lon": 9.9947238, "tags": {"addr:city": "Hamburg", "addr:housenumber": "36", "addr:postcode": "20148", "addr:street": "Mittelweg", "amenity": "library", "name": "Bibliothek, Hamburger Institut für Sozialforschung", "opening_hours": "Tu,Th 09:00-17:00", "phone": "+49 40 414097-70", "ref:isil": "DE-H357", "website": "https://www.his-online.de/", "wheelchair": "yes", "wheelchair:description": "Treppenlift zum Veranstaltungsraum im ersten OG vorhanden, behindertengerechtes WC im UG nur über einen Außenweg erreichbar.", "wikidata": "Q28738381"}}, {"type": "node", "id": 594761028, "lat": 53.5650681, "lon": 9.9922174, "tags": {"addr:city": "Hamburg", "addr:housenumber": "21", "addr:postcode": "20148", "addr:street": "Heimhuder Straße", "amenity": "library", "name": "Hans-Bredow-Institut für Medienforschung", "phone": "+49 40 450217-22", "ref:isil": "DE-18-174"}}, {"type": "node", "id": 594769212, "lat": 53.5627859, "lon": 9.9947759, "tags": {"amenity": "library", "email": "halsen@mpipriv.de", "name": "Bibliothek, Max-Planck-Institut für ausländisches und internationales Privatrecht", "opening_hours": "Mo-Fr 08:00-21:00; Sa 13:00-18:00", "operator": "Max-Planck-Gesellschaft zur Förderung der Wissenschaften e.V.", "phone": "+49 40 41900 212", "ref:isil": "DE-B212", "website": "https://www.mpipriv.de/", "wheelchair": "yes", "wikidata": "Q28720148"}}, {"type": "node", "id": 594770828, "lat": 53.5683215, "lon": 9.9892787, "tags": {"amenity": "library", "contact:phone": "+49 40 428879-691", "contact:website": "https://markk-hamburg.de/bibliothek/", "name": "Bibliothek des MARKK", "old_name": "Bibliothek, Museum für Völkerkunde Hamburg", "opening_hours": "Th-Su 13:00-18:00", "operator": "Museum für Völkerkunde Hamburg", "ref:isil": "DE-H16", "wikidata": "Q28737660"}}, {"type": "node", "id": 595645245, "lat": 53.5630937, "lon": 9.9884234, "tags": {"amenity": "library", "name": "Hamburger Bibliothek für Universitätsgeschichte", "note": "der genaue Standort im Gebäude müsste noch geprüft werden", "operator": "Universität Hamburg", "operator:type": "university", "operator:wikidata": "Q156725", "phone": "+49 40 42838-4048", "ref:isil": "DE-18-296", "wheelchair": "yes"}}, {"type": "node", "id": 595655628, "lat": 53.5575295, "lon": 9.984574, "tags": {"amenity": "library", "name": "Bibliothek, Institut für Deutsche Gebärdensprache und Kommunikation Gehörloser", "operator": "Universität Hamburg", "operator:type": "university", "operator:wikidata": "Q156725", "phone": "+49 40 42838-3239", "ref:isil": "DE-18-295"}}, {"type": "node", "id": 595656654, "lat": 53.5728365, "lon": 9.9961049, "tags": {"amenity": "library", "name": "Genealogische Gesellschaft Hamburg e.V., Bibliothek und Archiv", "phone": "+49 40 5256601", "ref:isil": "DE-H192", "wheelchair": "no"}}, {"type": "node", "id": 596471091, "lat": 53.5816007, "lon": 9.9780763, "tags": {"amenity": "library", "name": "Psychotherapie und analytische Kinder- und Jugendlichenpsychotherapie, Bibliothek", "opening_hours": "Mo-Th 09:00-16:00", "operator": "Michael-Balint-Institut für Psychoanalyse", "phone": "+49 42924222", "ref:isil": "DE-H268", "website": "https://michael-balint-institut.de/", "wikidata": "Q28738600"}}, {"type": "node", "id": 596477449, "lat": 53.5573245, "lon": 9.9926369, "tags": {"addr:city": "Hamburg", "addr:housenumber": "21", "addr:postcode": "20354", "addr:street": "Neuer Jungfernstieg", "amenity": "library", "name": "GIGA Informationszentrum - Fachbibliothek", "opening_hours": "Tu-Th 10:00-17:00;Fr 10:00-16:00;PH off", "operator": "GIGA German Institute of Global and Area Studies", "phone": "+49 40 428 25 598", "ref:isil": "DE-H221", "website": "https://www.giga-hamburg.de/iz"}}, {"type": "node", "id": 596481152, "lat": 53.5612562, "lon": 9.9940888, "tags": {"amenity": "library", "name": "Bibliothek , Musikwissenschaftliches Institut", "operator": "Universität Hamburg", "operator:type": "university", "operator:wikidata": "Q156725", "phone": "+49 40 42838-4864", "ref:isil": "DE-18-114", "toilets:wheelchair": "yes", "wheelchair": "limited"}}, {"type": "node", "id": 614923627, "lat": 53.5568144, "lon": 9.985224, "tags": {"amenity": "library", "name": "Bibliothek, Justizbehörde Hamburg", "phone": "+49 40 42843-2019", "ref:isil": "DE-H367"}}, {"type": "node", "id": 614959177, "lat": 53.5557238, "lon": 9.9766746, "tags": {"amenity": "library", "name": "Bibliothek, Land- und Amtsgericht Hamburg", "phone": "+49 40 428 43-644", "ref:isil": "DE-H42", "wikidata": "Q28738584"}}, {"type": "node", "id": 614959179, "lat": 53.5570103, "lon": 9.9768402, "tags": {"amenity": "library", "name": "Bibliothek, Hanseatisches Oberlandesgericht", "phone": "+49 40 428 43-2011", "ref:isil": "DE-H50", "wikidata": "Q28738586"}}, {"type": "node", "id": 614961709, "lat": 53.5511987, "lon": 9.9734831, "tags": {"amenity": "library", "name": "Bibliothek, Museum für Hamburgische Geschichte", "opening_hours": "\"by appointment\"", "operator": "Stiftung Historische Museen Hamburg", "phone": "+49 40 4281 32-2368", "ref:isil": "DE-H77", "toilets:wheelchair": "yes", "website": "https://kataloge.uni-hamburg.de/DB=3.6/LNG=DU/", "wheelchair": "limited", "wheelchair:description": "Es gibt einen Lastenaufzug, zwei Plattformlifte und zwei Treppenlifte im Haus. Bedienung aller Aufzüge nur mit Schlüssel möglich. Bitte Personal fragen. Die Plattformaufzüge lassen sich nur von außen bedienen."}}, {"type": "node", "id": 614962727, "lat": 53.5586314, "lon": 9.9817648, "tags": {"amenity": "library", "check_date:opening_hours": "2024-02-01", "contact:email": "bibliothek@physnet.uni-hamburg.de", "contact:phone": "+49 40 428382384", "contact:website": "https://www.physik.uni-hamburg.de/service/bibliothek.html", "name": "Zentrale Bibliothek, Physikalische Institute Jungiusstraße", "opening_hours": "Mo-Fr 09:30-18:00", "operator": "Universität Hamburg", "operator:type": "university", "operator:wikidata": "Q156725", "ref:isil": "DE-18-47"}}, {"type": "node", "id": 614963707, "lat": 53.5708433, "lon": 9.9661278, "tags": {"addr:city": "Hamburg", "addr:housenumber": "3", "addr:postcode": "20357", "addr:street": "Felix-Dahn-Straße", "amenity": "library", "name": "Hamburger Lehrerbibliothek am Landesinstitut", "opening_hours": "Mo,Th 13:00-19:00; Tu,We 13:00-17:00; Fr 12:30-16:00", "operator": "Hamburger Lehrerbibliothek", "phone": "+49 40 428 842-842", "ref:isil": "DE-H155", "website": "http://www.li-hamburg.de/lehrerbibliothek", "wikidata": "Q28738364"}}, {"type": "node", "id": 614969148, "lat": 53.5468419, "lon": 9.9649891, "tags": {"amenity": "library", "name": "Bibliothek, Bernhard-Nocht-Institut für Tropenmedizin", "phone": "+49 40 42818409", "ref:isil": "DE-H11", "website": "https://www.bni-hamburg.de/", "wikidata": "Q28737658"}}, {"type": "node", "id": 615147454, "lat": 53.5431866, "lon": 9.9947823, "tags": {"addr:city": "Hamburg", "addr:country": "DE", "addr:housenumber": "48", "addr:postcode": "20457", "addr:street": "Am Sandtorkai", "amenity": "library", "check_date:opening_hours": "2024-05-19", "name": "Bibliothek, Amerikazentrum Hamburg e.V", "opening_hours": "Th,Fr 14:00-16:00", "phone": "+49 40 70383688", "ref:isil": "DE-H205", "website": "http://www.amerikazentrum.de/", "wikidata": "Q28738595"}}, {"type": "node", "id": 615149412, "lat": 53.5449315, "lon": 9.9954396, "tags": {"addr:city": "Hamburg", "addr:housenumber": "4", "addr:postcode": "20457", "addr:street": "Neuer Wandrahm", "amenity": "library", "contact:email": "Bibliothek@hpa.hamburg.de", "contact:fax": "+49 40 428 47-2881", "contact:phone": "+49 40 428 47-2245", "contact:website": "https://www.sub.uni-hamburg.de/nds/bibliotheken/hamburger-bibliotheksfuehrer/details-zur-bibliothek/bib-id/329.html", "name": "Hamburg Port Authority Bibliothek", "opening_hours": "Mo-Fr 09:00-13:00", "ref:isil": "DE-H38", "wikidata": "Q28738583"}}, {"type": "node", "id": 615155955, "lat": 53.5456244, "lon": 9.9929453, "tags": {"addr:city": "Hamburg", "addr:housenumber": "12", "addr:postcode": "20457", "addr:street": "Steckelhörn", "amenity": "library", "contact:phone": "+49-40-42831-1639", "contact:website": "http://www.statistik-nord.de/", "government": "statistics", "name": "Bibliothek, Statistisches Amt für Hamburg und Schleswig-Holstein", "office": "government", "opening_hours": "Mo-Th 08:30-15:30; Fr 08:30-14:00", "ref:isil": "DE-H5", "wikidata": "Q15130249"}}, {"type": "node", "id": 615332893, "lat": 53.5505293, "lon": 9.9835122, "tags": {"amenity": "library", "name": "Bücherei der Behörde für Wirtschaft und Innovation", "phone": "+49 40 428411635", "ref:isil": "DE-H197", "website": "https://www.hamburg.de/bwvi/", "wheelchair": "yes"}}, {"type": "node", "id": 615517375, "lat": 53.5672699, "lon": 9.9483945, "tags": {"amenity": "library", "check_date:opening_hours": "2023-05-29", "email": "kontakt@mennoniten-hh.de", "name": "Bibliothek, Mennoniten-Gemeinde zu Hamburg und Altona", "opening_hours:signed": "no", "operator": "Mennonitengemeinde zu Hamburg und Altona", "phone": "+49 40 857112", "ref:isil": "DE-H200", "website": "https://mennoniten-hamburg.de"}}, {"type": "node", "id": 615915070, "lat": 53.5490229, "lon": 9.934301, "tags": {"amenity": "library", "check_date:opening_hours": "2024-06-06", "name": "Bibliothek, Altonaer Museum, Museum für Kunst- und Kulturgeschichte", "opening_hours": "Mo,We-Fr 13:00-16:00", "operator": "Stiftung Historische Museen Hamburg", "phone": "+49 40 428135-1486", "ref:isil": "DE-H103", "website": "http://www.altonaermuseum.de/", "wheelchair": "yes", "wikidata": "Q28738380"}}, {"type": "node", "id": 615930361, "lat": 53.5599806, "lon": 9.8597402, "tags": {"amenity": "library", "name": "Biozentrum Klein Flottbek und Botanischer Garten", "opening_hours": "\"Wegen Baumängeln bis auf weiteres geschlossen.\"", "operator": "Universität Hamburg", "operator:type": "university", "operator:wikidata": "Q156725", "operator:wikipedia": "de:Universität Hamburg", "ref:isil": "DE-18-305", "toilets:wheelchair": "no", "wheelchair": "yes"}}, {"type": "node", "id": 615932363, "lat": 53.5567028, "lon": 9.8384354, "tags": {"amenity": "library", "name": "Bibliothek, Missionsakademie an der Universität Hamburg", "phone": "+49 40 823161-0", "ref:isil": "DE-18-239"}}, {"type": "node", "id": 615934800, "lat": 53.5676626, "lon": 9.871006, "tags": {"addr:city": "Hamburg", "addr:housenumber": "27", "addr:postcode": "22607", "addr:street": "Windmühlenweg", "amenity": "library", "description": "Bibliothek, Stiftung Europa-Kolleg, Institut für Integrationsforschung", "name": "Bibliothek", "opening_hours": "PH,Mo-Su 00:00-24:00", "ref:isil": "DE-18-254", "website": "https://europa-kolleg-hamburg.de/", "wheelchair": "no"}}, {"type": "node", "id": 616091396, "lat": 53.5580256, "lon": 9.8735576, "tags": {"amenity": "library", "name": "Christianeum, Lehrerbibliothek", "opening_hours": "\"Während der Schulzeit\"", "ref:isil": "DE-H188", "website": "http://www.hh.schule.de/christianeum", "wheelchair": "yes"}}, {"type": "node", "id": 616091690, "lat": 53.5636385, "lon": 9.8324864, "tags": {"access": "private", "addr:city": "Hamburg", "addr:housenumber": "20", "addr:postcode": "22587", "addr:street": "Manteuffelstraße", "amenity": "library", "name": "Fachinformationsstelle Bibliothek, Führungsakademie der Bundeswehr", "phone": "+49 40 8667-4755", "ref:isil": "DE-H256", "wikidata": "Q28738597"}}, {"type": "node", "id": 616092096, "lat": 53.583312, "lon": 9.7368603, "tags": {"amenity": "library", "name": "Bibliothek, Kuratorium für Forschung im Küsteningenieurwesen", "phone": "+49 40 81908378", "ref:isil": "DE-H369", "short_name": "KFKI", "toilets:wheelchair": "no", "website": "https://www.kfki.de/de/wissenstransfer/fachbibliothek", "wheelchair": "no", "wikidata": "Q28739035"}}, {"type": "node", "id": 616094359, "lat": 53.5736021, "lon": 9.9377378, "tags": {"amenity": "library", "name": "Bibliothek, TÜV NORD Service GmbH", "phone": "+49 40 85 57-2294", "ref:isil": "DE-E12", "wikidata": "Q28738541"}}, {"type": "node", "id": 616094519, "lat": 53.5825718, "lon": 9.7769366, "tags": {"amenity": "library", "name": "Ärztliche Bibliothek, Asklepios Westklinikum Hamburg", "ref:isil": "DE-H154", "toilets:wheelchair": "yes", "website": "https://www.asklepios.com/hamburgrissen", "wheelchair": "yes", "wikidata": "Q28738590"}}, {"type": "node", "id": 616581617, "lat": 53.5899799, "lon": 10.0064378, "tags": {"addr:city": "Hamburg", "addr:country": "DE", "addr:housenumber": "114", "addr:postcode": "22301", "addr:street": "Maria-Louisen-Straße", "amenity": "library", "check_date": "2024-03-05", "description": "Bibliotheca Johannei", "email": "hauptbibliothek@gsjh.hamburg.de", "name": "Hauptbibliothek, Gelehrtenschule des Johanneums", "opening_hours": "Mo-Fr 08:00-16:30", "phone": "+49 40 428827 218", "ref:isil": "DE-H49", "website": "https://www.johanneum-hamburg.de/index.php/schola-nostra/bibliotheca-johannei"}}, {"type": "node", "id": 616583295, "lat": 53.6023602, "lon": 10.0007191, "tags": {"amenity": "library", "name": "Fachbücherei, Fachbereich Polizei", "operator": "Landespolizeischule Hamburg und Fachhochschule für Öffentliche Verwaltung", "phone": "+49 40 4286-68013", "ref:isil": "DE-18-301", "website": "http://www.fhoev-hamburg.de/pages/biblioth.html"}}, {"type": "node", "id": 616584759, "lat": 53.6060108, "lon": 10.0364127, "tags": {"amenity": "library", "name": "Fachbibliothek", "phone": "+49-40-181882-6106", "ref:isil": "DE-H65"}}, {"type": "node", "id": 616738300, "lat": 53.6148684, "lon": 10.1200203, "tags": {"amenity": "library", "name": "Mediothek", "operator": "Staatliche Schule für Technik und Medien,, Berufliche Schule Farmsen", "phone": "+49 40 42 88 55-747", "ref:isil": "DE-H203", "wheelchair": "no"}}, {"type": "node", "id": 616742326, "lat": 53.5650865, "lon": 10.0228556, "tags": {"amenity": "library", "name": "Fachbibliothek Design, Hochschulinformations- und Bibliotheksservice", "operator": "Hochschule für angewandte Wissenschaften Hamburg", "phone": "+49 40 42875-4775", "ref:isil": "DE-18-285", "short_name": "HIBS", "wheelchair": "no"}}, {"type": "node", "id": 616749857, "lat": 53.573903, "lon": 10.0323824, "tags": {"addr:city": "Hamburg", "addr:country": "DE", "addr:housenumber": "41", "addr:postcode": "22083", "addr:street": "Hamburger Straße", "amenity": "library", "name": "Zentrale Bibliothek Behörden Hamburger Straße", "phone": "+49 40 428632187", "ref:isil": "DE-H216", "toilets:wheelchair": "yes", "website": "https://www.hamburg.de/bibliothek/", "wheelchair": "yes", "wikidata": "Q28733626"}}, {"type": "node", "id": 616754548, "lat": 53.5842031, "lon": 10.0327451, "tags": {"addr:city": "Hamburg", "addr:housenumber": "96", "addr:postcode": "22083", "addr:street": "Osterbekstraße", "amenity": "library", "name": "Bibliothek und Dokumentationsstelle, Landesarbeitsgericht und Arbeitsgericht Hamburg", "opening_hours": "Mo 07:30-15:00, Tu-Th 07:30-16:00, Fr 07:30-15:00", "ref:isil": "DE-H359", "website": "https://www.hamburg.de/arbeitsgerichte/service/bibliothek"}}, {"type": "node", "id": 616965947, "lat": 53.4896258, "lon": 10.2125513, "tags": {"amenity": "library", "contact:phone": "+49 40 428912509", "contact:website": "https://www.bergedorfer-museumslandschaft.de/sammlung/bibliothek", "name": "Bibliothek, Museum für Bergedorf und die Vierlande", "ref:isil": "DE-H199", "wheelchair": "yes", "wikidata": "Q28738594"}}, {"type": "node", "id": 616966380, "lat": 53.5048163, "lon": 10.2016199, "tags": {"amenity": "library", "description": "Bibliothek, Fachinformationszentrum Wald, Bundesforschungsinstitut für Ländliche Räume, Wald und Fischerei", "name": "Thünen-Instituts", "operator": "Johann Heinrich von Thünen-Institut, Bundesforschungsinstitut", "ref:isil": "DE-H105"}}, {"type": "node", "id": 616966804, "lat": 53.4936778, "lon": 10.1995371, "tags": {"amenity": "library", "contact:email": "achbib.ls@haw-hamburg.de", "contact:fax": "+49 40 428 75-6464", "contact:phone": "+49 40 428 75-6468", "contact:website": "https://www.haw-hamburg.de/hibs/oeffnungszeiten/fachbibliothek-lifesciences.html", "level": "0", "name": "Fachbibliothek Life Sciences", "opening_hours": "Mo,Th 09:00-18:00; PH closed", "operator": "Hochschule für angewandte Wissenschaften Hamburg", "ref:isil": "DE-18-284", "wheelchair": "yes"}}, {"type": "node", "id": 616967383, "lat": 53.4284145, "lon": 10.2275928, "tags": {"addr:city": "Hamburg", "addr:housenumber": "75", "addr:postcode": "21039", "addr:street": "Jean-Dolidier-Weg", "amenity": "library", "name": "Bibliothek KZ-Gedenkstätte Neuengamme", "opening_hours": "Mo-Th 10:00-15:00; Fr 10:00-13:00", "phone": "+49 40 428131513", "ref:isil": "DE-H366", "toilets:wheelchair": "yes", "website": "https://kataloge.uni-hamburg.de/DB=3.9/LNG=DU/", "wheelchair": "yes", "wikidata": "Q28738975"}}, {"type": "node", "id": 616967647, "lat": 53.5438867, "lon": 10.0395344, "tags": {"addr:city": "Hamburg", "addr:housenumber": "12", "addr:postcode": "20537", "addr:street": "Basedowstraße", "amenity": "library", "check_date": "2023-06-07", "name": "Philatelistische Bibliothek Hamburg e.V.", "opening_hours": "Tu 14:00-18:00;Th 14:00-19:00;Sa[1] 10:00-13:00", "ref:isil": "DE-H361", "website": "https://www.philatelistische-bibliothek.de/", "wheelchair": "no"}}, {"type": "node", "id": 616968880, "lat": 53.5754241, "lon": 10.0686062, "tags": {"amenity": "library", "name": "Bibliothek, Staatsarchiv der Freien und Hansestadt Hamburg", "phone": "+49 40 42831-3200", "ref:isil": "DE-H46"}}, {"type": "node", "id": 616968968, "lat": 53.5753164, "lon": 10.0686655, "tags": {"addr:city": "Hamburg", "addr:housenumber": "19", "addr:postcode": "22041", "addr:street": "Kattunbleiche", "amenity": "library", "name": "Bibliothek, Verein für Hamburgische Geschichte", "opening_hours": "Mo-We 09:30-12:30,13:00-18:00", "phone": "+49 40 68913464", "ref:isil": "DE-H30", "website": "https://www.vfhg.de/", "wheelchair": "limited", "wikidata": "Q28738582"}}, {"type": "node", "id": 616978357, "lat": 53.5713846, "lon": 10.0388386, "tags": {"addr:housenumber": "60", "addr:street": "Wagnerstraße", "amenity": "library", "description": "Bibliothek, Staatliche Fachschule für Sozialpädagogik", "noname": "yes", "opening_hours": "Mo-Th 08:00-12:40, 13:40-16:00; We 08:00-12:40, 13:40-17:00; Fr 08:00-14:30; PH off", "operator": "Staatliche Fachschule für Sozialpädagogik", "ref:isil": "DE-H195", "website": "https://www.bs30.de/fuer-schuelerinnen-und-schueler/bibliothek", "wheelchair": "no"}}, {"type": "node", "id": 652980318, "lat": 53.5498627, "lon": 9.9464799, "tags": {"addr:city": "Hamburg", "addr:country": "DE", "addr:housenumber": "4", "addr:postcode": "22767", "addr:street": "Eschelsweg", "amenity": "library", "name": "Sportfreunde der Sperrtechnik e.V.", "website": "http://www.ssdev.org/"}}, {"type": "node", "id": 706970878, "lat": 53.551357, "lon": 9.9765445, "tags": {"amenity": "library", "check_date": "2023-06-07", "name": "Niederdeutsche Bibliothek", "opening_hours": "Th 11:00-16:00", "wheelchair": "no"}}, {"type": "node", "id": 736787961, "lat": 53.5635838, "lon": 9.8117966, "tags": {"addr:city": "Hamburg", "addr:country": "DE", "addr:housenumber": "1a", "addr:postcode": "22587", "addr:street": "Sülldorfer Kirchenweg", "amenity": "library", "level": "1", "name": "Bücherhalle Elbvororte", "opening_hours": "Tu-Th 11:00-19:00; Fr 11:00-17:00; Sa 10:00-14:00; PH off", "phone": "+49 40 38640782", "wheelchair": "yes"}}, {"type": "node", "id": 739887143, "lat": 53.7081853, "lon": 9.9936151, "tags": {"addr:city": "Norderstedt", "addr:country": "DE", "addr:housenumber": "50", "addr:postcode": "22846", "addr:street": "Rathausallee", "amenity": "library", "contact:fax": "+49 40 53595969", "contact:phone": "+49 40 53595950", "contact:website": "https://www.norderstedt.de/Bildung-Kultur/Bildung/Stadtb%C3%BCcherei", "name": "Stadtbücherei Norderstedt-Mitte", "opening_hours": "Mo-Th 11:00-19:00; Sa 09:00-14:00; PH off", "ref:isil": "DE-498", "toilets:wheelchair": "yes", "wheelchair": "yes", "wikidata": "Q28661911"}}, {"type": "node", "id": 1277228459, "lat": 53.5619102, "lon": 9.9637974, "tags": {"amenity": "library", "name": "Medienpädagogik Zentrum Hamburg e. V."}}, {"type": "node", "id": 1297182795, "lat": 53.5496446, "lon": 10.0080194, "tags": {"addr:city": "Hamburg", "addr:housenumber": "1", "addr:postcode": "20097", "addr:street": "Hühnerposten", "alt_name": "Bücherhallen Hamburg Zentralbibliothek", "amenity": "library", "check_date": "2023-06-07", "internet_access": "yes", "internet_access:fee": "no", "level": "1;2;3", "name": "Zentralbibliothek", "opening_hours": "Sa 10:00-19:00; Mo-Fr 09:00-19:00", "operator": "Stiftung Hamburger Öffentliche Bücherhallen", "operator:type": "public", "ref:isil": "DE-H10", "website": "https://www.buecherhallen.de/zentralbibliothek.html", "wheelchair": "yes"}}, {"type": "node", "id": 1509857677, "lat": 53.6356829, "lon": 9.841342, "tags": {"addr:city": "Halstenbek", "addr:country": "DE", "addr:housenumber": "9", "addr:postcode": "25469", "addr:street": "Schulstraße", "amenity": "library", "name": "Bücherei Halstenbek-Ort", "opening_hours": "Mo 15:00-18:00; Tu 10:00-13:00,15:00-18:00; Th 15:00-18:00; Fr 10:00-13:00,15:00-18:00; Sa 10:00-13:00", "operator": "Gemeinde Halstenbek", "phone": "+49 4101 491220", "website": "http://www.halstenbek.de/leben-in-halstenbek/kultur-und-bildung/buecherei.html", "wheelchair": "yes"}}, {"type": "node", "id": 1587084913, "lat": 53.5767796, "lon": 9.8783738, "tags": {"amenity": "library", "description": "24/7 offen mit DACHS Card", "name": "DESY Bibliothek", "name:en": "DESY library", "opening_hours": "24/7", "phone": "+49 40 8998-3317", "ref:isil": "DE-H253", "website": "http://www-library.desy.de/", "wheelchair": "yes", "wikidata": "Q28737661"}}, {"type": "node", "id": 1587115898, "lat": 53.576807, "lon": 9.8768984, "tags": {"amenity": "library", "name": "Physikalische Institute Bahrenfeld / Theoretische Physik", "opening_hours": "Mo-Fr 09:30-18:00", "operator": "Universität Hamburg", "operator:type": "university", "operator:wikidata": "Q156725", "operator:wikipedia": "de:Universität Hamburg", "phone": "+49 40 42814-2230", "ref:isil": "DE-18-270", "website": "https://www.physik.uni-hamburg.de/service/bibliothek", "wheelchair": "yes"}}, {"type": "node", "id": 1592757405, "lat": 53.5789857, "lon": 9.882808, "tags": {"addr:city": "Hamburg", "addr:housenumber": "85", "addr:postcode": "22607", "addr:street": "Notkestraße", "amenity": "library", "name": "DESY / HASYLAB", "opening_hours": "Mo-Fr 07:00-19:00", "phone": "+49 40 8998-1803", "ref:isil": "DE-H253", "website": "https://photon-science.desy.de/facilities/on_site_infrastructure/library/index_eng.html", "wheelchair": "yes"}}, {"type": "node", "id": 1639033849, "lat": 53.5409346, "lon": 10.2140746, "tags": {"addr:city": "Glinde", "addr:housenumber": "2", "addr:postcode": "21509", "addr:street": "Markt", "amenity": "library", "check_date:opening_hours": "2023-08-17", "name": "Stadtbücherei Glinde", "opening_hours": "We,Th,Sa 09:30-13:00, Tu-Fr 14:00-18:00; PH,Su,Mo off", "source": "visit", "toilets:wheelchair": "yes", "wheelchair": "yes"}}, {"type": "node", "id": 1660846827, "lat": 53.5620634, "lon": 9.9614723, "tags": {"amenity": "library", "name": "Archiv der Sozialen Bewegungen", "website": "https://asb.nadir.org/", "wheelchair": "no"}}, {"type": "node", "id": 1660983172, "lat": 53.4872747, "lon": 10.2090516, "tags": {"amenity": "library", "name": "Bücherhalle Bergedorf", "opening_hours": "Tu 10:00-18:00; PH off; We-Fr 10:00-17:00", "phone": "+49407211772", "wheelchair": "yes"}}, {"type": "node", "id": 1665807670, "lat": 53.5242919, "lon": 10.1680838, "tags": {"amenity": "library", "name": "Bücherei Havighorst", "ref:isil": "none", "wheelchair": "yes"}}, {"type": "node", "id": 1924197061, "lat": 53.5497207, "lon": 10.0083508, "tags": {"addr:city": "Hamburg", "addr:housenumber": "1", "addr:postcode": "20097", "addr:street": "Hühnerposten", "amenity": "library", "check_date": "2023-06-07", "internet_access": "wlan", "internet_access:fee": "no", "level": "0", "name": "Hoeb4U", "opening_hours": "Mo-Sa 10:00-19:00", "operator": "Stiftung Hamburger Öffentliche Bücherhallen", "operator:type": "public", "website": "https://www.buecherhallen.de/hoeb4u.html", "wheelchair": "yes"}}, {"type": "node", "id": 2003302346, "lat": 53.5418125, "lon": 10.164767, "tags": {"amenity": "library", "name": "VHS-Oststeinbek", "wheelchair": "no"}}, {"type": "node", "id": 2054164916, "lat": 53.3971848, "lon": 10.0416244, "tags": {"addr:city": "Seevetal", "addr:housenumber": "55", "addr:postcode": "21220", "addr:street": "Schulstraße", "amenity": "library", "name": "Bücherei Maschen", "note": "diesen Node habe ich vom falschen Standort in Adelheidsdorf hierher verschoben", "wheelchair": "yes"}}, {"type": "node", "id": 2112826390, "lat": 53.4292839, "lon": 10.2312134, "tags": {"addr:city": "Hamburg", "addr:country": "DE", "addr:housenumber": "75", "addr:postcode": "21039", "addr:street": "Jean-Dolidier-Weg", "amenity": "library", "contact:email": "neuengamme@gedenkstaetten.hamburg.de", "contact:phone": "+49 40 428131551", "contact:website": "http://www.offenes-archiv.de", "fee": "no", "name": "Offenes Archiv", "opening_hours": "Mo-Fr 09:30-16:00; Sa-Su 12:00-19:00", "wheelchair": "limited"}}, {"type": "node", "id": 2159145885, "lat": 53.5589176, "lon": 10.1042425, "tags": {"addr:city": "Hamburg", "addr:country": "DE", "addr:housenumber": "105a", "addr:postcode": "22119", "addr:street": "Manshardtstraße", "amenity": "library", "name": "Öffentliche Bücherei der Kirchengemeinde Philippus und Rimbert", "opening_hours": "Tu 11:00-14:00; Mo 14:00-18:00; We,Th 13:00-18:00", "phone": "+49 40 63 30 79 85", "website": "https://www.philippus-rimbert.de/20501.html"}}, {"type": "node", "id": 2209673615, "lat": 53.5858622, "lon": 10.0458651, "tags": {"addr:city": "Hamburg", "addr:housenumber": "3", "addr:postcode": "22305", "addr:street": "Wiesendamm", "amenity": "library", "check_date:opening_hours": "2024-05-27", "name": "Bibliothek im Museum der Arbeit", "opening_hours": "Mo 10:00-21:00; We-Fr 10:00-17:00; Sa-Su 10:00-18:00", "phone": "+49 40 428133205", "ref:isil": "DE-H353", "website": "https://shmh.de/de/museum-der-arbeit", "wheelchair": "yes"}}, {"type": "node", "id": 2252552026, "lat": 53.6462862, "lon": 9.8489097, "tags": {"amenity": "library", "internet_access": "no", "name": "Egenbüttler Bücherschrank", "note": "Im Grunde nur eine kleine Gartenlaube mit öffentlich zugänglichen Büchern. Keinerlei Verwaltung/Überwachung. Setzt nur auf faires miteinander", "opening_hours": "Mo-Su 08:00-20:00"}}, {"type": "node", "id": 2355885510, "lat": 53.5455117, "lon": 10.0014338, "tags": {"amenity": "library", "description": "Voraussichtlich ab März 2022 steht das Archiv für etwa ein Jahr nicht mehr für die Öffentlichkeit zur Verfügung. Der Grund dafür ist die denkmalgerechte Sanierung des Gebäudes.", "name": "Hamburgisches Architekturarchiv", "opening_hours": "\"nach Vereinbarung\"", "website": "http://www.architekturarchiv.de/", "wikidata": "Q1573230", "wikipedia": "de:Hamburgisches Architekturarchiv"}}, {"type": "node", "id": 2597534206, "lat": 53.4910571, "lon": 10.2098747, "tags": {"addr:city": "Hamburg", "addr:country": "DE", "addr:housenumber": "17", "addr:postcode": "21029", "addr:street": "Reetwerder", "amenity": "library", "check_date:opening_hours": "2024-05-07", "name": "Kultur- & Geschichtskontor", "opening_hours": "We 10:00-20:00; Fr 10:00-16:00", "phone": "+49 40 721 28 23", "website": "https://www.geschichts-kontor.de/"}}, {"type": "node", "id": 3177603461, "lat": 53.5661152, "lon": 9.9807006, "tags": {"addr:city": "Hamburg", "addr:housenumber": "43", "addr:postcode": "20146", "addr:street": "Grindelallee", "amenity": "library", "name": "DENKtRÄUME – hamburger frauen*bibliothek", "opening_hours": "We 14:00-18:00; Sa 12:00-16:00", "phone": "+49 40 4500644", "website": "https://www.denktraeume.de/", "wheelchair": "no", "wheelchair:description": "Die Hamburger Frauenbibliothek \"Denk(t)räume\" im Sauerberghof ist leider nicht barrierefrei - eine lange Treppe führt in den 1. Stock."}}, {"type": "node", "id": 3510949622, "lat": 53.5918063, "lon": 9.9725632, "tags": {"amenity": "library", "level": "1", "name": "Ärztliche Zentralbibliothek im UKE", "opening_hours": "Mo-Fr 08:00-22:00", "operator": "UKE", "phone": "+49 40 7410 53012", "website": "https://www.uke.de/aezb", "wheelchair": "yes", "wikidata": "Q23441223"}}, {"type": "node", "id": 4084610353, "lat": 53.6875544, "lon": 10.0395574, "tags": {"addr:city": "Norderstedt", "addr:country": "DE", "addr:housenumber": "62", "addr:postcode": "22851", "addr:street": "Mittelstraße", "amenity": "library", "contact:fax": "+49 40 5242504", "contact:phone": "+49 40 5240942", "contact:website": "http://www.norderstedt.de/Bildung-Kultur/Bildung/Stadtb%C3%BCcherei", "name": "Norderstedter Bücherei - Stadtteilbücherei Glashütte", "opening_hours": "Mo, We, Fr 10:00-13:00, 14:00-18:00; Sa 10:00-13:00; PH off"}}, {"type": "node", "id": 4103700930, "lat": 53.5633153, "lon": 9.9872705, "tags": {"amenity": "library", "name": "Bibliothek für Kulturgeschichte und Kulturkunde"}}, {"type": "node", "id": 4124644642, "lat": 53.6210844, "lon": 9.8632201, "tags": {"addr:city": "Halstenbek", "addr:housenumber": "109", "addr:postcode": "25469", "addr:street": "Bickbargen", "amenity": "library", "email": "buecherei-krupunder@halstenbek.de", "entrance": "yes", "name": "Bücherei Halstenbek-Krupunder", "opening_hours": "Mo 15:00-18:00; Tu,Th 11:00-14:00,15:00-18:00; Sa 10:00-12:00", "operator": "Gemeinde Halstenbek", "phone": "+49 4101 491230", "website": "http://www.halstenbek.de/leben-in-halstenbek/kultur-und-bildung/buecherei.html"}}, {"type": "node", "id": 4336202090, "lat": 53.5404425, "lon": 10.0047018, "tags": {"amenity": "library", "check_date:opening_hours": "2022-11-10", "internet_access": "wlan", "name": "HCU-Bibliothek", "opening_hours": "Mo-Fr 09:00-19:00", "operator": "HafenCity Universität Hamburg", "website": "https://www.hcu-hamburg.de/it-und-medien/bibliothek", "wheelchair": "yes", "wikidata": "Q28738308"}}, {"type": "node", "id": 4547186156, "lat": 53.5577841, "lon": 10.0505175, "tags": {"amenity": "library", "check_date": "2023-06-09", "description": "Christliche Leihbücherei", "name": "Bücherquelle", "opening_hours": "Tu 17:00-19:00", "wheelchair": "limited"}}, {"type": "node", "id": 5961530481, "lat": 53.6051242, "lon": 10.0186763, "tags": {"access": "permit", "addr:city": "Hamburg", "addr:housenumber": "35", "addr:postcode": "22297", "addr:street": "Überseering", "amenity": "library", "name": "Bibliothek des Philosophenturm", "note": "Die Uni wird mit den Fachbereichen hier bis zur fertigen Sanierung des Philosophenturm sein - Plantermin dafür ist Mitte 2021.", "opening_hours": "Mo-Fr 10:00-18:00", "operator": "Universität Hamburg", "operator:type": "university", "operator:wikidata": "Q156725", "operator:wikipedia": "de:Universität Hamburg", "website": "https://www.slm.uni-hamburg.de/bibliothek.html"}}, {"type": "node", "id": 6483353553, "lat": 53.5913258, "lon": 10.0568967, "tags": {"amenity": "library", "check_date:opening_hours": "2023-10-19", "level": "1", "name": "Bibliothek TK", "opening_hours:signed": "no"}}, {"type": "node", "id": 6505667681, "lat": 53.5575674, "lon": 9.9843414, "tags": {"amenity": "library", "internet_access": "wlan", "name": "Theologische Bibliothek", "opening_hours": "Mo-Th 11:00-18:00; Fr 10:00-17:00", "website": "https://www.theologie.uni-hamburg.de/service/bibliothek.html", "wheelchair": "yes"}}, {"type": "node", "id": 6843737967, "lat": 53.6738596, "lon": 10.2362602, "tags": {"addr:housenumber": "3", "addr:street": "Manfred-Samusch-Straße", "amenity": "library", "email": "stadtbuecherei@ahrensburg.de", "name": "Stadtbücherei Ahrensburg", "opening_hours": "Mo, Th 10:00-19:00; We, Fr 10:00-16:00; Sa 10:00-13:00", "phone": "+49 4102 77 171", "ref:isil": "DE-1948", "website": "http://buecherei.ahrensburg.de", "wikidata": "Q28662417"}}, {"type": "node", "id": 7101450589, "lat": 53.5536697, "lon": 10.0035839, "tags": {"addr:city": "Hamburg", "addr:housenumber": "1", "addr:postcode": "20099", "addr:street": "Georgsplatz", "amenity": "library", "check_date:opening_hours": "2024-06-14", "name": "Stiftung Centralbibliothek für Blinde", "opening_hours": "Mo-Th 08:00-16:00, Fr 08:00-13:00", "opening_hours:signed": "no", "phone": "+49 40 22 72 86 - 0", "ref:isil": "DE-H90", "wikidata": "Q1054083", "wikipedia": "de:Centralbibliothek für Blinde und Norddeutsche Blindenhörbücherei"}}, {"type": "node", "id": 8087592006, "lat": 53.4357515, "lon": 9.907036, "tags": {"amenity": "library", "name": "Gemeindbücherei Vahrendorf"}}, {"type": "node", "id": 8149785116, "lat": 53.5880883, "lon": 9.8491557, "tags": {"amenity": "library", "internet_access": "wlan", "level": "0", "name": "Bücherhalle", "opening_hours": "Tu,Th-Sa 10:00-14:00, Tu,Th,Fr 15:00-18:00", "operator": "Stiftung Hamburger Öffentliche Bücherhallen", "phone": "+49 40 8320171", "website": "https://www.buecherhallen.de/", "wheelchair": "yes"}}, {"type": "node", "id": 9415810371, "lat": 53.6050672, "lon": 10.0188032, "tags": {"amenity": "library", "contact:phone": "+49 40 42838-2062", "contact:website": "https://www.slm.uni-hamburg.de/bibliothek/teilbibliotheken/finnougristik-uralistik.html", "name": "Teilbibliothek Finnougristik und Uralistik", "opening_hours": "Mo-Fr 10:00-18:00", "operator": "Universität Hamburg", "operator:type": "university", "operator:wikidata": "Q156725", "operator:wikipedia": "de:Universität Hamburg", "ref:isil": "DE-18-219"}}, {"type": "node", "id": 9415810372, "lat": 53.6049855, "lon": 10.0190729, "tags": {"amenity": "library", "contact:website": "https://www.slm.uni-hamburg.de/astub/service/bibliothek.html", "name": "Bibliothek der Arbeitsstelle Studium und Beruf", "opening_hours": "Mo-Fr 10:00-18:00", "operator": "Universität Hamburg", "operator:type": "university", "operator:wikidata": "Q156725", "operator:wikipedia": "de:Universität Hamburg"}}, {"type": "node", "id": 9415810373, "lat": 53.6049009, "lon": 10.0185522, "tags": {"amenity": "library", "contact:phone": "+49 40 42838-2736", "contact:website": "https://www.slm.uni-hamburg.de/bibliothek/teilbibliotheken/medienwissenschaft.html", "name": "Fachabteilung Medien- und Kommunikationswissenschaft", "opening_hours": "Mo-Fr 10:00-18:00", "operator": "Universität Hamburg", "operator:type": "university", "operator:wikidata": "Q156725", "operator:wikipedia": "de:Universität Hamburg"}}, {"type": "node", "id": 9415810374, "lat": 53.6049046, "lon": 10.0187973, "tags": {"amenity": "library", "contact:phone": "+49 40 42838-2736", "contact:website": "https://www.slm.uni-hamburg.de/bibliothek/teilbibliotheken/graphische-literatur.html", "name": "Teilbibliothek für Graphische Literatur", "opening_hours": "Mo-Fr 10:00-18:00", "operator": "Universität Hamburg", "operator:type": "university", "operator:wikidata": "Q156725", "operator:wikipedia": "de:Universität Hamburg"}}, {"type": "node", "id": 9415810375, "lat": 53.6049086, "lon": 10.0190693, "tags": {"amenity": "library", "contact:phone": "+49 40 42838-2736", "contact:website": "https://www.slm.uni-hamburg.de/bibliothek/teilbibliotheken/deutsche-sprache-aeltere-deutsche-sprache-niederdeutsch.html", "name": "Teilbibliothek Deutsche Sprache, Ältere deutsche Literatur, Niederdeutsch", "opening_hours": "Mo-Fr 10:00-18:00", "operator": "Universität Hamburg", "operator:type": "university", "operator:wikidata": "Q156725", "operator:wikipedia": "de:Universität Hamburg"}}, {"type": "node", "id": 11050864830, "lat": 53.5807329, "lon": 10.1320232, "tags": {"addr:city": "Hamburg", "addr:country": "DE", "addr:housenumber": "77", "addr:postcode": "22045", "addr:street": "Wilsonstraße", "amenity": "library", "name": "Bücherhalle Jenfelder Au", "opening_date": "01.12.2023", "operator": "Stiftung Hamburger Öffentliche Bücherhallen", "operator:type": "public", "website": "https://www.buecherhallen.de/jenfelder-au.html"}}, {"type": "node", "id": 11111226272, "lat": 53.6542291, "lon": 10.0934999, "tags": {"addr:city": "Hamburg", "addr:country": "DE", "addr:housenumber": "22", "addr:postcode": "22391", "addr:street": "Heegbarg", "amenity": "library", "internet_access": "wlan", "name": "Bücherhalle Alstertal", "opening_hours": "Tu-Fr 10:00-19:00; Sa 10:00-16:00", "operator": "Hamburger Öffentliche Bücherhallen", "website": "https://www.buecherhallen.de/alstertal.html", "wheelchair": "yes", "wikidata": "Q106575101"}}]}