id,lat,lon,name,street,zip_code,city
432428690,53.5551998,10.0081877,Lange Reihe / Kirchenallee,,,
432428691,53.55986,10.0148329,Lange Reihe / Lohmühlenpark,,,
432841089,53.567786,10.0162224,Eduard-Rhein-Ufer / Schwanenwik,,,
432965813,53.5589371,9.9638791,Neuer Pferdemarkt / Beim Grünen Jäger,,,
432965814,53.5520996,9.9360587,Bahnhof Altona Ost / Max-Brauer-Allee,,,
432965816,53.5519063,9.9337889,Bahnhof Altona / Busbahnhof,,,
433713639,53.5462439,9.9509483,Fischmarkt / Breite Straße,,,
436042897,53.5774206,9.9818059,Innocentiapark / Oberstraße,,,
436043488,53.5775726,9.9632428,Goebenstraße / Eppendorfer Weg,,,
436421052,53.5670342,10.0317432,Lerchenfeld / Uferstraße,,,
437328900,53.5494956,9.9550425,S Reeperbahn / Königstraße,,,
437331658,53.5510436,9.9702937,U St. Pauli / Millerntorplatz,,,
437331659,53.5585052,9.9753919,Messehallen / Marktstraße,,,
437331660,53.5637341,9.9877918,Universität / Moorweidenstraße,,,
437331661,53.5668597,9.9860491,Universität / Schlüterstraße,,,
437558649,53.553676,10.004553,Hauptbahnhof West / Glockengießer Wall,,,
437558653,53.5615244,9.9903338,Bahnhof Dammtor / Theodor-Heuss-Platz,,,
438112011,53.5599977,9.9898989,Bahnhof Dammtor / Dag-Hammarskjöld-Platz,,,
438112012,53.5524381,9.9769697,Enckeplatz / Hütten,,,
438353007,53.5572335,10.0199124,U Lohmühlenstraße / Steindamm,,,
439178655,53.5542566,10.0133228,Steindamm / Stralsunder Straße,,,
441097728,53.5516263,10.0052878,Mönckebergstraße / Steintorwall,,,
441097729,53.5526184,10.0039022,Kurze Mühren / Spitalerstraße,,,
441123075,53.5886426,9.9913213,U Kellinghusenstraße / Loogeplatz,,,
441123077,53.5902642,9.9867979,Kümmellstraße / Robert-Koch-Straße,,,
441123078,53.5831878,9.9843865,U Eppendorfer Baum / Isestraße,,,
441243153,53.5754102,9.9778746,Grindelberg,,,
441297373,53.5533379,10.0246127,S+U Berliner Tor / Beim Strohhause,,,
442006757,53.564472,9.9688152,S+U Sternschanze / Dänenweg,,,
442006775,53.5549978,9.9913836,Jungfernstieg / Neuer Jungfernstieg,,,
443047986,53.5552896,9.942995,Chemnitzstraße / Max-Brauer-Allee,,,
446760137,53.551694,10.015996,Kurt-Schumacher-Allee / Nagelsweg,,,
447110699,53.5562459,9.9901341,Gustav-Mahler-Platz / Büschstraße,,,
448582037,53.5503806,10.0088105,Zentralbibliothek / Münzstraße,,,
448879782,53.5542191,9.9625129,Paulinenplatz / Wohlwillstraße,,,
455878196,53.5516175,9.9984001,Kleine Rosenstraße / Gerhart-Hauptmann-Platz,,,
455878296,53.550247,10.0015328,Jakobikirchhhof / Steinstraße,,,
455878879,53.5478333,9.9988245,U Meßberg / Willy-Brandt-Straße,,,
455879010,53.555728,10.041278,U Burgstraße / Hammer Landstraße,,,
455879039,53.5610672,10.0371237,S Landwehr / Ramazan-Avci-Platz,,,
455879231,53.563702,10.0342838,U Wartenau / Lübecker Straße,,,
455879390,53.5597466,10.0285415,Lübecker Straße / Marienkrankenhaus,,,
455879492,53.564994,10.0267664,U Uhlandstraße / Eilenau,,,
455880479,53.5452274,9.9734899,S+U Landungsbrücken / Johannisbollwerk,,,
455880789,53.5480241,9.9794956,Michaeliskirche / Krayenkamp,,,
455882506,53.5720753,9.9888332,U Hallerstraße / Rothenbaumchaussee,,,
455947046,53.5840442,10.0212233,Jarrestraße / Rambatzweg,,,
455947727,53.5837521,10.0099075,Goldbekplatz,,,
456349702,53.5943036,9.9957591,U Hudtwalckerstraße / Bebelallee,,,
463552897,53.5460239,10.0242053,S Hammerbrook / Sachsenfeld,,,
467926773,53.5478097,9.9345695,Ottenser Marktplatz / Platz der Republik,,,
471332373,53.5496995,9.9866348,S Stadthausbrücke / Neuer Wall,,,
471776643,53.5471222,9.9424211,S Königstraße / Struenseestraße,,,
565607505,53.5695625,9.9630732,U Christuskirche / Fruchtallee,,,
598300226,53.5890071,9.975907,Martinistraße / Haupteingang Klinikum,,,
707060970,53.5662285,9.9534406,Eimsbütteler Straße / Waterloostraße,,,
752741462,53.5520196,9.986168,Axel-Springer-Platz / Wexstraße,,,
764042161,53.522701,10.014741,S Veddel / Wilhelmsburger Platz,,,
1281711846,53.6880061,10.0370776,,,,
1349140800,53.7132127,10.0187442,,,,
1352734840,53.5775952,9.9529299,Heußweg / Wiesenstraße,,,
1352742382,53.5801407,9.9467011,Methfesselstraße / Luruper Weg,,,
1352768597,53.5414899,9.9997759,Osakaallee / Überseequartier,,,
1352772467,53.5615358,10.0222053,Alsterschwimmhalle / Ifflandstraße,,,
1352773902,53.592041,10.0149443,Borgweg / Stadtpark,,,
1353780111,53.5678823,9.9823479,Allende-Platz,,,
1357469854,53.539537,9.9938423,Am Strandkai,,,
1399284352,53.588617,10.0326597,U Saarlandstraße / Wiesendamm,,,
1420686647,53.5762018,10.0580246,S Friedrichsberg / Krausestraße,,,
1420692330,53.5711272,10.0401222,Uferstraße / Wagnerstraße,,,
1420948951,53.5800616,10.0415391,U Dehnhaide / Barmbeker Markt,,,
1420951107,53.5717299,10.0684562,U Wandsbek Markt / Schloßgarten,,,
1420957412,53.5914449,10.0303465,Südring / Stadthallenbrücke,,,
1420960623,53.5671703,10.0444553,U Ritterstraße / Wandsbeker Chaussee,,,
1434219413,53.5569608,9.9279935,Bahrenfelder Straße / Völckersstraße,,,
1464368951,53.5752276,10.0207917,Winterhuder Weg / Zimmerstraße,,,
1489977810,53.584136,10.0334035,Schleidenstraße / Osterbekstraße,,,
1497798910,53.5520591,10.030488,Eiffestraße / Normannenweg,,,
1501718795,53.5800617,10.0340414,Weidestraße / Biedermannplatz,,,
1501996163,53.5817094,9.9711433,Eppendorfer Weg / Hoheluftchaussee,,,
1503301952,53.5731941,9.9623548,Osterstraße / Bismarckstraße,,,
1509854937,53.5870987,10.0433154,S+U Barmbek / Wiesendamm,,,
1562385960,53.562811,9.9609193,Schulterblatt / Eifflerstraße,,,
1563912977,53.5696315,10.0271587,U Mundsburg / Schürbeker Straße,,,
1564203610,53.5560913,9.9798788,Sievekingplatz / Gorch-Fock-Wall,,,
1571171292,53.550792,9.9251331,Eulenstraße / Große Brunnenstraße,,,
1571202258,53.5507874,9.9222107,Fischersallee / Bleickenallee,,,
1572847745,53.5736506,10.049496,Lortzingstraße / Friedrichsberger Straße,,,
1575877881,53.5777037,10.0141483,Hofweg / Am Langenzug,,,
1575883765,53.541724,9.9929215,Am Kaiserkai / Großer Grasbrook,,,
1578071052,53.5509762,9.9804066,Großneumarkt / Thielbek,,,
1595412889,53.5563309,10.0556929,U Hammer Kirche / Hammer Park,,,
1595462311,53.5476294,9.9941624,Domstraße / Willy-Brandt-Straße,,,
1638931988,53.5935921,9.9433088,U Hagenbecks Tierpark / Koppelstraße,,,
1675065142,53.5758119,10.0292335,Bartholomäusstraße / Beim Alten Schützenhof,,,
1710567823,53.5958157,10.01379,Planetarium / Hindenburgstraße,,,
1728287055,53.547232,9.9659564,Bernhard-Nocht-Straße / Zirkusweg,,,
1747142838,53.5681379,9.9701982,U Schlump / Gustav-Falke-Straße,,,
1796325073,53.7341389,9.9894205,,,,
1802825756,53.5837814,9.9780914,Löwenstraße / Eppendorfer Weg,,,
1807499522,53.5342683,10.0390544,Rothenburgsorter Marktplatz / Lindleystraße,,,
1809979508,53.5746601,10.037078,U Hamburger Straße / Wagnerstraße,,,
1813972888,53.547904,10.0131678,Amsinckstraße / Nordkanalbrücke,,,
1825365113,53.5442784,9.9813901,U Bahn Baumwall / Elbphilharmonie,,,
1867808214,53.5139807,9.9872057,Veringstraße / Mannesallee,,,
1887862125,53.5437405,9.9897215,Auf dem Sande / Kehrwieder / Miniatur Wunderland,,,
2278118737,53.5402456,10.042627,S Rothenburgsort / Billhorner Deich,,,
2291953162,53.5598145,9.9818107,Bei den Kirchhöfen / St. Petersburger Straße,,,
2343194436,53.4972113,10.0035528,Neuenfelder Straße / Kurt-Emmerich-Platz,,,
2418546166,53.5995318,9.9941038,U Lattenkamp / Bebelallee,,,
2434483183,53.5402315,9.9966419,U Überseequartier / Grasbrookpark,,,
2434511646,53.5704208,10.0594889,S+U Wandsbeker Chaussee / Börnestraße,,,
2450581971,53.6002102,10.0705263,Werner-Otto-Straße / OTTO Group,,,
2463701771,53.4993968,9.9973129,Ursula-Falke-Terrassen / Mengestraße,,,
2463701772,53.4978508,10.0068566,S Wilhelmsburg / Wilhelm-Strauß-Weg,,,
2877623997,53.601918,10.0247003,Überseering / Mexikoring,,,
2983710492,53.5528145,10.0000612,,,,
3110589853,53.5826806,9.9569937,Troplowitzstraße / Beiersdorf / NXP,,,
3257767661,53.4488961,9.9904561,Reeseberg / Anzengruberstraße,,,
3258575664,53.5804155,9.9995767,Leinpfad / Fernsicht,,,
3427054038,53.4572337,9.987899,Bahnhof Harburg / Moorstraße,,,
3450742341,53.4652581,9.9635932,Alter Postweg / Heimfelder Straße,,,
3450742342,53.4598353,9.9807064,S Harburg Rathaus / Deichhausweg,,,
3460189839,53.4642494,9.9861281,Schellerdamm / Hausnummer 22,,,
3460351520,53.5698522,9.9494983,Sandweg / Sophienallee,,,
3472122206,53.4477551,9.9807026,Gotthelfweg / Außenmühlenteich,,,
3472122207,53.4607018,9.9776703,Harburger Ring / Neue Straße,,,
3472122208,53.4604968,9.9698051,Denickestraße / TUHH,,,
3482239424,53.6844149,9.9848872,,,,
3505808109,53.5929209,9.9520562,Emil-Andresen-Straße / Lohkoppelweg,,,
3507753761,53.6958575,9.9895086,,,,
3531261093,53.5755741,9.9443886,Lappenbergsallee / Bei der Apostelkirche,,,
3531579898,53.5477973,9.9651403,Hamburg City Cycles,Hopfenstraße 15b,20359,Hamburg
3534209234,53.5522756,9.9303997,Große Rainstraße / Ottenser Hauptstraße,,,
3552127128,53.5849142,10.0796366,Friedrich-Ebert-Damm / Lomerstraße,,,
3578212323,53.5468731,10.0582322,Süderstraße / Osterbrookplatz,,,
3597478311,53.5555238,10.0668027,U Rauhes Haus / Horner Weg,,,
3621694181,53.5560485,9.9843317,U Gänsemarkt / Caffamacherreihe,,,
3648624501,53.6014087,10.0410578,Fuhlsbüttler Straße / Hartzloh,,,
3656563612,53.5916236,10.0439648,Fuhlsbüttler Straße / Hellbrookstraße,,,
3660898427,53.5601682,9.9090417,S Bahrenfeld / Friedensallee,,,
3683152002,53.7046288,10.0087265,,,,
3683385298,53.5408426,10.005987,U HafenCity Universität / Versmannstraße,,,
3728281829,53.4596418,9.9511079,Eißendorfer Pferdeweg / Asklepios-Klinik Harburg,,,
3730234807,53.5607697,10.0525311,Sievekingsallee / Sievekingdamm,,,
3754474025,53.5937529,10.0504313,U Habichtstraße / Steilshooper Straße,,,
3763197357,53.5940652,9.9735925,Süderfeldstraße / Universitätsklinikum Eppendorf,,,
3792671367,53.5712228,9.977724,Bogenstraße / Grindelallee,,,
3801695514,53.5808184,10.0258062,Weidestraße / Johannes-Prassek-Park,,,
3808221412,53.6207755,10.0325465,S+U Ohlsdorf / Alsterdorfer Straße,,,
3808221422,53.6487629,10.0163774,U Langenhorn Markt / Tangstedter Landstraße,,,
3822302649,53.5604926,9.8875229,S Othmarschen / Beselerplatz,,,
3834134120,53.5764197,9.9931072,Mittelweg / Sophienterrasse,,,
3834633297,53.6543026,9.9852987,Hugo-Kirchberg-Straße / Tesa,,,
3854338498,53.5855098,10.0654035,U Alter Teichweg / Nordschleswiger Straße,,,
3937197354,53.547643,10.0955884,U Legienstraße / Riedweg,,,
3944986781,53.5591866,10.1074791,Manshardtstraße / Einkaufszentrum Manshardtstraße,,,
3974732322,53.6000607,9.9640322,Siemersplatz / Kollaustraße,,,
3976794114,53.5558636,9.9508842,Holstenstraße / Thadenstraße,,,
3984342354,53.559875,10.0616625,Caspar-Voght-Straße / Sievekingsallee,,,
3986972994,53.6092439,10.0229478,U Sengelmannstraße / Djakartaweg,,,
3999929458,53.6122421,10.0237905,Alsterdorfer Markt / Evangelische Stiftung,,,
4014947526,53.5901843,9.9192927,S Stellingen / Randstraße,,,
4082015353,53.6118771,10.0756906,Herthastraße / Bramfelder Chaussee,,,
4104596804,53.5881822,10.0958902,Friedrich-Ebert-Damm / Helbingtwiete,,,
4104596805,53.5914991,10.1067168,Friedrich-Ebert-Damm / Charlie-Mills-Straße,,,
4104596806,53.6063731,10.120232,U Farmsen / Rahlstedter Weg,,,
4154232145,53.5807728,9.9383586,Langenfelder Damm / Müggenkampstraße,,,
4172849981,53.5716373,9.8624,Osdorfer Landstraße / Elbe-Einkaufszentrum,,,
4180986831,53.6234735,10.0121218,Röntgenstraße / Philips,,,
4180986832,53.6062042,10.0121461,U Alsterdorf / Hindenburgstraße,,,
4182172178,53.4900982,10.1584208,S Allermöhe / Walter-Rudolphi-Weg,,,
4185823625,53.4945964,10.206896,Lohbrügger Markt/Ludwig-Rosenberg-Ring,,,
4185823626,53.4905093,10.2060921,Bahnhof Bergedorf / Johann-Meyer-Straße,,,
4185823627,53.4883277,10.2109268,Vierlandenstraße / Johann-Adolf-Hasse-Platz,,,
4185823628,53.4874297,10.2199235,Wentorfer Straße / Bezirksamt Bergedorf,,,
4185823629,53.4884427,10.1822519,S Nettelnburg / Friedrich-Frank-Bogen,,,
4194104219,53.5438998,9.9424978,Van-der-Smissen-Straße / Große Elbstraße,,,
4207375921,53.5400801,10.1061928,Billstedter Platz / Öjendorfer Weg,,,
4221459279,53.5893066,9.9645014,Grandweg / Veilchenweg,,,
4241611840,53.5475373,9.8613995,Elbchaussee / Teufelsbrück,,,
4349053150,53.5980386,10.1013751,U Trabrennbahn / Traberweg,,,
4561592890,53.566078,9.9107328,Bahrenfelder Chaussee / Von-Sauer-Straße,,,
4676328327,53.6190579,9.9512992,U Niendorf Markt / Tibarg,,,
4888454521,53.5713804,9.9533198,U Emilienstraße / Fruchtallee,,,
4888466823,53.5759384,9.9523876,U Osterstraße / Heußweg,,,
5018581280,53.5659359,10.0191888,Mundsburger Brücke / Papenhuder Straße,,,
5107424668,53.5820249,9.987606,U Klosterstern / Eppendorfer Baum,,,
5139465939,53.5567909,10.0200424,,,,
5325398339,53.5513209,9.9130394,Bleickenallee / Kinderkrankenhaus Altona,,,
5366275822,53.5877116,10.046259,Fuhlsbüttler Straße / Pestalozzistraße (Piazetta),,,
5499538285,53.5749543,9.8790089,Notkestraße / DESY Hörsaal,,,
5553163491,53.7273895,9.9971879,,,,
5574267062,53.5969744,10.0625052,Hellbrookkamp/ Novomind AG,,,
5600792851,53.5781088,9.9759273,U Hoheluftbrücke / Kaiser-Friedrich-Ufer,,,
5629104779,53.5039284,9.9856912,Groß-Sand / Wilhelmsburger Krankenhaus,,,
5892784115,53.5567084,9.9185744,Hohenzollernring / Friedensallee,,,
6014726853,53.5648609,10.0547169,S Hasselbrook / Papenstraße,,,
6066219164,53.523809,10.0365141,Peutestraße / Hatraco,,,
6232335440,53.5486246,9.9872591,U Rödingsmarkt / Großer Burstah,,,
6303324389,53.5574012,9.9693135,U Feldstraße / Marktstraße,,,
6317819205,53.5785982,9.8829312,Notkestraße / DESY Gebäude 25b,,,
6398543010,53.6343053,10.0060351,Hamburg Airport / Terminal 1,,,
6398543593,53.4615993,10.0037299,Neuländer Kamp / Eurofins,,,
6551504764,53.5350606,10.0820289,Liebigstraße / Wöhlerstraße,,,
6611781820,53.5263826,10.0925985,Moorfleeter Straße / Pinkertweg,,,
6611786344,53.5307627,10.1062913,Liebigstraße / Berzeliusstraße,,,
6636958052,53.5449722,10.0368414,Bullerdeich / Stadtreinigung Hamburg,,,
6691352816,53.4949306,9.9905454,Georg-Wilhelm-Straße / Mankiewicz,,,
6844818789,53.5507266,9.9971667,U Rathaus / Mönckebergstraße,,,
6902250613,53.5819601,10.0681152,U Straßburger Straße / Nordschleswiger Straße,,,
7001040675,53.6332965,9.9064895,AKN Schnelsen / Pinneberger Straße,,,
7007231651,53.6205596,9.9449209,Max-Zelck-Straße / Haus der Kirche,,,
7044578385,53.5598418,9.9489917,Swapfiets,Holstenstraße 167,22765,Hamburg
7258416520,53.5593708,9.9375924,Felicitas-Kukuck-Straße / Lille Torv,,,
7400938319,53.5735126,9.8928558,Luruper Chaussee / Ebertallee,,,
7487253803,53.6028918,9.893393,S Elbgaustraße / Weidplan,,,
7561054469,53.6034697,9.9449726,U Hagendeel / Hinter der Lieth,,,
7566472908,53.6094987,9.9004975,AKN Eidelstedt Zentrum / Johann-Schmidt-Straße,,,
7597478103,53.5385744,10.122345,U Merkenstraße / Möllner Landstraße,,,
7597491327,53.5283601,10.150073,U Mümmelmannsberg / Kandinskyallee,,,
7634084462,53.6408902,9.9500899,U Niendorf-Nord / Nordalbingerweg,,,
7638134743,53.5223865,10.0315696,Hovestraße / Aurubis,,,
7647336031,53.5351785,10.0243952,S+U Elbbrücken / Versmannstraße,,,
7714646000,53.4846351,10.0189084,Karl-Arnold-Ring / Dahlgrünring,,,
7734189444,53.5796246,9.9323331,S Langenfelde / Försterweg,,,
7756513740,53.7337261,10.0063793,,,,
7794982058,53.5441306,10.0311224,Heidenkampsweg / R+V Versicherung,,,
7877556609,53.5269211,10.0792433,Bredowstraße / Pinkertweg,,,
7877556610,53.5305806,10.0652716,S Tiefstack / Ausschläger Allee,,,
7884768262,53.4539393,9.982205,Maretstraße / Baererstraße,,,
7884768263,53.4545534,9.9653976,Göhlbachtal / Berufliche Schule Harburg,,,
7914059820,53.6205927,9.9970114,Weg beim Jäger / Lufthansa 2,,,
7914091818,53.6066362,9.9042667,Eidelstedt-Center / Elbgaustraße,,,
7921426764,53.6038241,10.0196649,Überseering / New-York-Ring,,,
7924279610,53.60436,10.1546019,Bahnhof Rahlstedt / Helmut-Steidl-Platz,,,
7929068096,53.5544344,9.9007536,Paul-Ehrlich-Straße / Asklepios-Klinik Altona,,,
7932637898,53.6184362,10.1261799,U Oldenfelde / Busbrookhöhe,,,
7935331576,53.6266838,10.0852574,Bramfelder Chaussee / Maisredder,,,
8048056968,53.5443346,10.0068637,Oberhafenquartier Nord / Oberhafenbrücke,,,
8048056969,53.5439994,10.0037483,Stockmeyerstraße / Am Lohsepark,,,
8064065950,53.6855864,10.0233033,,,,
8064117416,53.6823951,9.998494,,,,
8117564446,53.6051276,9.9829769,Borsteler Chaussee / Alphapark,,,
8120336256,53.5399955,10.0134942,Versmannstraße / Gerda-Gmelin Platz,,,
8122091315,53.5457861,10.003034,Oberbaumbrücke / Ericusspitze,,,
8151806474,53.5868473,10.0569194,Lämmersieth / Wachtelstraße,,,
8151806475,53.5827523,10.0466016,Bramfelder Straße / Pfennigsbusch,,,
8246019483,53.586482,10.1249863,Tonndorfer Hauptstraße / Sonnenweg,,,
8246019484,53.5705962,10.1050374,Universität der Bundeswehr / Rodigallee,,,
8246019485,53.5707977,10.1361752,Barsbütteler Straße / Öjendorfer Damm,,,
8246047934,53.5919389,10.0751039,U Wandsbek-Gartenstadt / Ostpreußenplatz,,,
8246047935,53.6015334,10.0627048,Fabriciusstraße / Buschrosenweg,,,
8358925124,53.5782912,10.0460054,Von-Essen-Straße / Dehnhaide,,,
8406449889,53.7030748,9.9798614,,,,
8406449890,53.7159267,9.9999444,,,,
8406562957,53.6816914,9.9795878,,,,
8485931898,53.5625959,9.9410519,Mobilstation Mitte Altona,Glückel-von-Hameln-Straße 18,22765,Hamburg
8688629968,53.5362423,9.8776873,Fähranleger Finkenwerder / Butendeichsweg,,,
8724669692,53.6898027,9.9997521,,,,
8773675203,53.60756,9.9787516,Borsteler Chaussee / Köppenstraße,,,
8916282408,53.5778586,10.1179254,Kuehnstraße / Albert-Schweitzer-Ring,,,
8996254625,53.6403095,10.0838584,S Wellingsbüttel / Rolfinckstraße,,,
9039034249,53.5173842,10.1686245,Heidhorst / Bockhorster Weg,,,
9039034250,53.5078842,10.1800735,Lohbrügger Landstraße / BG Klinikum,,,
9039034251,53.5102816,10.2075353,Korachstraße / Helmuth-Hübener-Weg,,,
9039034252,53.4865374,10.2343722,Glindersweg / Bethesda-Krankenhaus,,,
9067050389,53.6050374,10.0299856,Winterlindenweg / Loki-Schmidt-Platz,,,
9074431349,53.6034274,9.9728333,Gert-Marcus-Straße / Anni-Glissmann-Weg,,,
9074474335,53.573976,10.0081406,Schöne Aussicht / Karlstraße,,,
9156266852,53.5758186,9.8151858,S Iserbrook / Heidrehmen,,,
9156285917,53.5615411,9.9390469,Mariannenruh-Platz / Eva-Rühmkorf-Straße,,,
9161278485,53.4650553,9.814923,Fischbeker Heidbrook / Quartiersmitte,,,
9175489689,53.5365715,10.0222966,Amerigo-Vespucci-Platz / Baakenwerder Straße,,,
9327945763,53.5874771,9.9038271,Volksparkstadion / Sylvesterallee,,,
9374443897,53.5627482,9.9484936,S Holstenstraße / Düppelstraße,,,
9395391225,53.6345593,9.9526068,U Schippelsweg / Paul-Sorge-Straße,,,
9401034817,53.5395351,9.8630123,Fähre Rüschpark / Heinrich-Saß-Weg,,,
9452366369,53.5639362,10.04602,Hasselbrookstraße / Ritterstraße,,,
9471121578,53.473788,9.8537497,S Neugraben / Am Neugrabener Bahnhof,,,
9553115403,53.5791143,10.0643712,Elsässer Straße / Stormarner Straße,,,
9573671705,53.5586352,9.9486708,Holstenstraße / Max-Brauer-Allee,,,
9576528225,53.6611437,10.0172817,U Langenhorn Nord / Foorthkamp,,,
9590413497,53.4828816,10.1765398,Henriette-Herz-Ring / Grachtenplatz,,,
9678572782,53.4788921,10.1691529,Fanny-Lewald-Ring,,,
9732949482,53.6039972,10.0312192,,,,
9883713757,53.620848,10.0308562,S+U Ohlsdorf / Im Grünen Grunde,,,
9925575297,53.6372779,9.9220075,Modering / Oldesloer Straße,,,
9925580559,53.6788572,10.00067,U Ochsenzoll / Langenhorner Chaussee,,,
10049582235,53.4963784,10.1830441,Billwerder Billdeich / TSG Sportforum,,,
10275673228,53.7126584,9.9902615,,,,
10302846798,53.5973197,10.0359872,S Alte Wöhr / Rübenkamp,,,
10681533873,53.5377583,10.0120049,Baakenallee / Lola-Rogge-Platz,,,
10698228009,53.4658728,9.9892196,Veritaskai / Theodor-Yorck-Straße,,,
10733701194,53.6288363,9.9500198,U Joachim-Mähl-Straße / Paul-Sorge-Straße,,,
10749545839,53.6867365,10.046057,,,,
10782730571,53.6324913,10.0548794,S Kornweg / Tornberg,,,
10805804295,53.5413628,9.9666886,Hermann-Blohm-Straße / Am Elbtunnel,,,
10820348482,53.6713214,10.124061,Wohldorfer Damm / Bergstedter Markt,,,
10866690469,53.5828254,9.9937432,Helwigstraße / St. Benedictstraße,,,
10956663868,53.6537109,10.1107854,Saseler Markt / Stadtbahnstraße,,,
10964338995,53.5570088,9.8037402,Strandweg / Fähre Blankenese,,,
10964339417,53.5823501,9.758437,S Rissen / Gudrunstraße,,,
10972716629,53.4824747,10.2217725,Soltaustieg / Arnoldistieg,,,
11003409840,53.5501539,9.99373,Rathausmarkt / Mönckebergstraße,,,
11038001567,53.5994161,9.9586995,Behrmannplatz / Grelckstraße,,,
11047319938,53.5385505,10.0082217,Baakenhöft / Baakenhafenbrücke,,,
11047332533,53.5681767,9.988533,Rothenbaumchaussee / Binderstraße,,,
11246972521,53.5819894,10.015009,Gertigstraße / Forsmannstraße,,,
11327771017,53.4662942,9.8106169,Im Fischbeker Heidbrook / Apfelbeerenring,,,
11362380439,53.6600422,10.0030599,Langenhorner Chaussee / Oehleckerring,,,
11362399876,53.6728023,10.0038633,Jütlandring / Asklepios Klinik Nord-Ochsenzoll,,,
11362453508,53.653995,10.09215,Heegbarg / Alstertal-Einkaufszentrum,,,
11403583437,53.5698799,10.0905501,Alphonsstraße / Asklepios Klinik Wandsbek,,,
11407374731,53.4764143,10.1962347,Randersweide / Kampweg,,,
11584394225,53.5613946,9.8430743,S Hochkamp / Reichskanzlerstraße,,,
11584465922,53.4414526,9.9586619,Ernst-Bergeest-Weg / Binnenfeld,,,
11584548980,53.4737065,9.8771113,S Neuwiedenthal / Striepenweg,,,
11663119730,53.566925,9.9347649,S Diebsteich / Plöner Straße,,,
11737198854,53.5670201,9.9771783,Bundesstraße / Universität,,,
11759292481,53.5835443,10.0717136,Eulenkamp / Straßburger Stieg,,,
11955709874,53.4853729,10.1469112,Adolf-Köster-Damm / Felix-Jud-Ring,,,
12208845913,53.6038945,10.0157519,sigo E-Lastenrad Sharing,Sydneystraße 28,22297,Hamburg
12208866922,53.6049012,10.0155192,sigo E-Lastenrad Sharing,Sydneystraße 10,22297,Hamburg
12215886872,53.5376254,9.847409,,,,
12215886873,53.5379026,9.8455839,,,,
12215886874,53.5425038,9.8434474,,,,
12215886875,53.5432439,9.8437131,,,,
12215886876,53.5429675,9.8422007,,,,
12215886877,53.5434996,9.8403426,,,,
12218941889,53.6514655,10.0957019,S Poppenbüttel / Stormarnplatz,,,
12222578175,53.6278112,10.025262,Erdkampsweg / Hummelsbütteler Landstraße,,,
12222594824,53.6755181,10.0285446,Tangstedter Landstraße / Asklepios Klinik Nord,,,
12227646433,53.5600131,9.9265799,S Ottensen / Thomasstraße,,,
12227695317,53.5544612,9.8447158,Nienstedtener Marktplatz / Nienstedtener Straße,,,
12227961082,53.4779702,9.8488032,Zum Wachtelkönig / Zaunwickenweg,,,
12228121088,53.5152708,10.0345537,Müggenburger Hauptdeich / Aurubis Werk-Ost,,,
12248769930,53.4747991,9.9495555,Holborn / Moorburger Bogen,,,
12314098668,53.6326058,10.015144,Alsterkrugchaussee / Preetzer Straße,,,
12320454353,53.5534166,10.0839117,U Horner Rennbahn / Rennbahnstraße,,,
12323881790,53.5953058,9.9844211,Tarpenbekstraße / Ernst-Thälmann-Platz,,,
12615398317,53.6082238,9.9064271,sigo E-Lastenrad Sharing,Eidelstedter Dorfstraße 11,22527,Hamburg
12769774968,53.7178393,9.987649,,,,
12827683280,53.5408737,10.000002,Überseeallee / Magdeburger Brücke,,,
12843054560,53.5577622,10.0504306,Carl-Petersen-Straße / Stoeckhardtstraße,,,
12843091776,53.6750697,10.0170585,U Kiwittsmoor / Fibiger Str.,,,
12843104015,53.4970452,10.131691,S Mittlerer Landweg / Am Gleisdreieck,,,
12844080500,53.4563091,9.9898566,Mobility Hub Hamburg-Harburg / Hannoversche Str.,,,
12844093867,53.4498655,9.9373927,Hainholzweg / Strucksbarg,,,
12851140941,53.5408569,10.0000424,,,,
